var kochi={"type":"FeatureCollection","name":"kochi","features":[
{"type":"Feature","geometry":{"type":"Point","coordinates":[133.52408569882,33.558273246331]},"properties":{"Name":"第四小学校","Jusho":"高知県高知市上町2丁目1-11","kouzui":"○","gake":"×","takashio":"×","jishin":"○","tsunami":"×","kaji":"×","naisui":"×","kazan":"×"}}
,{"type":"Feature","geometry":{"type":"Point","coordinates":[133.52880528048,33.55560117301]},"properties":{"Name":"第六小学校","Jusho":"高知県高知市升形9-4","kouzui":"○","gake":"×","takashio":"×","jishin":"○","tsunami":"×","kaji":"×","naisui":"×","kazan":"×"}}
,{"type":"Feature","geometry":{"type":"Point","coordinates":[133.54652767575,33.561265762832]},"properties":{"Name":"はりまや橋小学校","Jusho":"高知県高知市はりまや町2丁目14-8","kouzui":"○","gake":"×","takashio":"×","jishin":"○","tsunami":"○","kaji":"×","naisui":"×","kazan":"×"}}
,{"type":"Feature","geometry":{"type":"Point","coordinates":[133.55824217081,33.559896014418]},"properties":{"Name":"昭和小学校","Jusho":"高知県高知市日の出町7-61","kouzui":"○","gake":"×","takashio":"×","jishin":"○","tsunami":"○","kaji":"×","naisui":"×","kazan":"×"}}
,{"type":"Feature","geometry":{"type":"Point","coordinates":[133.53266952718,33.571620184975]},"properties":{"Name":"一ツ橋小学校","Jusho":"高知県高知市吉田町4-10","kouzui":"○","gake":"×","takashio":"×","jishin":"○","tsunami":"○","kaji":"×","naisui":"×","kazan":"×"}}
,{"type":"Feature","geometry":{"type":"Point","coordinates":[133.55195303369,33.567063243266]},"properties":{"Name":"江陽小学校","Jusho":"高知県高知市江陽町1-30","kouzui":"○","gake":"×","takashio":"×","jishin":"○","tsunami":"×","kaji":"×","naisui":"×","kazan":"×"}}
,{"type":"Feature","geometry":{"type":"Point","coordinates":[133.53867167049,33.568938559464]},"properties":{"Name":"江ノ口小学校","Jusho":"高知県高知市新本町1丁目8-12","kouzui":"○","gake":"×","takashio":"×","jishin":"○","tsunami":"○","kaji":"×","naisui":"×","kazan":"×"}}
,{"type":"Feature","geometry":{"type":"Point","coordinates":[133.52423984711,33.564935680748]},"properties":{"Name":"小高坂小学校","Jusho":"高知県高知市新屋敷1丁目11-5","kouzui":"○","gake":"×","takashio":"×","jishin":"○","tsunami":"○","kaji":"×","naisui":"×","kazan":"×"}}
,{"type":"Feature","geometry":{"type":"Point","coordinates":[133.50101892655,33.556715668021]},"properties":{"Name":"旭小学校","Jusho":"高知県高知市本宮町15","kouzui":"○","gake":"×","takashio":"×","jishin":"○","tsunami":"×","kaji":"×","naisui":"×","kazan":"×"}}
,{"type":"Feature","geometry":{"type":"Point","coordinates":[133.50762469675,33.559538436297]},"properties":{"Name":"旭東小学校","Jusho":"高知県高知市北端町50","kouzui":"○","gake":"×","takashio":"×","jishin":"○","tsunami":"×","kaji":"×","naisui":"×","kazan":"×"}}
,{"type":"Feature","geometry":{"type":"Point","coordinates":[133.49831256205,33.563924909139]},"properties":{"Name":"横内小学校","Jusho":"高知県高知市横内242-12","kouzui":"○","gake":"×","takashio":"×","jishin":"○","tsunami":"×","kaji":"×","naisui":"×","kazan":"×"}}
,{"type":"Feature","geometry":{"type":"Point","coordinates":[133.55136907559,33.550951713651]},"properties":{"Name":"潮江東小学校","Jusho":"高知県高知市潮新町2丁目1-54","kouzui":"○","gake":"×","takashio":"×","jishin":"○","tsunami":"○","kaji":"×","naisui":"×","kazan":"×"}}
,{"type":"Feature","geometry":{"type":"Point","coordinates":[133.54248335975,33.548820607403]},"properties":{"Name":"潮江小学校","Jusho":"高知県高知市百石町2丁目4-40","kouzui":"○","gake":"×","takashio":"×","jishin":"○","tsunami":"○","kaji":"×","naisui":"×","kazan":"×"}}
,{"type":"Feature","geometry":{"type":"Point","coordinates":[133.53955552336,33.541209527788]},"properties":{"Name":"潮江南小学校","Jusho":"高知県高知市高見町248-1","kouzui":"○","gake":"×","takashio":"×","jishin":"○","tsunami":"○","kaji":"×","naisui":"×","kazan":"×"}}
,{"type":"Feature","geometry":{"type":"Point","coordinates":[133.58309653359,33.518696393643]},"properties":{"Name":"三里小学校","Jusho":"高知県高知市仁井田1356","kouzui":"○","gake":"×","takashio":"×","jishin":"○","tsunami":"○","kaji":"×","naisui":"×","kazan":"×"}}
,{"type":"Feature","geometry":{"type":"Point","coordinates":[133.5780812766,33.529193443295]},"properties":{"Name":"十津小学校","Jusho":"高知県高知市十津4丁目27-1","kouzui":"○","gake":"×","takashio":"×","jishin":"○","tsunami":"×","kaji":"×","naisui":"×","kazan":"×"}}
,{"type":"Feature","geometry":{"type":"Point","coordinates":[133.57956317113,33.543784532049]},"properties":{"Name":"五台山小学校","Jusho":"高知県高知市五台山3371","kouzui":"○","gake":"×","takashio":"×","jishin":"○","tsunami":"○","kaji":"×","naisui":"×","kazan":"×"}}
,{"type":"Feature","geometry":{"type":"Point","coordinates":[133.5809834149,33.558017368802]},"properties":{"Name":"高須小学校","Jusho":"高知県高知市高須1丁目1-55","kouzui":"○","gake":"×","takashio":"×","jishin":"○","tsunami":"○","kaji":"×","naisui":"×","kazan":"×"}}
,{"type":"Feature","geometry":{"type":"Point","coordinates":[133.59146822333,33.583019079488]},"properties":{"Name":"布師田小学校","Jusho":"高知県高知市布師田1781-1","kouzui":"○","gake":"×","takashio":"×","jishin":"○","tsunami":"○","kaji":"×","naisui":"×","kazan":"×"}}
,{"type":"Feature","geometry":{"type":"Point","coordinates":[133.56243664445,33.612003606125]},"properties":{"Name":"久重小学校","Jusho":"高知県高知市久礼野2340-2","kouzui":"○","gake":"×","takashio":"×","jishin":"○","tsunami":"×","kaji":"×","naisui":"×","kazan":"×"}}
,{"type":"Feature","geometry":{"type":"Point","coordinates":[133.56774038792,33.584613187323]},"properties":{"Name":"一宮小学校","Jusho":"高知県高知市一宮西町1丁目9-1","kouzui":"○","gake":"×","takashio":"×","jishin":"○","tsunami":"○","kaji":"×","naisui":"×","kazan":"×"}}
,{"type":"Feature","geometry":{"type":"Point","coordinates":[133.57682344803,33.583943612998]},"properties":{"Name":"一宮東小学校","Jusho":"高知県高知市一宮東町1丁目20-1","kouzui":"○","gake":"×","takashio":"×","jishin":"○","tsunami":"○","kaji":"×","naisui":"×","kazan":"×"}}
,{"type":"Feature","geometry":{"type":"Point","coordinates":[133.53556291523,33.577465543577]},"properties":{"Name":"秦小学校","Jusho":"高知県高知市愛宕山18","kouzui":"○","gake":"×","takashio":"×","jishin":"○","tsunami":"×","kaji":"×","naisui":"×","kazan":"×"}}
,{"type":"Feature","geometry":{"type":"Point","coordinates":[133.54839099761,33.582411341221]},"properties":{"Name":"泉野小学校","Jusho":"高知県高知市東秦泉寺788","kouzui":"○","gake":"×","takashio":"×","jishin":"○","tsunami":"×","kaji":"×","naisui":"×","kazan":"×"}}
,{"type":"Feature","geometry":{"type":"Point","coordinates":[133.51878186746,33.574402692481]},"properties":{"Name":"初月小学校","Jusho":"高知県高知市南久万128","kouzui":"○","gake":"×","takashio":"×","jishin":"○","tsunami":"○","kaji":"×","naisui":"×","kazan":"×"}}
,{"type":"Feature","geometry":{"type":"Point","coordinates":[133.45844953328,33.587285976016]},"properties":{"Name":"行川学園","Jusho":"高知県高知市行川472","kouzui":"○","gake":"×","takashio":"×","jishin":"○","tsunami":"×","kaji":"×","naisui":"×","kazan":"×"}}
,{"type":"Feature","geometry":{"type":"Point","coordinates":[133.48690718145,33.546894616334]},"properties":{"Name":"朝倉小学校","Jusho":"高知県高知市朝倉本町2丁目11-20","kouzui":"○","gake":"×","takashio":"×","jishin":"○","tsunami":"×","kaji":"×","naisui":"×","kazan":"×"}}
,{"type":"Feature","geometry":{"type":"Point","coordinates":[133.48849906696,33.540597834901]},"properties":{"Name":"朝倉第二小学校","Jusho":"高知県高知市若草南町23-56","kouzui":"○","gake":"×","takashio":"×","jishin":"○","tsunami":"×","kaji":"×","naisui":"×","kazan":"×"}}
,{"type":"Feature","geometry":{"type":"Point","coordinates":[133.50787978133,33.547023368035]},"properties":{"Name":"鴨田小学校","Jusho":"高知県高知市鴨部1155","kouzui":"○","gake":"×","takashio":"×","jishin":"○","tsunami":"×","kaji":"×","naisui":"×","kazan":"×"}}
,{"type":"Feature","geometry":{"type":"Point","coordinates":[133.51288871274,33.541533651069]},"properties":{"Name":"神田小学校","Jusho":"高知県高知市神田1174-1","kouzui":"○","gake":"×","takashio":"×","jishin":"○","tsunami":"×","kaji":"×","naisui":"×","kazan":"×"}}
,{"type":"Feature","geometry":{"type":"Point","coordinates":[133.54683379396,33.499605648659]},"properties":{"Name":"長浜小学校","Jusho":"高知県高知市長浜4811","kouzui":"○","gake":"×","takashio":"×","jishin":"○","tsunami":"○","kaji":"×","naisui":"×","kazan":"×"}}
,{"type":"Feature","geometry":{"type":"Point","coordinates":[133.54777694437,33.514915140867]},"properties":{"Name":"横浜小学校","Jusho":"高知県高知市瀬戸東町1丁目26","kouzui":"○","gake":"×","takashio":"×","jishin":"○","tsunami":"×","kaji":"×","naisui":"×","kazan":"×"}}
,{"type":"Feature","geometry":{"type":"Point","coordinates":[133.53693298365,33.514029960099]},"properties":{"Name":"横浜新町小学校","Jusho":"高知県高知市横浜新町5丁目2201","kouzui":"○","gake":"×","takashio":"×","jishin":"○","tsunami":"×","kaji":"×","naisui":"×","kazan":"×"}}
,{"type":"Feature","geometry":{"type":"Point","coordinates":[133.56871626941,33.495812746177]},"properties":{"Name":"浦戸小学校","Jusho":"高知県高知市浦戸410-1","kouzui":"○","gake":"×","takashio":"×","jishin":"○","tsunami":"×","kaji":"×","naisui":"×","kazan":"×"}}
,{"type":"Feature","geometry":{"type":"Point","coordinates":[133.59915953551,33.571830486066]},"properties":{"Name":"大津小学校","Jusho":"高知県高知市大津乙972","kouzui":"○","gake":"×","takashio":"×","jishin":"○","tsunami":"○","kaji":"×","naisui":"×","kazan":"×"}}
,{"type":"Feature","geometry":{"type":"Point","coordinates":[133.60204878211,33.556607520406]},"properties":{"Name":"介良小学校","Jusho":"高知県高知市介良乙2735-1","kouzui":"○","gake":"×","takashio":"×","jishin":"○","tsunami":"○","kaji":"×","naisui":"×","kazan":"×"}}
,{"type":"Feature","geometry":{"type":"Point","coordinates":[133.62047770085,33.561934254423]},"properties":{"Name":"介良潮見台小学校","Jusho":"高知県高知市潮見台1丁目2602-1","kouzui":"○","gake":"×","takashio":"×","jishin":"○","tsunami":"×","kaji":"×","naisui":"×","kazan":"×"}}
,{"type":"Feature","geometry":{"type":"Point","coordinates":[133.47224144809,33.603291243222]},"properties":{"Name":"鏡小学校","Jusho":"高知県高知市鏡今井7","kouzui":"○","gake":"×","takashio":"×","jishin":"○","tsunami":"×","kaji":"×","naisui":"×","kazan":"×"}}
,{"type":"Feature","geometry":{"type":"Point","coordinates":[133.52698969371,33.633295446534]},"properties":{"Name":"土佐山学舎","Jusho":"高知県高知市土佐山桑尾13","kouzui":"○","gake":"×","takashio":"×","jishin":"○","tsunami":"×","kaji":"×","naisui":"×","kazan":"×"}}
,{"type":"Feature","geometry":{"type":"Point","coordinates":[133.51399411898,33.495257891605]},"properties":{"Name":"春野東小学校","Jusho":"高知県高知市春野町東諸木3978","kouzui":"×","gake":"×","takashio":"×","jishin":"○","tsunami":"○","kaji":"×","naisui":"×","kazan":"×"}}
,{"type":"Feature","geometry":{"type":"Point","coordinates":[133.46177791871,33.497745613]},"properties":{"Name":"春野西小学校","Jusho":"高知県高知市春野町弘岡中2501","kouzui":"×","gake":"×","takashio":"×","jishin":"○","tsunami":"×","kaji":"×","naisui":"×","kazan":"×"}}
,{"type":"Feature","geometry":{"type":"Point","coordinates":[133.5354398073,33.570132906232]},"properties":{"Name":"愛宕中学校","Jusho":"高知県高知市相模町1-54","kouzui":"○","gake":"×","takashio":"×","jishin":"○","tsunami":"○","kaji":"×","naisui":"×","kazan":"×"}}
,{"type":"Feature","geometry":{"type":"Point","coordinates":[133.55352000035,33.56723128089]},"properties":{"Name":"城東中学校","Jusho":"高知県高知市江陽町1-20","kouzui":"○","gake":"×","takashio":"×","jishin":"○","tsunami":"○","kaji":"×","naisui":"×","kazan":"×"}}
,{"type":"Feature","geometry":{"type":"Point","coordinates":[133.52416714553,33.559913126667]},"properties":{"Name":"城西中学校","Jusho":"高知県高知市大膳町3-4","kouzui":"○","gake":"×","takashio":"×","jishin":"○","tsunami":"○","kaji":"×","naisui":"×","kazan":"×"}}
,{"type":"Feature","geometry":{"type":"Point","coordinates":[133.52557220915,33.567916563173]},"properties":{"Name":"城北中学校","Jusho":"高知県高知市八反町1丁目8-14","kouzui":"○","gake":"×","takashio":"×","jishin":"○","tsunami":"○","kaji":"×","naisui":"×","kazan":"×"}}
,{"type":"Feature","geometry":{"type":"Point","coordinates":[133.49252794585,33.56794197216]},"properties":{"Name":"旭中学校","Jusho":"高知県高知市口細山164-1","kouzui":"○","gake":"×","takashio":"×","jishin":"○","tsunami":"×","kaji":"×","naisui":"×","kazan":"×"}}
,{"type":"Feature","geometry":{"type":"Point","coordinates":[133.54066266632,33.552923173508]},"properties":{"Name":"潮江中学校","Jusho":"高知県高知市塩屋崎町1丁目2-20","kouzui":"○","gake":"×","takashio":"×","jishin":"○","tsunami":"○","kaji":"×","naisui":"×","kazan":"×"}}
,{"type":"Feature","geometry":{"type":"Point","coordinates":[133.58441548963,33.518166569586]},"properties":{"Name":"三里中学校","Jusho":"高知県高知市仁井田3363","kouzui":"○","gake":"×","takashio":"×","jishin":"○","tsunami":"○","kaji":"×","naisui":"×","kazan":"×"}}
,{"type":"Feature","geometry":{"type":"Point","coordinates":[133.58999888237,33.549994791565]},"properties":{"Name":"青柳中学校","Jusho":"高知県高知市五台山3923","kouzui":"○","gake":"×","takashio":"×","jishin":"○","tsunami":"○","kaji":"×","naisui":"×","kazan":"×"}}
,{"type":"Feature","geometry":{"type":"Point","coordinates":[133.56564665698,33.576845598956]},"properties":{"Name":"一宮中学校","Jusho":"高知県高知市一宮南町1丁目3-1","kouzui":"○","gake":"×","takashio":"×","jishin":"○","tsunami":"○","kaji":"×","naisui":"×","kazan":"×"}}
,{"type":"Feature","geometry":{"type":"Point","coordinates":[133.48012047579,33.543822653757]},"properties":{"Name":"朝倉中学校","Jusho":"高知県高知市朝倉丁604-1","kouzui":"○","gake":"×","takashio":"×","jishin":"○","tsunami":"×","kaji":"×","naisui":"×","kazan":"×"}}
,{"type":"Feature","geometry":{"type":"Point","coordinates":[133.50639885482,33.550930825732]},"properties":{"Name":"西部中学校","Jusho":"高知県高知市鴨部1丁目9-1","kouzui":"○","gake":"×","takashio":"×","jishin":"○","tsunami":"×","kaji":"×","naisui":"×","kazan":"×"}}
,{"type":"Feature","geometry":{"type":"Point","coordinates":[133.54662566016,33.496624724317]},"properties":{"Name":"南海中学校","Jusho":"高知県高知市長浜5235","kouzui":"○","gake":"×","takashio":"×","jishin":"○","tsunami":"○","kaji":"×","naisui":"×","kazan":"×"}}
,{"type":"Feature","geometry":{"type":"Point","coordinates":[133.53441761605,33.521552147645]},"properties":{"Name":"横浜中学校","Jusho":"高知県高知市横浜新町1丁目401","kouzui":"○","gake":"×","takashio":"×","jishin":"○","tsunami":"×","kaji":"×","naisui":"×","kazan":"×"}}
,{"type":"Feature","geometry":{"type":"Point","coordinates":[133.59599247546,33.56911747175]},"properties":{"Name":"大津中学校","Jusho":"高知県高知市大津乙740-1","kouzui":"○","gake":"×","takashio":"×","jishin":"○","tsunami":"○","kaji":"×","naisui":"×","kazan":"×"}}
,{"type":"Feature","geometry":{"type":"Point","coordinates":[133.60360787605,33.55612238088]},"properties":{"Name":"介良中学校","Jusho":"高知県高知市介良乙2620","kouzui":"○","gake":"×","takashio":"×","jishin":"○","tsunami":"○","kaji":"×","naisui":"×","kazan":"×"}}
,{"type":"Feature","geometry":{"type":"Point","coordinates":[133.47224370912,33.606996423962]},"properties":{"Name":"鏡中学校","Jusho":"高知県高知市鏡今井191","kouzui":"○","gake":"×","takashio":"×","jishin":"○","tsunami":"×","kaji":"×","naisui":"×","kazan":"×"}}
,{"type":"Feature","geometry":{"type":"Point","coordinates":[133.48957716539,33.501747470411]},"properties":{"Name":"春野中学校","Jusho":"高知県高知市春野町西分328","kouzui":"○","gake":"×","takashio":"×","jishin":"○","tsunami":"×","kaji":"×","naisui":"×","kazan":"×"}}
,{"type":"Feature","geometry":{"type":"Point","coordinates":[133.49855382184,33.557629793299]},"properties":{"Name":"高知特別支援学校","Jusho":"高知県高知市本宮町125","kouzui":"○","gake":"×","takashio":"×","jishin":"○","tsunami":"×","kaji":"×","naisui":"×","kazan":"×"}}
,{"type":"Feature","geometry":{"type":"Point","coordinates":[133.49454643209,33.559805720521]},"properties":{"Name":"高知商業高等学校","Jusho":"高知県高知市大谷6","kouzui":"○","gake":"×","takashio":"×","jishin":"○","tsunami":"×","kaji":"×","naisui":"×","kazan":"×"}}
,{"type":"Feature","geometry":{"type":"Point","coordinates":[133.57483483003,33.513233259178]},"properties":{"Name":"三里ふれあいセンター","Jusho":"高知県高知市仁井田4229-2","kouzui":"○","gake":"×","takashio":"×","jishin":"○","tsunami":"×","kaji":"×","naisui":"×","kazan":"×"}}
,{"type":"Feature","geometry":{"type":"Point","coordinates":[133.58328526157,33.544092716059]},"properties":{"Name":"五台山ふれあいセンター","Jusho":"高知県高知市五台山2945-2","kouzui":"○","gake":"×","takashio":"×","jishin":"○","tsunami":"×","kaji":"×","naisui":"×","kazan":"×"}}
,{"type":"Feature","geometry":{"type":"Point","coordinates":[133.58013437111,33.557728299815]},"properties":{"Name":"高須ふれあいセンター","Jusho":"高知県高知市高須新町2丁目5-15","kouzui":"○","gake":"×","takashio":"×","jishin":"○","tsunami":"×","kaji":"×","naisui":"×","kazan":"×"}}
,{"type":"Feature","geometry":{"type":"Point","coordinates":[133.59506841955,33.583475412516]},"properties":{"Name":"布師田ふれあいセンター","Jusho":"高知県高知市布師田1647","kouzui":"○","gake":"×","takashio":"×","jishin":"○","tsunami":"×","kaji":"×","naisui":"×","kazan":"×"}}
,{"type":"Feature","geometry":{"type":"Point","coordinates":[133.5691811859,33.583653000558]},"properties":{"Name":"一宮ふれあいセンター","Jusho":"高知県高知市一宮中町1丁目5-20","kouzui":"○","gake":"×","takashio":"×","jishin":"○","tsunami":"×","kaji":"×","naisui":"×","kazan":"×"}}
,{"type":"Feature","geometry":{"type":"Point","coordinates":[133.53679571347,33.580033807653]},"properties":{"Name":"秦ふれあいセンター","Jusho":"高知県高知市中秦泉寺54-3","kouzui":"○","gake":"×","takashio":"×","jishin":"○","tsunami":"×","kaji":"×","naisui":"×","kazan":"×"}}
,{"type":"Feature","geometry":{"type":"Point","coordinates":[133.5195771434,33.574326286799]},"properties":{"Name":"初月ふれあいセンター","Jusho":"高知県高知市南久万119-1","kouzui":"○","gake":"×","takashio":"×","jishin":"○","tsunami":"×","kaji":"×","naisui":"×","kazan":"×"}}
,{"type":"Feature","geometry":{"type":"Point","coordinates":[133.49044132075,33.54970973758]},"properties":{"Name":"朝倉ふれあいセンター","Jusho":"高知県高知市曙町1丁目14-12","kouzui":"○","gake":"×","takashio":"×","jishin":"○","tsunami":"×","kaji":"×","naisui":"×","kazan":"×"}}
,{"type":"Feature","geometry":{"type":"Point","coordinates":[133.5452217753,33.50253251606]},"properties":{"Name":"長浜ふれあいセンター","Jusho":"高知県高知市長浜690-5","kouzui":"○","gake":"×","takashio":"×","jishin":"○","tsunami":"×","kaji":"×","naisui":"×","kazan":"×"}}
,{"type":"Feature","geometry":{"type":"Point","coordinates":[133.55604678123,33.504993413449]},"properties":{"Name":"御畳瀬ふれあいセンター","Jusho":"高知県高知市御畳瀬252","kouzui":"○","gake":"×","takashio":"×","jishin":"○","tsunami":"×","kaji":"×","naisui":"×","kazan":"×"}}
,{"type":"Feature","geometry":{"type":"Point","coordinates":[133.56690966095,33.49754769399]},"properties":{"Name":"浦戸ふれあいセンター","Jusho":"高知県高知市浦戸274-9","kouzui":"○","gake":"×","takashio":"×","jishin":"○","tsunami":"×","kaji":"×","naisui":"×","kazan":"×"}}
,{"type":"Feature","geometry":{"type":"Point","coordinates":[133.59811361372,33.571357124131]},"properties":{"Name":"大津ふれあいセンター","Jusho":"高知県高知市大津乙930-5","kouzui":"○","gake":"×","takashio":"×","jishin":"○","tsunami":"×","kaji":"×","naisui":"×","kazan":"×"}}
,{"type":"Feature","geometry":{"type":"Point","coordinates":[133.60632044395,33.558152210089]},"properties":{"Name":"介良ふれあいセンター","Jusho":"高知県高知市介良乙2286","kouzui":"○","gake":"×","takashio":"×","jishin":"○","tsunami":"×","kaji":"×","naisui":"×","kazan":"×"}}
,{"type":"Feature","geometry":{"type":"Point","coordinates":[133.54722195341,33.558339259209]},"properties":{"Name":"文化プラザ「かるぽーと」","Jusho":"高知県高知市九反田2-1","kouzui":"○","gake":"×","takashio":"×","jishin":"○","tsunami":"○","kaji":"×","naisui":"×","kazan":"×"}}
,{"type":"Feature","geometry":{"type":"Point","coordinates":[133.56428855323,33.54494882715]},"properties":{"Name":"卸売市場","Jusho":"高知県高知市弘化台12-12","kouzui":"○","gake":"×","takashio":"×","jishin":"○","tsunami":"×","kaji":"×","naisui":"×","kazan":"×"}}
,{"type":"Feature","geometry":{"type":"Point","coordinates":[133.56625203236,33.561514515506]},"properties":{"Name":"下知水再生センター","Jusho":"高知県高知市小倉町5-25","kouzui":"○","gake":"×","takashio":"×","jishin":"×","tsunami":"○","kaji":"×","naisui":"×","kazan":"×"}}
,{"type":"Feature","geometry":{"type":"Point","coordinates":[133.55848069934,33.569118787]},"properties":{"Name":"弥右衛門ふれあいセンター","Jusho":"高知県高知市北御座2-60","kouzui":"○","gake":"×","takashio":"×","jishin":"○","tsunami":"×","kaji":"×","naisui":"×","kazan":"×"}}
,{"type":"Feature","geometry":{"type":"Point","coordinates":[133.55688341253,33.556748748393]},"properties":{"Name":"下知コミュニティセンター","Jusho":"高知県高知市二葉町10-7","kouzui":"○","gake":"×","takashio":"×","jishin":"○","tsunami":"○","kaji":"×","naisui":"×","kazan":"×"}}
,{"type":"Feature","geometry":{"type":"Point","coordinates":[133.53604665046,33.566288996591]},"properties":{"Name":"江ノ口コミュニティセンター","Jusho":"高知県高知市愛宕町1丁目10-7","kouzui":"○","gake":"×","takashio":"×","jishin":"○","tsunami":"○","kaji":"×","naisui":"×","kazan":"×"}}
,{"type":"Feature","geometry":{"type":"Point","coordinates":[133.54523777599,33.572537119463]},"properties":{"Name":"保健福祉センター","Jusho":"高知県高知市塩田町18-10","kouzui":"○","gake":"×","takashio":"×","jishin":"○","tsunami":"×","kaji":"×","naisui":"×","kazan":"×"}}
,{"type":"Feature","geometry":{"type":"Point","coordinates":[133.52459999996,33.556390000065]},"properties":{"Name":"龍馬の生まれたまち記念館","Jusho":"高知県高知市上町2丁目６-３３","kouzui":"○","gake":"×","takashio":"×","jishin":"○","tsunami":"○","kaji":"×","naisui":"×","kazan":"×"}}
,{"type":"Feature","geometry":{"type":"Point","coordinates":[133.51831434935,33.561065313077]},"properties":{"Name":"小高坂市民会館","Jusho":"高知県高知市山ノ端町32-5","kouzui":"○","gake":"×","takashio":"×","jishin":"○","tsunami":"×","kaji":"×","naisui":"×","kazan":"×"}}
,{"type":"Feature","geometry":{"type":"Point","coordinates":[133.50799651593,33.556413168683]},"properties":{"Name":"木村会館","Jusho":"高知県高知市旭町3丁目121","kouzui":"○","gake":"×","takashio":"×","jishin":"○","tsunami":"×","kaji":"×","naisui":"×","kazan":"×"}}
,{"type":"Feature","geometry":{"type":"Point","coordinates":[133.51190145162,33.569348974806]},"properties":{"Name":"福寿園","Jusho":"高知県高知市福井町748","kouzui":"○","gake":"×","takashio":"×","jishin":"○","tsunami":"×","kaji":"×","naisui":"×","kazan":"×"}}
,{"type":"Feature","geometry":{"type":"Point","coordinates":[133.55771410951,33.547262280055]},"properties":{"Name":"潮江水再生センター","Jusho":"高知県高知市南新田町5-69","kouzui":"○","gake":"×","takashio":"×","jishin":"×","tsunami":"○","kaji":"×","naisui":"×","kazan":"×"}}
,{"type":"Feature","geometry":{"type":"Point","coordinates":[133.54713198782,33.549971959173]},"properties":{"Name":"アスパルこうち","Jusho":"高知県高知市桟橋通2丁目1-50","kouzui":"○","gake":"×","takashio":"×","jishin":"○","tsunami":"○","kaji":"×","naisui":"×","kazan":"×"}}
,{"type":"Feature","geometry":{"type":"Point","coordinates":[133.5467149405,33.550403978878]},"properties":{"Name":"潮江市民図書館","Jusho":"高知県高知市桟橋通2丁目1-50","kouzui":"○","gake":"×","takashio":"×","jishin":"×","tsunami":"×","kaji":"×","naisui":"×","kazan":"×"}}
,{"type":"Feature","geometry":{"type":"Point","coordinates":[133.54807710386,33.54514679974]},"properties":{"Name":"南部健康福祉センター","Jusho":"高知県高知市百石町3丁目1-30","kouzui":"○","gake":"×","takashio":"×","jishin":"○","tsunami":"×","kaji":"×","naisui":"×","kazan":"×"}}
,{"type":"Feature","geometry":{"type":"Point","coordinates":[133.52921435043,33.550920421122]},"properties":{"Name":"小石木市民会館","Jusho":"高知県高知市小石木町182-4","kouzui":"○","gake":"×","takashio":"×","jishin":"×","tsunami":"×","kaji":"×","naisui":"×","kazan":"×"}}
,{"type":"Feature","geometry":{"type":"Point","coordinates":[133.52980012416,33.553249609384]},"properties":{"Name":"総合体育館","Jusho":"高知県高知市大原町158","kouzui":"○","gake":"×","takashio":"×","jishin":"○","tsunami":"×","kaji":"×","naisui":"×","kazan":"×"}}
,{"type":"Feature","geometry":{"type":"Point","coordinates":[133.52370431511,33.547553796303]},"properties":{"Name":"潮江市民会館","Jusho":"高知県高知市南河ノ瀬町161","kouzui":"○","gake":"×","takashio":"×","jishin":"×","tsunami":"×","kaji":"×","naisui":"×","kazan":"×"}}
,{"type":"Feature","geometry":{"type":"Point","coordinates":[133.57403595889,33.514693669124]},"properties":{"Name":"三里文化会館","Jusho":"高知県高知市仁井田1652-1","kouzui":"○","gake":"×","takashio":"×","jishin":"○","tsunami":"×","kaji":"×","naisui":"×","kazan":"×"}}
,{"type":"Feature","geometry":{"type":"Point","coordinates":[133.56770271062,33.507044363438]},"properties":{"Name":"種崎地区津波避難センター","Jusho":"高知県高知市種崎405-6","kouzui":"○","gake":"×","takashio":"×","jishin":"○","tsunami":"○","kaji":"×","naisui":"×","kazan":"×"}}
,{"type":"Feature","geometry":{"type":"Point","coordinates":[133.5682743,33.50971405]},"properties":{"Name":"舟倉津波避難センター","Jusho":"高知県高知市仁井田1646-14","kouzui":"○","gake":"×","takashio":"×","jishin":"○","tsunami":"○","kaji":"×","naisui":"×","kazan":"×"}}
,{"type":"Feature","geometry":{"type":"Point","coordinates":[133.56540539755,33.50273838837]},"properties":{"Name":"貴船ノ森津波避難センター","Jusho":"高知県高知市種崎662-6","kouzui":"○","gake":"×","takashio":"×","jishin":"○","tsunami":"○","kaji":"×","naisui":"×","kazan":"×"}}
,{"type":"Feature","geometry":{"type":"Point","coordinates":[133.59736970009,33.545673870073]},"properties":{"Name":"東部総合運動場くろしおアリーナ","Jusho":"高知県高知市五台山1736-１","kouzui":"○","gake":"×","takashio":"×","jishin":"○","tsunami":"×","kaji":"×","naisui":"×","kazan":"×"}}
,{"type":"Feature","geometry":{"type":"Point","coordinates":[133.57347897623,33.555517256772]},"properties":{"Name":"東部健康福祉センター","Jusho":"高知県高知市葛島4丁目3-3","kouzui":"○","gake":"×","takashio":"×","jishin":"○","tsunami":"×","kaji":"×","naisui":"×","kazan":"×"}}
,{"type":"Feature","geometry":{"type":"Point","coordinates":[133.57045075892,33.58877789418]},"properties":{"Name":"一宮市民会館","Jusho":"高知県高知市一宮西町3丁目22-14","kouzui":"○","gake":"×","takashio":"×","jishin":"×","tsunami":"×","kaji":"×","naisui":"×","kazan":"×"}}
,{"type":"Feature","geometry":{"type":"Point","coordinates":[133.48906250683,33.5383253596]},"properties":{"Name":"朝倉総合市民会館","Jusho":"高知県高知市朝倉戊585-1","kouzui":"○","gake":"×","takashio":"×","jishin":"×","tsunami":"×","kaji":"×","naisui":"×","kazan":"×"}}
,{"type":"Feature","geometry":{"type":"Point","coordinates":[133.49055949558,33.53349450173]},"properties":{"Name":"海老川市民会館","Jusho":"高知県高知市朝倉己422-1","kouzui":"○","gake":"×","takashio":"×","jishin":"×","tsunami":"×","kaji":"×","naisui":"×","kazan":"×"}}
,{"type":"Feature","geometry":{"type":"Point","coordinates":[133.49423402437,33.538217144985]},"properties":{"Name":"松田市民会館","Jusho":"高知県高知市朝倉己959-1","kouzui":"○","gake":"×","takashio":"×","jishin":"×","tsunami":"×","kaji":"×","naisui":"×","kazan":"×"}}
,{"type":"Feature","geometry":{"type":"Point","coordinates":[133.49723498342,33.546238308007]},"properties":{"Name":"朝倉市民会館","Jusho":"高知県高知市朝倉東町24-33","kouzui":"○","gake":"×","takashio":"×","jishin":"×","tsunami":"×","kaji":"×","naisui":"×","kazan":"×"}}
,{"type":"Feature","geometry":{"type":"Point","coordinates":[133.50331971807,33.543904996313]},"properties":{"Name":"西部健康福祉センター","Jusho":"高知県高知市鴨部860-1","kouzui":"○","gake":"×","takashio":"×","jishin":"○","tsunami":"×","kaji":"×","naisui":"×","kazan":"×"}}
,{"type":"Feature","geometry":{"type":"Point","coordinates":[133.49859647307,33.537488255647]},"properties":{"Name":"西山市民会館","Jusho":"高知県高知市神田134-26","kouzui":"○","gake":"×","takashio":"×","jishin":"×","tsunami":"×","kaji":"×","naisui":"×","kazan":"×"}}
,{"type":"Feature","geometry":{"type":"Point","coordinates":[133.54188827652,33.491420568442]},"properties":{"Name":"長浜市民会館","Jusho":"高知県高知市長浜4250","kouzui":"○","gake":"×","takashio":"×","jishin":"○","tsunami":"×","kaji":"×","naisui":"×","kazan":"×"}}
,{"type":"Feature","geometry":{"type":"Point","coordinates":[133.55486835961,33.504742368376]},"properties":{"Name":"旧御畳瀬小学校","Jusho":"高知県高知市長浜209","kouzui":"○","gake":"×","takashio":"×","jishin":"○","tsunami":"○","kaji":"×","naisui":"×","kazan":"×"}}
,{"type":"Feature","geometry":{"type":"Point","coordinates":[133.57237502786,33.496635533656]},"properties":{"Name":"桂浜荘","Jusho":"高知県高知市浦戸830-25","kouzui":"○","gake":"×","takashio":"×","jishin":"○","tsunami":"×","kaji":"×","naisui":"×","kazan":"×"}}
,{"type":"Feature","geometry":{"type":"Point","coordinates":[133.6066152604,33.549762784248]},"properties":{"Name":"介良市民会館","Jusho":"高知県高知市介良丙329-6","kouzui":"○","gake":"×","takashio":"×","jishin":"○","tsunami":"×","kaji":"×","naisui":"×","kazan":"×"}}
,{"type":"Feature","geometry":{"type":"Point","coordinates":[133.59844460005,33.550248860072]},"properties":{"Name":"東部総合運動場体育センター","Jusho":"高知県高知市介良丙1000-２","kouzui":"○","gake":"×","takashio":"×","jishin":"○","tsunami":"×","kaji":"×","naisui":"×","kazan":"×"}}
,{"type":"Feature","geometry":{"type":"Point","coordinates":[133.47195808394,33.601601514349]},"properties":{"Name":"中山間地域構造改善センター","Jusho":"高知県高知市鏡小浜８","kouzui":"○","gake":"×","takashio":"×","jishin":"○","tsunami":"×","kaji":"×","naisui":"×","kazan":"×"}}
,{"type":"Feature","geometry":{"type":"Point","coordinates":[133.52836026556,33.634975759363]},"properties":{"Name":"土佐山公民館","Jusho":"高知県高知市土佐山122-1","kouzui":"○","gake":"×","takashio":"×","jishin":"○","tsunami":"×","kaji":"×","naisui":"×","kazan":"×"}}
,{"type":"Feature","geometry":{"type":"Point","coordinates":[133.52677394847,33.632090530138]},"properties":{"Name":"土佐山健康福祉センター","Jusho":"高知県高知市土佐山桑尾1842-2","kouzui":"○","gake":"×","takashio":"×","jishin":"○","tsunami":"×","kaji":"×","naisui":"×","kazan":"×"}}
,{"type":"Feature","geometry":{"type":"Point","coordinates":[133.49850908454,33.622729659147]},"properties":{"Name":"旧土佐山中学校","Jusho":"高知県高知市土佐山弘瀬405","kouzui":"×","gake":"×","takashio":"×","jishin":"○","tsunami":"×","kaji":"×","naisui":"×","kazan":"×"}}
,{"type":"Feature","geometry":{"type":"Point","coordinates":[133.452556868,33.504455539562]},"properties":{"Name":"春野公民館弘岡上分館","Jusho":"高知県高知市春野町弘岡上1646-1","kouzui":"×","gake":"×","takashio":"×","jishin":"○","tsunami":"×","kaji":"×","naisui":"×","kazan":"×"}}
,{"type":"Feature","geometry":{"type":"Point","coordinates":[133.46640743126,33.50542911942]},"properties":{"Name":"春野公民館弘岡中分館","Jusho":"高知県高知市春野町弘岡中711","kouzui":"×","gake":"×","takashio":"×","jishin":"○","tsunami":"×","kaji":"×","naisui":"×","kazan":"×"}}
,{"type":"Feature","geometry":{"type":"Point","coordinates":[133.46869506378,33.49531910862]},"properties":{"Name":"春野弘岡中市民会館","Jusho":"高知県高知市春野町弘岡中134-1","kouzui":"×","gake":"×","takashio":"×","jishin":"○","tsunami":"×","kaji":"×","naisui":"×","kazan":"×"}}
,{"type":"Feature","geometry":{"type":"Point","coordinates":[133.4769981637,33.501848566895]},"properties":{"Name":"春野公民館弘岡下分館","Jusho":"高知県高知市春野町弘岡下1500","kouzui":"×","gake":"×","takashio":"×","jishin":"○","tsunami":"×","kaji":"×","naisui":"×","kazan":"×"}}
,{"type":"Feature","geometry":{"type":"Point","coordinates":[133.4879097742,33.497847670081]},"properties":{"Name":"春野あじさい会館","Jusho":"高知県高知市春野町西分1-1","kouzui":"×","gake":"×","takashio":"×","jishin":"○","tsunami":"×","kaji":"×","naisui":"×","kazan":"×"}}
,{"type":"Feature","geometry":{"type":"Point","coordinates":[133.48833485009,33.498958057823]},"properties":{"Name":"春野公民館","Jusho":"高知県高知市春野町西分19","kouzui":"×","gake":"×","takashio":"×","jishin":"×","tsunami":"×","kaji":"×","naisui":"×","kazan":"×"}}
,{"type":"Feature","geometry":{"type":"Point","coordinates":[133.48861759723,33.499675833086]},"properties":{"Name":"春野文化ホールピアステージ","Jusho":"高知県高知市春野町西分340","kouzui":"○","gake":"×","takashio":"×","jishin":"○","tsunami":"×","kaji":"×","naisui":"×","kazan":"×"}}
,{"type":"Feature","geometry":{"type":"Point","coordinates":[133.49610610602,33.498924246542]},"properties":{"Name":"春野公民館西分分館","Jusho":"高知県高知市春野町西分2079-2","kouzui":"×","gake":"×","takashio":"×","jishin":"○","tsunami":"×","kaji":"×","naisui":"×","kazan":"×"}}
,{"type":"Feature","geometry":{"type":"Point","coordinates":[133.50992992341,33.507679213997]},"properties":{"Name":"春野公民館芳原分館","Jusho":"高知県高知市春野町芳原784-1","kouzui":"○","gake":"×","takashio":"×","jishin":"○","tsunami":"×","kaji":"×","naisui":"×","kazan":"×"}}
,{"type":"Feature","geometry":{"type":"Point","coordinates":[133.52114809113,33.510086860849]},"properties":{"Name":"春野公民館内ノ谷分館","Jusho":"高知県高知市春野町内ノ谷810","kouzui":"○","gake":"×","takashio":"×","jishin":"○","tsunami":"×","kaji":"×","naisui":"×","kazan":"×"}}
,{"type":"Feature","geometry":{"type":"Point","coordinates":[133.51925105274,33.490173336337]},"properties":{"Name":"春野公民館諸木分館","Jusho":"高知県高知市春野町東諸木3441-1","kouzui":"×","gake":"×","takashio":"×","jishin":"○","tsunami":"×","kaji":"×","naisui":"×","kazan":"×"}}
,{"type":"Feature","geometry":{"type":"Point","coordinates":[133.48577382203,33.492792178951]},"properties":{"Name":"春野秋山市民会館","Jusho":"高知県高知市春野町秋山107-1","kouzui":"×","gake":"×","takashio":"×","jishin":"○","tsunami":"×","kaji":"×","naisui":"×","kazan":"×"}}
,{"type":"Feature","geometry":{"type":"Point","coordinates":[133.49938239701,33.490150754769]},"properties":{"Name":"春野公民館秋山分館","Jusho":"高知県高知市春野町秋山1111-3","kouzui":"×","gake":"×","takashio":"×","jishin":"○","tsunami":"×","kaji":"×","naisui":"×","kazan":"×"}}
,{"type":"Feature","geometry":{"type":"Point","coordinates":[133.51551601748,33.481717598212]},"properties":{"Name":"春野公民館甲殿分館","Jusho":"高知県高知市春野町甲殿341-1","kouzui":"×","gake":"×","takashio":"×","jishin":"○","tsunami":"×","kaji":"×","naisui":"×","kazan":"×"}}
,{"type":"Feature","geometry":{"type":"Point","coordinates":[133.48649119447,33.467214347643]},"properties":{"Name":"春野公民館仁ノ分館","Jusho":"高知県高知市春野町仁ノ384-5","kouzui":"×","gake":"×","takashio":"×","jishin":"×","tsunami":"×","kaji":"×","naisui":"×","kazan":"×"}}
,{"type":"Feature","geometry":{"type":"Point","coordinates":[133.47027668352,33.478580675863]},"properties":{"Name":"春野公民館西畑分館","Jusho":"高知県高知市春野町西畑1034-4","kouzui":"×","gake":"×","takashio":"×","jishin":"○","tsunami":"×","kaji":"×","naisui":"×","kazan":"×"}}
,{"type":"Feature","geometry":{"type":"Point","coordinates":[133.45959072335,33.494148327827]},"properties":{"Name":"春野公民館新川分館","Jusho":"高知県高知市春野町森山203-4","kouzui":"×","gake":"×","takashio":"×","jishin":"○","tsunami":"×","kaji":"×","naisui":"×","kazan":"×"}}
,{"type":"Feature","geometry":{"type":"Point","coordinates":[133.46694352982,33.492472452144]},"properties":{"Name":"春野公民館森山分館","Jusho":"高知県高知市春野町森山1207-4","kouzui":"×","gake":"×","takashio":"×","jishin":"○","tsunami":"×","kaji":"×","naisui":"×","kazan":"×"}}
,{"type":"Feature","geometry":{"type":"Point","coordinates":[133.51907053808,33.501752572796]},"properties":{"Name":"春野公民館平和分館","Jusho":"高知県高知市春野町平和149","kouzui":"○","gake":"×","takashio":"×","jishin":"○","tsunami":"×","kaji":"×","naisui":"×","kazan":"×"}}
,{"type":"Feature","geometry":{"type":"Point","coordinates":[133.5191631511,33.516149353639]},"properties":{"Name":"春野公民館南ケ丘分館","Jusho":"高知県高知市春野町南ケ丘1丁目2-1","kouzui":"○","gake":"×","takashio":"×","jishin":"○","tsunami":"×","kaji":"×","naisui":"×","kazan":"×"}}
,{"type":"Feature","geometry":{"type":"Point","coordinates":[133.5725565,33.50911645]},"properties":{"Name":"種崎公園津波避難タワー","Jusho":"高知県高知市種崎773-1","kouzui":"○","gake":"×","takashio":"×","jishin":"○","tsunami":"○","kaji":"×","naisui":"×","kazan":"×"}}
,{"type":"Feature","geometry":{"type":"Point","coordinates":[133.57232768974,33.515739129028]},"properties":{"Name":"新築津波避難タワー","Jusho":"高知県高知市仁井田4314-3","kouzui":"○","gake":"×","takashio":"×","jishin":"○","tsunami":"○","kaji":"×","naisui":"×","kazan":"×"}}
,{"type":"Feature","geometry":{"type":"Point","coordinates":[133.5800449,33.515794]},"properties":{"Name":"神幸道津波避難タワー","Jusho":"高知県高知市仁井田4100-38","kouzui":"○","gake":"×","takashio":"×","jishin":"○","tsunami":"○","kaji":"×","naisui":"×","kazan":"×"}}
,{"type":"Feature","geometry":{"type":"Point","coordinates":[133.5953802,33.52109364]},"properties":{"Name":"砂地津波避難タワー","Jusho":"高知県高知市仁井田1014-3ほか","kouzui":"○","gake":"×","takashio":"×","jishin":"○","tsunami":"○","kaji":"×","naisui":"×","kazan":"×"}}
,{"type":"Feature","geometry":{"type":"Point","coordinates":[133.5399282,33.48997787]},"properties":{"Name":"長浜地区津波避難タワー","Jusho":"高知県高知市長浜431-4","kouzui":"○","gake":"×","takashio":"×","jishin":"○","tsunami":"○","kaji":"×","naisui":"×","kazan":"×"}}
,{"type":"Feature","geometry":{"type":"Point","coordinates":[133.515919,33.47732638]},"properties":{"Name":"甲殿西津波避難タワー","Jusho":"高知県高知市春野町甲殿782-2","kouzui":"○","gake":"×","takashio":"×","jishin":"○","tsunami":"○","kaji":"×","naisui":"×","kazan":"×"}}
,{"type":"Feature","geometry":{"type":"Point","coordinates":[133.5182878,33.47823293]},"properties":{"Name":"甲殿東津波避難タワー","Jusho":"高知県高知市春野町甲殿274-3，274-10","kouzui":"○","gake":"×","takashio":"×","jishin":"○","tsunami":"○","kaji":"×","naisui":"×","kazan":"×"}}
,{"type":"Feature","geometry":{"type":"Point","coordinates":[133.5259486,33.48320281]},"properties":{"Name":"戸原西津波避難タワー","Jusho":"高知県高知市春野町東諸木2591-2","kouzui":"○","gake":"×","takashio":"×","jishin":"○","tsunami":"○","kaji":"×","naisui":"×","kazan":"×"}}
,{"type":"Feature","geometry":{"type":"Point","coordinates":[133.53144919596,33.483585835277]},"properties":{"Name":"戸原東津波避難タワー","Jusho":"高知県高知市春野町東諸木1344-2ほか","kouzui":"○","gake":"×","takashio":"×","jishin":"○","tsunami":"○","kaji":"×","naisui":"×","kazan":"×"}}
,{"type":"Feature","geometry":{"type":"Point","coordinates":[133.60188622834,33.569965393089]},"properties":{"Name":"高知県教育センター","Jusho":"高知県高知市大津乙181","kouzui":"○","gake":"×","takashio":"×","jishin":"×","tsunami":"×","kaji":"×","naisui":"×","kazan":"×"}}
,{"type":"Feature","geometry":{"type":"Point","coordinates":[133.57191398878,33.496402404171]},"properties":{"Name":"高知県立坂本龍馬記念館","Jusho":"高知県高知市浦戸城山830","kouzui":"○","gake":"×","takashio":"×","jishin":"○","tsunami":"×","kaji":"×","naisui":"×","kazan":"×"}}
,{"type":"Feature","geometry":{"type":"Point","coordinates":[133.59856617571,33.589134931315]},"properties":{"Name":"高知刑務所","Jusho":"高知県高知市布師田3604-1","kouzui":"○","gake":"×","takashio":"×","jishin":"×","tsunami":"×","kaji":"×","naisui":"×","kazan":"×"}}
,{"type":"Feature","geometry":{"type":"Point","coordinates":[133.54053657875,33.560147416998]},"properties":{"Name":"中央公園","Jusho":"高知県高知市帯屋町1丁目11-27","kouzui":"×","gake":"×","takashio":"×","jishin":"○","tsunami":"×","kaji":"○","naisui":"×","kazan":"×"}}
,{"type":"Feature","geometry":{"type":"Point","coordinates":[133.53100877562,33.561268903115]},"properties":{"Name":"高知公園","Jusho":"高知県高知市丸ノ内1丁目2-1","kouzui":"×","gake":"×","takashio":"×","jishin":"○","tsunami":"○","kaji":"○","naisui":"×","kazan":"×"}}
,{"type":"Feature","geometry":{"type":"Point","coordinates":[133.52841223583,33.56190323463]},"properties":{"Name":"城西公園","Jusho":"高知県高知市丸ノ内1丁目5-2","kouzui":"×","gake":"×","takashio":"×","jishin":"○","tsunami":"×","kaji":"○","naisui":"×","kazan":"×"}}
,{"type":"Feature","geometry":{"type":"Point","coordinates":[133.53330312471,33.561055455983]},"properties":{"Name":"丸ノ内緑地","Jusho":"高知県高知市丸ノ内1丁目20","kouzui":"×","gake":"×","takashio":"×","jishin":"○","tsunami":"×","kaji":"○","naisui":"×","kazan":"×"}}
,{"type":"Feature","geometry":{"type":"Point","coordinates":[133.5637225592,33.561770215929]},"properties":{"Name":"丸池公園","Jusho":"高知県高知市丸池町9","kouzui":"×","gake":"×","takashio":"×","jishin":"○","tsunami":"×","kaji":"○","naisui":"×","kazan":"×"}}
,{"type":"Feature","geometry":{"type":"Point","coordinates":[133.55858419998,33.557066793793]},"properties":{"Name":"青柳公園","Jusho":"高知県高知市稲荷町1-3","kouzui":"×","gake":"×","takashio":"×","jishin":"○","tsunami":"×","kaji":"○","naisui":"×","kazan":"×"}}
,{"type":"Feature","geometry":{"type":"Point","coordinates":[133.55692757452,33.573483795693]},"properties":{"Name":"弥右衛門公園（予定地含む）","Jusho":"高知県高知市高埇12","kouzui":"×","gake":"×","takashio":"×","jishin":"○","tsunami":"×","kaji":"○","naisui":"×","kazan":"×"}}
,{"type":"Feature","geometry":{"type":"Point","coordinates":[133.5508605327,33.573374289817]},"properties":{"Name":"比島公園","Jusho":"高知県高知市比島町4丁目8","kouzui":"×","gake":"×","takashio":"×","jishin":"○","tsunami":"×","kaji":"○","naisui":"×","kazan":"×"}}
,{"type":"Feature","geometry":{"type":"Point","coordinates":[133.50103888883,33.55536944455]},"properties":{"Name":"旭緑地（予定地含む）","Jusho":"高知県高知市本宮町265-2","kouzui":"×","gake":"×","takashio":"×","jishin":"○","tsunami":"×","kaji":"○","naisui":"×","kazan":"×"}}
,{"type":"Feature","geometry":{"type":"Point","coordinates":[133.50811970901,33.565394190323]},"properties":{"Name":"福井公園","Jusho":"高知県高知市福井町1006-1","kouzui":"×","gake":"×","takashio":"×","jishin":"○","tsunami":"×","kaji":"○","naisui":"×","kazan":"×"}}
,{"type":"Feature","geometry":{"type":"Point","coordinates":[133.55539632135,33.54964761859]},"properties":{"Name":"萩公園","Jusho":"高知県高知市新田町16","kouzui":"×","gake":"×","takashio":"×","jishin":"○","tsunami":"×","kaji":"○","naisui":"×","kazan":"×"}}
,{"type":"Feature","geometry":{"type":"Point","coordinates":[133.54543602265,33.542285598476]},"properties":{"Name":"竹島公園","Jusho":"高知県高知市竹島町54-3","kouzui":"×","gake":"×","takashio":"×","jishin":"○","tsunami":"×","kaji":"○","naisui":"×","kazan":"×"}}
,{"type":"Feature","geometry":{"type":"Point","coordinates":[133.53629122284,33.550547021939]},"properties":{"Name":"筆山公園","Jusho":"高知県高知市小石木町・大原町","kouzui":"×","gake":"×","takashio":"×","jishin":"○","tsunami":"○","kaji":"○","naisui":"×","kazan":"×"}}
,{"type":"Feature","geometry":{"type":"Point","coordinates":[133.52056910049,33.547537661566]},"properties":{"Name":"源内山緑地","Jusho":"高知県高知市南河ノ瀬町","kouzui":"×","gake":"×","takashio":"×","jishin":"○","tsunami":"×","kaji":"○","naisui":"×","kazan":"×"}}
,{"type":"Feature","geometry":{"type":"Point","coordinates":[133.57545401487,33.522603027003]},"properties":{"Name":"仁井田公園","Jusho":"高知県高知市十津6丁目3-1","kouzui":"×","gake":"×","takashio":"×","jishin":"○","tsunami":"×","kaji":"○","naisui":"×","kazan":"×"}}
,{"type":"Feature","geometry":{"type":"Point","coordinates":[133.57300256177,33.509070110468]},"properties":{"Name":"種崎公園","Jusho":"高知県高知市種崎777-1","kouzui":"×","gake":"×","takashio":"×","jishin":"○","tsunami":"×","kaji":"○","naisui":"×","kazan":"×"}}
,{"type":"Feature","geometry":{"type":"Point","coordinates":[133.57295251409,33.547591931718]},"properties":{"Name":"五台山公園","Jusho":"高知県高知市五台山","kouzui":"×","gake":"×","takashio":"×","jishin":"○","tsunami":"○","kaji":"○","naisui":"×","kazan":"×"}}
,{"type":"Feature","geometry":{"type":"Point","coordinates":[133.5723592858,33.562454022055]},"properties":{"Name":"高須浄化センター敷地","Jusho":"高知県高知市高須","kouzui":"×","gake":"×","takashio":"×","jishin":"○","tsunami":"×","kaji":"○","naisui":"×","kazan":"×"}}
,{"type":"Feature","geometry":{"type":"Point","coordinates":[133.57060476478,33.554262759187]},"properties":{"Name":"高須公園","Jusho":"高知県高知市葛島3丁目","kouzui":"×","gake":"×","takashio":"×","jishin":"○","tsunami":"×","kaji":"○","naisui":"×","kazan":"×"}}
,{"type":"Feature","geometry":{"type":"Point","coordinates":[133.53168888881,33.58261666676]},"properties":{"Name":"秦泉寺公園","Jusho":"高知県高知市中秦泉寺318-1","kouzui":"×","gake":"×","takashio":"×","jishin":"○","tsunami":"×","kaji":"○","naisui":"×","kazan":"×"}}
,{"type":"Feature","geometry":{"type":"Point","coordinates":[133.51956666669,33.571755555683]},"properties":{"Name":"初月公園（予定地含む）","Jusho":"高知県高知市南久万189","kouzui":"×","gake":"×","takashio":"×","jishin":"○","tsunami":"×","kaji":"○","naisui":"×","kazan":"×"}}
,{"type":"Feature","geometry":{"type":"Point","coordinates":[133.49872499989,33.541100000067]},"properties":{"Name":"沖田公園","Jusho":"高知県高知市朝倉甲201-1","kouzui":"×","gake":"×","takashio":"×","jishin":"○","tsunami":"×","kaji":"○","naisui":"×","kazan":"×"}}
,{"type":"Feature","geometry":{"type":"Point","coordinates":[133.48098292507,33.53551101486]},"properties":{"Name":"大谷公園","Jusho":"高知県高知市大谷公園町16-85","kouzui":"×","gake":"×","takashio":"×","jishin":"○","tsunami":"×","kaji":"○","naisui":"×","kazan":"×"}}
,{"type":"Feature","geometry":{"type":"Point","coordinates":[133.51415081,33.541614619388]},"properties":{"Name":"神田公園","Jusho":"高知県高知市神田1338-3","kouzui":"×","gake":"×","takashio":"×","jishin":"○","tsunami":"×","kaji":"○","naisui":"×","kazan":"×"}}
,{"type":"Feature","geometry":{"type":"Point","coordinates":[133.54819073552,33.495042681281]},"properties":{"Name":"長浜公園","Jusho":"高知県高知市長浜5618-1","kouzui":"×","gake":"×","takashio":"×","jishin":"○","tsunami":"×","kaji":"○","naisui":"×","kazan":"×"}}
,{"type":"Feature","geometry":{"type":"Point","coordinates":[133.54613104776,33.493163169931]},"properties":{"Name":"鎮守の森公園緑地","Jusho":"高知県高知市長浜6602-6","kouzui":"×","gake":"×","takashio":"×","jishin":"○","tsunami":"×","kaji":"○","naisui":"×","kazan":"×"}}
,{"type":"Feature","geometry":{"type":"Point","coordinates":[133.53998375245,33.514274642267]},"properties":{"Name":"瀬戸公園","Jusho":"高知県高知市横浜新町5-33","kouzui":"×","gake":"×","takashio":"×","jishin":"○","tsunami":"○","kaji":"○","naisui":"×","kazan":"×"}}
,{"type":"Feature","geometry":{"type":"Point","coordinates":[133.571288101,33.497542314066]},"properties":{"Name":"桂浜公園","Jusho":"高知県高知市浦戸6","kouzui":"×","gake":"×","takashio":"×","jishin":"○","tsunami":"×","kaji":"○","naisui":"×","kazan":"×"}}
,{"type":"Feature","geometry":{"type":"Point","coordinates":[133.61974924162,33.56094490881]},"properties":{"Name":"潮見台公園","Jusho":"高知県高知市潮見台1丁目2601","kouzui":"×","gake":"×","takashio":"×","jishin":"○","tsunami":"×","kaji":"○","naisui":"×","kazan":"×"}}
,{"type":"Feature","geometry":{"type":"Point","coordinates":[133.48355833335,33.599550000129]},"properties":{"Name":"大利新宮の森公園","Jusho":"高知県高知市鏡大利554","kouzui":"×","gake":"×","takashio":"×","jishin":"○","tsunami":"×","kaji":"○","naisui":"×","kazan":"×"}}
,{"type":"Feature","geometry":{"type":"Point","coordinates":[133.5474827,33.49079202]},"properties":{"Name":"特別養護老人ホームつむぐ","Jusho":"高知県高知市長浜6598-4","kouzui":"×","gake":"×","takashio":"×","jishin":"×","tsunami":"○","kaji":"×","naisui":"×","kazan":"×"}}
,{"type":"Feature","geometry":{"type":"Point","coordinates":[133.57200977104,33.513241821225]},"properties":{"Name":"パールマリン","Jusho":"高知県高知市仁井田1618-18","kouzui":"×","gake":"×","takashio":"×","jishin":"×","tsunami":"○","kaji":"×","naisui":"×","kazan":"×"}}
,{"type":"Feature","geometry":{"type":"Point","coordinates":[133.56796208999,33.505461414569]},"properties":{"Name":"てくたね","Jusho":"高知県高知市種崎593-１","kouzui":"×","gake":"×","takashio":"×","jishin":"×","tsunami":"○","kaji":"×","naisui":"×","kazan":"×"}}
,{"type":"Feature","geometry":{"type":"Point","coordinates":[133.57386718156,33.514243309709]},"properties":{"Name":"三里交番","Jusho":"高知県高知市仁井田1612-３","kouzui":"×","gake":"×","takashio":"×","jishin":"×","tsunami":"○","kaji":"×","naisui":"×","kazan":"×"}}
,{"type":"Feature","geometry":{"type":"Point","coordinates":[133.5694923443,33.506410233727]},"properties":{"Name":"マリベール種崎","Jusho":"高知県高知市種崎733番地３","kouzui":"×","gake":"×","takashio":"×","jishin":"×","tsunami":"○","kaji":"×","naisui":"×","kazan":"×"}}
,{"type":"Feature","geometry":{"type":"Point","coordinates":[133.59428709976,33.521641029979]},"properties":{"Name":"高知高等技術学校","Jusho":"高知県高知市仁井田1188番地","kouzui":"×","gake":"×","takashio":"×","jishin":"×","tsunami":"○","kaji":"×","naisui":"×","kazan":"×"}}
,{"type":"Feature","geometry":{"type":"Point","coordinates":[133.57550673011,33.569563299551]},"properties":{"Name":"サンピアセリーズ","Jusho":"高知県高知市高須砂地155","kouzui":"×","gake":"×","takashio":"×","jishin":"×","tsunami":"○","kaji":"×","naisui":"×","kazan":"×"}}
,{"type":"Feature","geometry":{"type":"Point","coordinates":[133.57343775149,33.554950264713]},"properties":{"Name":"四電葛島アパート","Jusho":"高知県高知市葛島４丁目４-３","kouzui":"×","gake":"×","takashio":"×","jishin":"×","tsunami":"○","kaji":"×","naisui":"×","kazan":"×"}}
,{"type":"Feature","geometry":{"type":"Point","coordinates":[133.5888700312,33.560062727915]},"properties":{"Name":"岡林マンション","Jusho":"高知県高知市高須２丁目17-36","kouzui":"×","gake":"×","takashio":"×","jishin":"×","tsunami":"○","kaji":"×","naisui":"×","kazan":"×"}}
,{"type":"Feature","geometry":{"type":"Point","coordinates":[133.58789795805,33.558721728462]},"properties":{"Name":"アーバンヒル青山","Jusho":"高知県高知市高須２丁目６-64","kouzui":"×","gake":"×","takashio":"×","jishin":"×","tsunami":"○","kaji":"×","naisui":"×","kazan":"×"}}
,{"type":"Feature","geometry":{"type":"Point","coordinates":[133.58556187262,33.561551146312]},"properties":{"Name":"ボンジュール宗円","Jusho":"高知県高知市高須２丁目13-10","kouzui":"×","gake":"×","takashio":"×","jishin":"×","tsunami":"○","kaji":"×","naisui":"×","kazan":"×"}}
,{"type":"Feature","geometry":{"type":"Point","coordinates":[133.58629093736,33.562382249101]},"properties":{"Name":"ホワイエ高須","Jusho":"高知県高知市高須新木３-36","kouzui":"×","gake":"×","takashio":"×","jishin":"×","tsunami":"○","kaji":"×","naisui":"×","kazan":"×"}}
,{"type":"Feature","geometry":{"type":"Point","coordinates":[133.58621939328,33.561014128474]},"properties":{"Name":"セレクト高須","Jusho":"高知県高知市高須２丁目13-21","kouzui":"×","gake":"×","takashio":"×","jishin":"×","tsunami":"○","kaji":"×","naisui":"×","kazan":"×"}}
,{"type":"Feature","geometry":{"type":"Point","coordinates":[133.57334643206,33.559247691362]},"properties":{"Name":"ルーカス高須","Jusho":"高知県高知市葛島１丁目10-68","kouzui":"×","gake":"×","takashio":"×","jishin":"×","tsunami":"○","kaji":"×","naisui":"×","kazan":"×"}}
,{"type":"Feature","geometry":{"type":"Point","coordinates":[133.57348250981,33.558848572711]},"properties":{"Name":"マイセル高須","Jusho":"高知県高知市葛島１丁目10-68","kouzui":"×","gake":"×","takashio":"×","jishin":"×","tsunami":"○","kaji":"×","naisui":"×","kazan":"×"}}
,{"type":"Feature","geometry":{"type":"Point","coordinates":[133.58550987479,33.55988035966]},"properties":{"Name":"マンションベスタ","Jusho":"高知県高知市高須２丁目３-21","kouzui":"×","gake":"×","takashio":"×","jishin":"×","tsunami":"○","kaji":"×","naisui":"×","kazan":"×"}}
,{"type":"Feature","geometry":{"type":"Point","coordinates":[133.58764062856,33.562794576859]},"properties":{"Name":"カーサローズヴェール","Jusho":"高知県高知市高須３丁目１-59","kouzui":"×","gake":"×","takashio":"×","jishin":"×","tsunami":"○","kaji":"×","naisui":"×","kazan":"×"}}
,{"type":"Feature","geometry":{"type":"Point","coordinates":[133.58355038831,33.560785154035]},"properties":{"Name":"ドルフ高須","Jusho":"高知県高知市高須新木１-29","kouzui":"×","gake":"×","takashio":"×","jishin":"×","tsunami":"○","kaji":"×","naisui":"×","kazan":"×"}}
,{"type":"Feature","geometry":{"type":"Point","coordinates":[133.5892833051,33.562262993389]},"properties":{"Name":"メゾン・ド・ケイ","Jusho":"高知県高知市高須３丁目２-47","kouzui":"×","gake":"×","takashio":"×","jishin":"×","tsunami":"○","kaji":"×","naisui":"×","kazan":"×"}}
,{"type":"Feature","geometry":{"type":"Point","coordinates":[133.59048986855,33.560690950831]},"properties":{"Name":"アバイド","Jusho":"高知県高知市高須３丁目４-44","kouzui":"×","gake":"×","takashio":"×","jishin":"×","tsunami":"○","kaji":"×","naisui":"×","kazan":"×"}}
,{"type":"Feature","geometry":{"type":"Point","coordinates":[133.57138486053,33.558559810863]},"properties":{"Name":"インペリアル西本１","Jusho":"高知県高知市葛島１丁目６-37","kouzui":"×","gake":"×","takashio":"×","jishin":"×","tsunami":"○","kaji":"×","naisui":"×","kazan":"×"}}
,{"type":"Feature","geometry":{"type":"Point","coordinates":[133.57118521227,33.558966658051]},"properties":{"Name":"インペリアル西本２","Jusho":"高知県高知市葛島１丁目６-28","kouzui":"×","gake":"×","takashio":"×","jishin":"×","tsunami":"○","kaji":"×","naisui":"×","kazan":"×"}}
,{"type":"Feature","geometry":{"type":"Point","coordinates":[133.57150092883,33.559087092071]},"properties":{"Name":"ヴィラージュ葛島","Jusho":"高知県高知市葛島１丁目７-９","kouzui":"×","gake":"×","takashio":"×","jishin":"×","tsunami":"○","kaji":"×","naisui":"×","kazan":"×"}}
,{"type":"Feature","geometry":{"type":"Point","coordinates":[133.57705814466,33.557646376641]},"properties":{"Name":"パークサイド高須Ⅱ","Jusho":"高知県高知市高須新町１丁目５-11","kouzui":"×","gake":"×","takashio":"×","jishin":"×","tsunami":"○","kaji":"×","naisui":"×","kazan":"×"}}
,{"type":"Feature","geometry":{"type":"Point","coordinates":[133.57102358311,33.558257106766]},"properties":{"Name":"ロイヤルガーデン２","Jusho":"高知県高知市葛島１丁目６-６","kouzui":"×","gake":"×","takashio":"×","jishin":"×","tsunami":"○","kaji":"×","naisui":"×","kazan":"×"}}
,{"type":"Feature","geometry":{"type":"Point","coordinates":[133.57084237456,33.55877678754]},"properties":{"Name":"ロイヤルガーデン","Jusho":"高知県高知市葛島１丁目６-８","kouzui":"×","gake":"×","takashio":"×","jishin":"×","tsunami":"○","kaji":"×","naisui":"×","kazan":"×"}}
,{"type":"Feature","geometry":{"type":"Point","coordinates":[133.58967506362,33.560458751215]},"properties":{"Name":"ピュアコート高須","Jusho":"高知県高知市高須２丁目18-11","kouzui":"×","gake":"×","takashio":"×","jishin":"×","tsunami":"○","kaji":"×","naisui":"×","kazan":"×"}}
,{"type":"Feature","geometry":{"type":"Point","coordinates":[133.57227236381,33.558301613369]},"properties":{"Name":"高知厚生病院","Jusho":"高知県高知市葛島１丁目９-50","kouzui":"×","gake":"×","takashio":"×","jishin":"×","tsunami":"○","kaji":"×","naisui":"×","kazan":"×"}}
,{"type":"Feature","geometry":{"type":"Point","coordinates":[133.59434489054,33.558308555022]},"properties":{"Name":"ジューヌ高須","Jusho":"高知県高知市高須東町13-１","kouzui":"×","gake":"×","takashio":"×","jishin":"×","tsunami":"○","kaji":"×","naisui":"×","kazan":"×"}}
,{"type":"Feature","geometry":{"type":"Point","coordinates":[133.59551121688,33.558762090814]},"properties":{"Name":"高見屋クリーニング","Jusho":"高知県高知市高須東町19-33","kouzui":"×","gake":"×","takashio":"×","jishin":"×","tsunami":"○","kaji":"×","naisui":"×","kazan":"×"}}
,{"type":"Feature","geometry":{"type":"Point","coordinates":[133.57739656134,33.559673033147]},"properties":{"Name":"東ノ丸マンション","Jusho":"高知県高知市高須本町２-50","kouzui":"×","gake":"×","takashio":"×","jishin":"×","tsunami":"○","kaji":"×","naisui":"×","kazan":"×"}}
,{"type":"Feature","geometry":{"type":"Point","coordinates":[133.59043220758,33.564309264062]},"properties":{"Name":"レオパレスヴィラ高須","Jusho":"高知県高知市高須３丁目16-７","kouzui":"×","gake":"×","takashio":"×","jishin":"×","tsunami":"○","kaji":"×","naisui":"×","kazan":"×"}}
,{"type":"Feature","geometry":{"type":"Point","coordinates":[133.58953075421,33.560623655981]},"properties":{"Name":"メゾン・レーヴ高須","Jusho":"高知県高知市高須２丁目17-20","kouzui":"×","gake":"×","takashio":"×","jishin":"×","tsunami":"○","kaji":"×","naisui":"×","kazan":"×"}}
,{"type":"Feature","geometry":{"type":"Point","coordinates":[133.58217364652,33.559329166958]},"properties":{"Name":"アムールハイツ高須","Jusho":"高知県高知市高須１丁目４-６","kouzui":"×","gake":"×","takashio":"×","jishin":"×","tsunami":"○","kaji":"×","naisui":"×","kazan":"×"}}
,{"type":"Feature","geometry":{"type":"Point","coordinates":[133.5728204016,33.555122759814]},"properties":{"Name":"中勝建設（株）","Jusho":"高知県高知市葛島４丁目５-14","kouzui":"×","gake":"×","takashio":"×","jishin":"×","tsunami":"○","kaji":"×","naisui":"×","kazan":"×"}}
,{"type":"Feature","geometry":{"type":"Point","coordinates":[133.58846758352,33.5584212198]},"properties":{"Name":"百万石ビル","Jusho":"高知県高知市高須１丁目18-８","kouzui":"×","gake":"×","takashio":"×","jishin":"×","tsunami":"○","kaji":"×","naisui":"×","kazan":"×"}}
,{"type":"Feature","geometry":{"type":"Point","coordinates":[133.58297978394,33.559042755938]},"properties":{"Name":"メゾン・ド・エマイユ","Jusho":"高知県高知市高須１丁目10-20","kouzui":"×","gake":"×","takashio":"×","jishin":"×","tsunami":"○","kaji":"×","naisui":"×","kazan":"×"}}
,{"type":"Feature","geometry":{"type":"Point","coordinates":[133.58200547928,33.559304211618]},"properties":{"Name":"ピクシー高須","Jusho":"高知県高知市高須１丁目４-５","kouzui":"×","gake":"×","takashio":"×","jishin":"×","tsunami":"○","kaji":"×","naisui":"×","kazan":"×"}}
,{"type":"Feature","geometry":{"type":"Point","coordinates":[133.5722193981,33.553594075077]},"properties":{"Name":"コーポ田中１号館","Jusho":"高知県高知市葛島４丁目10-７","kouzui":"×","gake":"×","takashio":"×","jishin":"×","tsunami":"○","kaji":"×","naisui":"×","kazan":"×"}}
,{"type":"Feature","geometry":{"type":"Point","coordinates":[133.5721901155,33.553329350127]},"properties":{"Name":"コーポ田中２号館","Jusho":"高知県高知市葛島４丁目10-８","kouzui":"×","gake":"×","takashio":"×","jishin":"×","tsunami":"○","kaji":"×","naisui":"×","kazan":"×"}}
,{"type":"Feature","geometry":{"type":"Point","coordinates":[133.57486883328,33.554514143654]},"properties":{"Name":"コーポ田中５号館","Jusho":"高知県高知市葛島４丁目７-20","kouzui":"×","gake":"×","takashio":"×","jishin":"×","tsunami":"○","kaji":"×","naisui":"×","kazan":"×"}}
,{"type":"Feature","geometry":{"type":"Point","coordinates":[133.58461265769,33.558799752693]},"properties":{"Name":"ロイヤル高須Ⅱ","Jusho":"高知県高知市高須１丁目14-18","kouzui":"×","gake":"×","takashio":"×","jishin":"×","tsunami":"○","kaji":"×","naisui":"×","kazan":"×"}}
,{"type":"Feature","geometry":{"type":"Point","coordinates":[133.57617834874,33.555244324119]},"properties":{"Name":"高須ハウス２０","Jusho":"高知県高知市高須新町３丁目５-13","kouzui":"×","gake":"×","takashio":"×","jishin":"×","tsunami":"○","kaji":"×","naisui":"×","kazan":"×"}}
,{"type":"Feature","geometry":{"type":"Point","coordinates":[133.57704199373,33.55487003585]},"properties":{"Name":"コーポ浜田","Jusho":"高知県高知市高須新町３丁目７-５","kouzui":"×","gake":"×","takashio":"×","jishin":"×","tsunami":"○","kaji":"×","naisui":"×","kazan":"×"}}
,{"type":"Feature","geometry":{"type":"Point","coordinates":[133.56949511581,33.552498237205]},"properties":{"Name":"コーポマルミ","Jusho":"高知県高知市葛島３丁目14-３","kouzui":"×","gake":"×","takashio":"×","jishin":"×","tsunami":"○","kaji":"×","naisui":"×","kazan":"×"}}
,{"type":"Feature","geometry":{"type":"Point","coordinates":[133.57729572326,33.558260451077]},"properties":{"Name":"青木脳神経外科形成外科","Jusho":"高知県高知市高須新町１丁目６-26","kouzui":"×","gake":"×","takashio":"×","jishin":"×","tsunami":"○","kaji":"×","naisui":"×","kazan":"×"}}
,{"type":"Feature","geometry":{"type":"Point","coordinates":[133.57867698251,33.555901830235]},"properties":{"Name":"コーポ山﨑","Jusho":"高知県高知市高須新町４丁目２-12","kouzui":"×","gake":"×","takashio":"×","jishin":"×","tsunami":"○","kaji":"×","naisui":"×","kazan":"×"}}
,{"type":"Feature","geometry":{"type":"Point","coordinates":[133.58000269394,33.558282184414]},"properties":{"Name":"ルミエールSawa","Jusho":"高知県高知市高須新町２丁目７-８","kouzui":"×","gake":"×","takashio":"×","jishin":"×","tsunami":"○","kaji":"×","naisui":"×","kazan":"×"}}
,{"type":"Feature","geometry":{"type":"Point","coordinates":[133.57869982873,33.55453481838]},"properties":{"Name":"第３山崎マンション","Jusho":"高知県高知市高須新町４丁目７-８","kouzui":"×","gake":"×","takashio":"×","jishin":"×","tsunami":"○","kaji":"×","naisui":"×","kazan":"×"}}
,{"type":"Feature","geometry":{"type":"Point","coordinates":[133.57612179521,33.558326616865]},"properties":{"Name":"ピュア高須新町","Jusho":"高知県高知市高須新町１丁目７-７","kouzui":"×","gake":"×","takashio":"×","jishin":"×","tsunami":"○","kaji":"×","naisui":"×","kazan":"×"}}
,{"type":"Feature","geometry":{"type":"Point","coordinates":[133.59522804921,33.558528821837]},"properties":{"Name":"ピュア高須Ⅱ","Jusho":"高知県高知市高須東町14-11","kouzui":"×","gake":"×","takashio":"×","jishin":"×","tsunami":"○","kaji":"×","naisui":"×","kazan":"×"}}
,{"type":"Feature","geometry":{"type":"Point","coordinates":[133.58800636707,33.560582382348]},"properties":{"Name":"美和ハイツ３","Jusho":"高知県高知市高須２丁目15-44","kouzui":"×","gake":"×","takashio":"×","jishin":"×","tsunami":"○","kaji":"×","naisui":"×","kazan":"×"}}
,{"type":"Feature","geometry":{"type":"Point","coordinates":[133.58017195771,33.558059776077]},"properties":{"Name":"土佐塾高須教室","Jusho":"高知県高知市高須新町２丁目６-９","kouzui":"×","gake":"×","takashio":"×","jishin":"×","tsunami":"○","kaji":"×","naisui":"×","kazan":"×"}}
,{"type":"Feature","geometry":{"type":"Point","coordinates":[133.56936492253,33.552458092106]},"properties":{"Name":"平成ビル","Jusho":"高知県高知市葛島３丁目14-１","kouzui":"×","gake":"×","takashio":"×","jishin":"×","tsunami":"○","kaji":"×","naisui":"×","kazan":"×"}}
,{"type":"Feature","geometry":{"type":"Point","coordinates":[133.5861001632,33.558583890984]},"properties":{"Name":"サーパス高須中央","Jusho":"高知県高知市高須１丁目16-２","kouzui":"×","gake":"×","takashio":"×","jishin":"×","tsunami":"○","kaji":"×","naisui":"×","kazan":"×"}}
,{"type":"Feature","geometry":{"type":"Point","coordinates":[133.57441527016,33.555661996699]},"properties":{"Name":"サーパス高須","Jusho":"高知県高知市葛島４丁目３-14","kouzui":"×","gake":"×","takashio":"×","jishin":"×","tsunami":"○","kaji":"×","naisui":"×","kazan":"×"}}
,{"type":"Feature","geometry":{"type":"Point","coordinates":[133.5773413846,33.556175213228]},"properties":{"Name":"グランディ","Jusho":"高知県高知市高須新町３丁目１-36","kouzui":"×","gake":"×","takashio":"×","jishin":"×","tsunami":"○","kaji":"×","naisui":"×","kazan":"×"}}
,{"type":"Feature","geometry":{"type":"Point","coordinates":[133.57733377689,33.556465974759]},"properties":{"Name":"パル・グランディ","Jusho":"高知県高知市高須新町３丁目１-20","kouzui":"×","gake":"×","takashio":"×","jishin":"×","tsunami":"○","kaji":"×","naisui":"×","kazan":"×"}}
,{"type":"Feature","geometry":{"type":"Point","coordinates":[133.57575302117,33.555770510103]},"properties":{"Name":"高須グランドハイツ","Jusho":"高知県高知市高須新町３丁目２-４","kouzui":"×","gake":"×","takashio":"×","jishin":"×","tsunami":"○","kaji":"×","naisui":"×","kazan":"×"}}
,{"type":"Feature","geometry":{"type":"Point","coordinates":[133.58372074967,33.560304533702]},"properties":{"Name":"ハイツフジオ","Jusho":"高知県高知市高須２丁目１-７","kouzui":"×","gake":"×","takashio":"×","jishin":"×","tsunami":"○","kaji":"×","naisui":"×","kazan":"×"}}
,{"type":"Feature","geometry":{"type":"Point","coordinates":[133.57736297785,33.558547958789]},"properties":{"Name":"ロゼ１","Jusho":"高知県高知市高須新町１丁目13-26","kouzui":"×","gake":"×","takashio":"×","jishin":"×","tsunami":"○","kaji":"×","naisui":"×","kazan":"×"}}
,{"type":"Feature","geometry":{"type":"Point","coordinates":[133.58987678453,33.561525240506]},"properties":{"Name":"コスモハイツ高須２ A棟","Jusho":"高知県高知市高須３丁目３-14","kouzui":"×","gake":"×","takashio":"×","jishin":"×","tsunami":"○","kaji":"×","naisui":"×","kazan":"×"}}
,{"type":"Feature","geometry":{"type":"Point","coordinates":[133.59001676388,33.561706431683]},"properties":{"Name":"コスモハイツ高須２ B棟","Jusho":"高知県高知市高須３丁目３-15","kouzui":"×","gake":"×","takashio":"×","jishin":"×","tsunami":"○","kaji":"×","naisui":"×","kazan":"×"}}
,{"type":"Feature","geometry":{"type":"Point","coordinates":[133.59014154812,33.561821444116]},"properties":{"Name":"コスモハイツ高須２ C棟","Jusho":"高知県高知市高須３丁目３-16","kouzui":"×","gake":"×","takashio":"×","jishin":"×","tsunami":"○","kaji":"×","naisui":"×","kazan":"×"}}
,{"type":"Feature","geometry":{"type":"Point","coordinates":[133.57579415985,33.557068093539]},"properties":{"Name":"コーポ高須","Jusho":"高知県高知市高須新町１丁目１-14","kouzui":"×","gake":"×","takashio":"×","jishin":"×","tsunami":"○","kaji":"×","naisui":"×","kazan":"×"}}
,{"type":"Feature","geometry":{"type":"Point","coordinates":[133.57444769123,33.559512430079]},"properties":{"Name":"アルファステイツ高須","Jusho":"高知県高知市葛島1丁目10-57","kouzui":"×","gake":"×","takashio":"×","jishin":"×","tsunami":"○","kaji":"×","naisui":"×","kazan":"×"}}
,{"type":"Feature","geometry":{"type":"Point","coordinates":[133.5891827,33.56363241]},"properties":{"Name":"サーパス高須二番館","Jusho":"高知県高知市高須三丁目14-31","kouzui":"×","gake":"×","takashio":"×","jishin":"×","tsunami":"○","kaji":"×","naisui":"×","kazan":"×"}}
,{"type":"Feature","geometry":{"type":"Point","coordinates":[133.5884229,33.56204654]},"properties":{"Name":"メゾンキタムラ","Jusho":"高知県高知市高須３丁目1-45","kouzui":"×","gake":"×","takashio":"×","jishin":"×","tsunami":"○","kaji":"×","naisui":"×","kazan":"×"}}
,{"type":"Feature","geometry":{"type":"Point","coordinates":[133.5895638,33.56220156]},"properties":{"Name":"メゾン北村Ⅱ","Jusho":"高知県高知市高須３丁目2-20","kouzui":"×","gake":"×","takashio":"×","jishin":"×","tsunami":"○","kaji":"×","naisui":"×","kazan":"×"}}
,{"type":"Feature","geometry":{"type":"Point","coordinates":[133.58970000001,33.563860000015]},"properties":{"Name":"サーパス高須一番館","Jusho":"高知県高知市高須３丁目14-30","kouzui":"×","gake":"×","takashio":"×","jishin":"×","tsunami":"○","kaji":"×","naisui":"×","kazan":"×"}}
,{"type":"Feature","geometry":{"type":"Point","coordinates":[133.58249999999,33.558550000081]},"properties":{"Name":"サーパス高須第３","Jusho":"高知県高知市高須１丁目8-15","kouzui":"×","gake":"×","takashio":"×","jishin":"×","tsunami":"○","kaji":"×","naisui":"×","kazan":"×"}}
,{"type":"Feature","geometry":{"type":"Point","coordinates":[133.59507058447,33.561732627722]},"properties":{"Name":"高知東郵便局","Jusho":"高知県高知市介良乙952-１","kouzui":"×","gake":"×","takashio":"×","jishin":"×","tsunami":"○","kaji":"×","naisui":"×","kazan":"×"}}
,{"type":"Feature","geometry":{"type":"Point","coordinates":[133.59512596985,33.560568493791]},"properties":{"Name":"サーパス高須東弐番館","Jusho":"高知県高知市介良乙1028-１","kouzui":"×","gake":"×","takashio":"×","jishin":"×","tsunami":"○","kaji":"×","naisui":"×","kazan":"×"}}
,{"type":"Feature","geometry":{"type":"Point","coordinates":[133.6011335489,33.55824683146]},"properties":{"Name":"イチゴいちえ","Jusho":"高知県高知市介良乙3042-１","kouzui":"×","gake":"×","takashio":"×","jishin":"×","tsunami":"○","kaji":"×","naisui":"×","kazan":"×"}}
,{"type":"Feature","geometry":{"type":"Point","coordinates":[133.59593748939,33.560780082191]},"properties":{"Name":"サーパス高須東","Jusho":"高知県高知市介良乙1028-６","kouzui":"×","gake":"×","takashio":"×","jishin":"×","tsunami":"○","kaji":"×","naisui":"×","kazan":"×"}}
,{"type":"Feature","geometry":{"type":"Point","coordinates":[133.60000000004,33.552170000079]},"properties":{"Name":"本江田川排水機場","Jusho":"高知県高知市介良乙3659-2","kouzui":"×","gake":"×","takashio":"×","jishin":"×","tsunami":"○","kaji":"×","naisui":"×","kazan":"×"}}
,{"type":"Feature","geometry":{"type":"Point","coordinates":[133.59478936954,33.568985646948]},"properties":{"Name":"ハーモナイズおおつ1号棟","Jusho":"高知県高知市大津乙845","kouzui":"×","gake":"×","takashio":"×","jishin":"×","tsunami":"○","kaji":"×","naisui":"×","kazan":"×"}}
,{"type":"Feature","geometry":{"type":"Point","coordinates":[133.59483810795,33.569311012575]},"properties":{"Name":"ハーモナイズおおつ2号棟","Jusho":"高知県高知市大津乙845","kouzui":"×","gake":"×","takashio":"×","jishin":"×","tsunami":"○","kaji":"×","naisui":"×","kazan":"×"}}
,{"type":"Feature","geometry":{"type":"Point","coordinates":[133.60201746228,33.568031927385]},"properties":{"Name":"県営住宅大津団地１号棟","Jusho":"高知県高知市大津乙318","kouzui":"×","gake":"×","takashio":"×","jishin":"×","tsunami":"○","kaji":"×","naisui":"×","kazan":"×"}}
,{"type":"Feature","geometry":{"type":"Point","coordinates":[133.6018197693,33.56833504512]},"properties":{"Name":"県営住宅大津団地２号棟","Jusho":"高知県高知市大津乙318","kouzui":"×","gake":"×","takashio":"×","jishin":"×","tsunami":"○","kaji":"×","naisui":"×","kazan":"×"}}
,{"type":"Feature","geometry":{"type":"Point","coordinates":[133.58666623606,33.564643333129]},"properties":{"Name":"土佐リハビリテーションカレッジ（講義棟）","Jusho":"高知県高知市大津乙2500-２","kouzui":"×","gake":"×","takashio":"×","jishin":"×","tsunami":"○","kaji":"×","naisui":"×","kazan":"×"}}
,{"type":"Feature","geometry":{"type":"Point","coordinates":[133.59249657296,33.574192183298]},"properties":{"Name":"（株）青柳本社工場","Jusho":"高知県高知市大津乙1741","kouzui":"×","gake":"×","takashio":"×","jishin":"×","tsunami":"○","kaji":"×","naisui":"×","kazan":"×"}}
,{"type":"Feature","geometry":{"type":"Point","coordinates":[133.6058925314,33.575339945725]},"properties":{"Name":"テポーレヒル","Jusho":"高知県高知市大津乙1245-７","kouzui":"×","gake":"×","takashio":"×","jishin":"×","tsunami":"○","kaji":"×","naisui":"×","kazan":"×"}}
,{"type":"Feature","geometry":{"type":"Point","coordinates":[133.60561798019,33.575360591608]},"properties":{"Name":"マリベールグローリエ","Jusho":"高知県高知市大津乙1245-２","kouzui":"×","gake":"×","takashio":"×","jishin":"×","tsunami":"○","kaji":"×","naisui":"×","kazan":"×"}}
,{"type":"Feature","geometry":{"type":"Point","coordinates":[133.59741388892,33.570802777821]},"properties":{"Name":"サンシティ２","Jusho":"高知県高知市大津乙879-２","kouzui":"×","gake":"×","takashio":"×","jishin":"×","tsunami":"○","kaji":"×","naisui":"×","kazan":"×"}}
,{"type":"Feature","geometry":{"type":"Point","coordinates":[133.59700153017,33.570364535914]},"properties":{"Name":"ロゼ３","Jusho":"高知県高知市大津乙878-１","kouzui":"×","gake":"×","takashio":"×","jishin":"×","tsunami":"○","kaji":"×","naisui":"×","kazan":"×"}}
,{"type":"Feature","geometry":{"type":"Point","coordinates":[133.5945609,33.5710432]},"properties":{"Name":"サーパス大津","Jusho":"高知県高知市大津乙1822-1","kouzui":"×","gake":"×","takashio":"×","jishin":"×","tsunami":"○","kaji":"×","naisui":"×","kazan":"×"}}
,{"type":"Feature","geometry":{"type":"Point","coordinates":[133.55633607393,33.540359667833]},"properties":{"Name":"高知県赤十字血液センター","Jusho":"高知県高知市桟橋通６丁目７-44","kouzui":"×","gake":"×","takashio":"×","jishin":"×","tsunami":"○","kaji":"×","naisui":"×","kazan":"×"}}
,{"type":"Feature","geometry":{"type":"Point","coordinates":[133.55087326825,33.539138969577]},"properties":{"Name":"ステラ桟橋","Jusho":"高知県高知市桟橋通５丁目６-12","kouzui":"×","gake":"×","takashio":"×","jishin":"×","tsunami":"○","kaji":"×","naisui":"×","kazan":"×"}}
,{"type":"Feature","geometry":{"type":"Point","coordinates":[133.54695349336,33.550043033455]},"properties":{"Name":"高知市青年センター","Jusho":"高知県高知市桟橋通２丁目１-50","kouzui":"×","gake":"×","takashio":"×","jishin":"×","tsunami":"○","kaji":"×","naisui":"×","kazan":"×"}}
,{"type":"Feature","geometry":{"type":"Point","coordinates":[133.54752585886,33.548767693932]},"properties":{"Name":"（株）四電工高知支店","Jusho":"高知県高知市桟橋通２丁目２-25","kouzui":"×","gake":"×","takashio":"×","jishin":"×","tsunami":"○","kaji":"×","naisui":"×","kazan":"×"}}
,{"type":"Feature","geometry":{"type":"Point","coordinates":[133.54532548284,33.552083172487]},"properties":{"Name":"シンセイ高知店（立体駐車場）","Jusho":"高知県高知市桟橋通１丁目１-30","kouzui":"×","gake":"×","takashio":"×","jishin":"×","tsunami":"○","kaji":"×","naisui":"×","kazan":"×"}}
,{"type":"Feature","geometry":{"type":"Point","coordinates":[133.54659491026,33.550910407738]},"properties":{"Name":"アステールＫ","Jusho":"高知県高知市桟橋通１丁目10-６","kouzui":"×","gake":"×","takashio":"×","jishin":"×","tsunami":"○","kaji":"×","naisui":"×","kazan":"×"}}
,{"type":"Feature","geometry":{"type":"Point","coordinates":[133.55470216393,33.542348005657]},"properties":{"Name":"高知南高等学校","Jusho":"高知県高知市桟橋通６丁目２-１","kouzui":"×","gake":"×","takashio":"×","jishin":"×","tsunami":"○","kaji":"×","naisui":"×","kazan":"×"}}
,{"type":"Feature","geometry":{"type":"Point","coordinates":[133.54334754207,33.554902846886]},"properties":{"Name":"フィッシングハヤシ","Jusho":"高知県高知市梅ノ辻５-１","kouzui":"×","gake":"×","takashio":"×","jishin":"×","tsunami":"○","kaji":"×","naisui":"×","kazan":"×"}}
,{"type":"Feature","geometry":{"type":"Point","coordinates":[133.5460681017,33.551217442635]},"properties":{"Name":"有料老人ホームつばさ","Jusho":"高知県高知市桟橋通１丁目７-17","kouzui":"×","gake":"×","takashio":"×","jishin":"×","tsunami":"○","kaji":"×","naisui":"×","kazan":"×"}}
,{"type":"Feature","geometry":{"type":"Point","coordinates":[133.54463322506,33.554454817482]},"properties":{"Name":"介護老人保健施設　梅壽苑","Jusho":"高知県高知市土居町９-18","kouzui":"×","gake":"×","takashio":"×","jishin":"×","tsunami":"○","kaji":"×","naisui":"×","kazan":"×"}}
,{"type":"Feature","geometry":{"type":"Point","coordinates":[133.54463322506,33.554454817482]},"properties":{"Name":"潮江高橋病院　北棟","Jusho":"高知県高知市土居町９-18","kouzui":"×","gake":"×","takashio":"×","jishin":"×","tsunami":"○","kaji":"×","naisui":"×","kazan":"×"}}
,{"type":"Feature","geometry":{"type":"Point","coordinates":[133.54454316197,33.554915914187]},"properties":{"Name":"Ｈｏｔｅｌ　Ｋｏ’ｓ　Ｓｔｙｌｅ","Jusho":"高知県高知市土居町８-８","kouzui":"×","gake":"×","takashio":"×","jishin":"×","tsunami":"○","kaji":"×","naisui":"×","kazan":"×"}}
,{"type":"Feature","geometry":{"type":"Point","coordinates":[133.54517680904,33.553611839599]},"properties":{"Name":"メゾン・レーヴ潮江","Jusho":"高知県高知市土居町16-４","kouzui":"×","gake":"×","takashio":"×","jishin":"×","tsunami":"○","kaji":"×","naisui":"×","kazan":"×"}}
,{"type":"Feature","geometry":{"type":"Point","coordinates":[133.54565854456,33.552958727141]},"properties":{"Name":"潮江マンションＡ","Jusho":"高知県高知市桟橋通１丁目２-28","kouzui":"×","gake":"×","takashio":"×","jishin":"×","tsunami":"○","kaji":"×","naisui":"×","kazan":"×"}}
,{"type":"Feature","geometry":{"type":"Point","coordinates":[133.55130180667,33.539973297812]},"properties":{"Name":"ポートハイム28","Jusho":"高知県高知市桟橋通５丁目６-１","kouzui":"×","gake":"×","takashio":"×","jishin":"×","tsunami":"○","kaji":"×","naisui":"×","kazan":"×"}}
,{"type":"Feature","geometry":{"type":"Point","coordinates":[133.5546595552,33.547025480971]},"properties":{"Name":"（株）轟組","Jusho":"高知県高知市萩町１丁目５-13","kouzui":"×","gake":"×","takashio":"×","jishin":"×","tsunami":"○","kaji":"×","naisui":"×","kazan":"×"}}
,{"type":"Feature","geometry":{"type":"Point","coordinates":[133.55238133238,33.539663030967]},"properties":{"Name":"高知港湾合同庁舎","Jusho":"高知県高知市桟橋通五丁目4-55","kouzui":"×","gake":"×","takashio":"×","jishin":"×","tsunami":"○","kaji":"×","naisui":"×","kazan":"×"}}
,{"type":"Feature","geometry":{"type":"Point","coordinates":[133.5426794219,33.552468315114]},"properties":{"Name":"土佐中学校・高校","Jusho":"高知県高知市塩屋崎町１丁目１-10","kouzui":"×","gake":"×","takashio":"×","jishin":"×","tsunami":"○","kaji":"×","naisui":"×","kazan":"×"}}
,{"type":"Feature","geometry":{"type":"Point","coordinates":[133.54780153628,33.544983445814]},"properties":{"Name":"百石町市営住宅","Jusho":"高知県高知市百石町３丁目１-33","kouzui":"×","gake":"×","takashio":"×","jishin":"×","tsunami":"○","kaji":"×","naisui":"×","kazan":"×"}}
,{"type":"Feature","geometry":{"type":"Point","coordinates":[133.53898074935,33.5455364767]},"properties":{"Name":"北竹島町市営住宅１号棟","Jusho":"高知県高知市北竹島町29-1","kouzui":"×","gake":"×","takashio":"×","jishin":"×","tsunami":"○","kaji":"×","naisui":"×","kazan":"×"}}
,{"type":"Feature","geometry":{"type":"Point","coordinates":[133.54011466921,33.544997805005]},"properties":{"Name":"北竹島町市営住宅２号棟","Jusho":"高知県高知市北竹島町29-１","kouzui":"×","gake":"×","takashio":"×","jishin":"×","tsunami":"○","kaji":"×","naisui":"×","kazan":"×"}}
,{"type":"Feature","geometry":{"type":"Point","coordinates":[133.54520090515,33.543569694477]},"properties":{"Name":"潮江第一コミュニティ住宅","Jusho":"高知県高知市百石町４丁目15-４","kouzui":"×","gake":"×","takashio":"×","jishin":"×","tsunami":"○","kaji":"×","naisui":"×","kazan":"×"}}
,{"type":"Feature","geometry":{"type":"Point","coordinates":[133.54599069515,33.546316773755]},"properties":{"Name":"潮江第二コミュニティ住宅","Jusho":"高知県高知市百石町３丁目６-８","kouzui":"×","gake":"×","takashio":"×","jishin":"×","tsunami":"○","kaji":"×","naisui":"×","kazan":"×"}}
,{"type":"Feature","geometry":{"type":"Point","coordinates":[133.54663406985,33.546707371839]},"properties":{"Name":"潮江第三コミュニティ住宅","Jusho":"高知県高知市桟橋通３丁目32-26","kouzui":"×","gake":"×","takashio":"×","jishin":"×","tsunami":"○","kaji":"×","naisui":"×","kazan":"×"}}
,{"type":"Feature","geometry":{"type":"Point","coordinates":[133.54803258881,33.546755152093]},"properties":{"Name":"高知市上下水道局","Jusho":"高知県高知市桟橋通３丁目31-11","kouzui":"×","gake":"×","takashio":"×","jishin":"×","tsunami":"○","kaji":"×","naisui":"×","kazan":"×"}}
,{"type":"Feature","geometry":{"type":"Point","coordinates":[133.54591656414,33.548230940688]},"properties":{"Name":"高知工業高校","Jusho":"高知県高知市桟橋通２丁目11-６","kouzui":"×","gake":"×","takashio":"×","jishin":"×","tsunami":"○","kaji":"×","naisui":"×","kazan":"×"}}
,{"type":"Feature","geometry":{"type":"Point","coordinates":[133.54142282409,33.555218487862]},"properties":{"Name":"リヴィエール大高","Jusho":"高知県高知市梅ノ辻21-14","kouzui":"×","gake":"×","takashio":"×","jishin":"×","tsunami":"○","kaji":"×","naisui":"×","kazan":"×"}}
,{"type":"Feature","geometry":{"type":"Point","coordinates":[133.54107892028,33.554164994741]},"properties":{"Name":"ジョンマンマンション","Jusho":"高知県高知市天神町４-21","kouzui":"×","gake":"×","takashio":"×","jishin":"×","tsunami":"○","kaji":"×","naisui":"×","kazan":"×"}}
,{"type":"Feature","geometry":{"type":"Point","coordinates":[133.5493183201,33.545051837522]},"properties":{"Name":"セントラルディーボ桟橋店（立体駐車場）","Jusho":"高知県高知市桟橋通４丁目16-６","kouzui":"×","gake":"×","takashio":"×","jishin":"×","tsunami":"○","kaji":"×","naisui":"×","kazan":"×"}}
,{"type":"Feature","geometry":{"type":"Point","coordinates":[133.54095087989,33.554781237]},"properties":{"Name":"エルミタージュ天神","Jusho":"高知県高知市天神町２-６","kouzui":"×","gake":"×","takashio":"×","jishin":"×","tsunami":"○","kaji":"×","naisui":"×","kazan":"×"}}
,{"type":"Feature","geometry":{"type":"Point","coordinates":[133.53849564958,33.553892569788]},"properties":{"Name":"クレアフジモト","Jusho":"高知県高知市天神町14-23","kouzui":"×","gake":"×","takashio":"×","jishin":"×","tsunami":"○","kaji":"×","naisui":"×","kazan":"×"}}
,{"type":"Feature","geometry":{"type":"Point","coordinates":[133.54325102244,33.553259156598]},"properties":{"Name":"パル・ボナール","Jusho":"高知県高知市梅ノ辻９-７","kouzui":"×","gake":"×","takashio":"×","jishin":"×","tsunami":"○","kaji":"×","naisui":"×","kazan":"×"}}
,{"type":"Feature","geometry":{"type":"Point","coordinates":[133.54547850104,33.550341860175]},"properties":{"Name":"セントヴィレッジ","Jusho":"高知県高知市桟橋通１丁目11-13","kouzui":"×","gake":"×","takashio":"×","jishin":"×","tsunami":"○","kaji":"×","naisui":"×","kazan":"×"}}
,{"type":"Feature","geometry":{"type":"Point","coordinates":[133.54467235154,33.55149728323]},"properties":{"Name":"カームリヴ","Jusho":"高知県高知市桟橋通１丁目13-12","kouzui":"×","gake":"×","takashio":"×","jishin":"×","tsunami":"○","kaji":"×","naisui":"×","kazan":"×"}}
,{"type":"Feature","geometry":{"type":"Point","coordinates":[133.54498049225,33.550913601221]},"properties":{"Name":"オリザビル","Jusho":"高知県高知市桟橋通１丁目12-17","kouzui":"×","gake":"×","takashio":"×","jishin":"×","tsunami":"○","kaji":"×","naisui":"×","kazan":"×"}}
,{"type":"Feature","geometry":{"type":"Point","coordinates":[133.54356456633,33.553600925013]},"properties":{"Name":"梅ノ辻クリニック","Jusho":"高知県高知市梅ノ辻８-７","kouzui":"×","gake":"×","takashio":"×","jishin":"×","tsunami":"○","kaji":"×","naisui":"×","kazan":"×"}}
,{"type":"Feature","geometry":{"type":"Point","coordinates":[133.54780000005,33.547250000179]},"properties":{"Name":"四国銀行　潮江支店","Jusho":"高知県高知市桟橋通３丁目31番３号","kouzui":"×","gake":"×","takashio":"×","jishin":"×","tsunami":"○","kaji":"×","naisui":"×","kazan":"×"}}
,{"type":"Feature","geometry":{"type":"Point","coordinates":[133.54517828372,33.536885411721]},"properties":{"Name":"高知河川国道事務所","Jusho":"高知県高知市六泉寺町９６-７","kouzui":"×","gake":"×","takashio":"×","jishin":"×","tsunami":"○","kaji":"×","naisui":"×","kazan":"×"}}
,{"type":"Feature","geometry":{"type":"Point","coordinates":[133.53867697246,33.544554608]},"properties":{"Name":"（株）吉永室内工芸ビル","Jusho":"高知県高知市北竹島町428","kouzui":"×","gake":"×","takashio":"×","jishin":"×","tsunami":"○","kaji":"×","naisui":"×","kazan":"×"}}
,{"type":"Feature","geometry":{"type":"Point","coordinates":[133.54099021736,33.539177769141]},"properties":{"Name":"第２六泉寺ビル","Jusho":"高知県高知市六泉寺町221-１","kouzui":"×","gake":"×","takashio":"×","jishin":"×","tsunami":"○","kaji":"×","naisui":"×","kazan":"×"}}
,{"type":"Feature","geometry":{"type":"Point","coordinates":[133.54782773788,33.539277762026]},"properties":{"Name":"新高産業社屋","Jusho":"高知県高知市南竹島町53-３","kouzui":"×","gake":"×","takashio":"×","jishin":"×","tsunami":"○","kaji":"×","naisui":"×","kazan":"×"}}
,{"type":"Feature","geometry":{"type":"Point","coordinates":[133.5476583686,33.54327900573]},"properties":{"Name":"マルハン高知桟橋店（立体駐車場）","Jusho":"高知県高知市南ノ丸町３-１","kouzui":"×","gake":"×","takashio":"×","jishin":"×","tsunami":"○","kaji":"×","naisui":"×","kazan":"×"}}
,{"type":"Feature","geometry":{"type":"Point","coordinates":[133.54836579676,33.54233838401]},"properties":{"Name":"高知県トラック会館","Jusho":"高知県高知市南ノ丸町５-17","kouzui":"×","gake":"×","takashio":"×","jishin":"×","tsunami":"○","kaji":"×","naisui":"×","kazan":"×"}}
,{"type":"Feature","geometry":{"type":"Point","coordinates":[133.54857781844,33.541598922703]},"properties":{"Name":"（株）戸口商会","Jusho":"高知県高知市南ノ丸町41","kouzui":"×","gake":"×","takashio":"×","jishin":"×","tsunami":"○","kaji":"×","naisui":"×","kazan":"×"}}
,{"type":"Feature","geometry":{"type":"Point","coordinates":[133.5470345255,33.54230037811]},"properties":{"Name":"Balcony８南の丸","Jusho":"高知県高知市南ノ丸町15-２","kouzui":"×","gake":"×","takashio":"×","jishin":"×","tsunami":"○","kaji":"×","naisui":"×","kazan":"×"}}
,{"type":"Feature","geometry":{"type":"Point","coordinates":[133.56461778211,33.56598931037]},"properties":{"Name":"（財）四国電気保安協会","Jusho":"高知県高知市南久保５-８","kouzui":"×","gake":"×","takashio":"×","jishin":"×","tsunami":"○","kaji":"×","naisui":"×","kazan":"×"}}
,{"type":"Feature","geometry":{"type":"Point","coordinates":[133.55996004659,33.568923942809]},"properties":{"Name":"JA高知ビル","Jusho":"高知県高知市北御座２-27","kouzui":"×","gake":"×","takashio":"×","jishin":"×","tsunami":"○","kaji":"×","naisui":"×","kazan":"×"}}
,{"type":"Feature","geometry":{"type":"Point","coordinates":[133.56569219452,33.55614029264]},"properties":{"Name":"セントラルディーボ知寄店（立体駐車場）","Jusho":"高知県高知市青柳町35-１","kouzui":"×","gake":"×","takashio":"×","jishin":"×","tsunami":"○","kaji":"×","naisui":"×","kazan":"×"}}
,{"type":"Feature","geometry":{"type":"Point","coordinates":[133.55410912825,33.558429244272]},"properties":{"Name":"セントラル宝永店（立体駐車場）","Jusho":"高知県高知市中宝永町10-４","kouzui":"×","gake":"×","takashio":"×","jishin":"×","tsunami":"○","kaji":"×","naisui":"×","kazan":"×"}}
,{"type":"Feature","geometry":{"type":"Point","coordinates":[133.56233866499,33.572316698183]},"properties":{"Name":"San　Migel","Jusho":"高知県高知市南川添24","kouzui":"×","gake":"×","takashio":"×","jishin":"×","tsunami":"○","kaji":"×","naisui":"×","kazan":"×"}}
,{"type":"Feature","geometry":{"type":"Point","coordinates":[133.56075672742,33.556170574608]},"properties":{"Name":"高知土木事務所","Jusho":"高知県高知市稲荷町11-26","kouzui":"×","gake":"×","takashio":"×","jishin":"×","tsunami":"○","kaji":"×","naisui":"×","kazan":"×"}}
,{"type":"Feature","geometry":{"type":"Point","coordinates":[133.55688341253,33.556748748393]},"properties":{"Name":"下知コミュニティセンター","Jusho":"高知県高知市二葉町10-７","kouzui":"×","gake":"×","takashio":"×","jishin":"×","tsunami":"○","kaji":"×","naisui":"×","kazan":"×"}}
,{"type":"Feature","geometry":{"type":"Point","coordinates":[133.56209119108,33.557141618632]},"properties":{"Name":"セルヴィ２１知寄町","Jusho":"高知県高知市稲荷町170-１","kouzui":"×","gake":"×","takashio":"×","jishin":"×","tsunami":"○","kaji":"×","naisui":"×","kazan":"×"}}
,{"type":"Feature","geometry":{"type":"Point","coordinates":[133.56071979612,33.557492026333]},"properties":{"Name":"サーパス知寄町2","Jusho":"高知県高知市知寄町２丁目４-９","kouzui":"×","gake":"×","takashio":"×","jishin":"×","tsunami":"○","kaji":"×","naisui":"×","kazan":"×"}}
,{"type":"Feature","geometry":{"type":"Point","coordinates":[133.56435839141,33.569544629935]},"properties":{"Name":"有料老人ホームとも","Jusho":"高知県高知市北久保２-39","kouzui":"×","gake":"×","takashio":"×","jishin":"×","tsunami":"○","kaji":"×","naisui":"×","kazan":"×"}}
,{"type":"Feature","geometry":{"type":"Point","coordinates":[133.56654050222,33.559587151304]},"properties":{"Name":"アルファステイツ知寄2","Jusho":"高知県高知市小倉町４-３","kouzui":"×","gake":"×","takashio":"×","jishin":"×","tsunami":"○","kaji":"×","naisui":"×","kazan":"×"}}
,{"type":"Feature","geometry":{"type":"Point","coordinates":[133.56120260528,33.557365098206]},"properties":{"Name":"サーパス知寄町1","Jusho":"高知県高知市知寄町２丁目４-10","kouzui":"×","gake":"×","takashio":"×","jishin":"×","tsunami":"○","kaji":"×","naisui":"×","kazan":"×"}}
,{"type":"Feature","geometry":{"type":"Point","coordinates":[133.56087788834,33.569877618803]},"properties":{"Name":"Dcmダイキ御座店","Jusho":"高知県高知市北御座４-６","kouzui":"×","gake":"×","takashio":"×","jishin":"×","tsunami":"○","kaji":"×","naisui":"×","kazan":"×"}}
,{"type":"Feature","geometry":{"type":"Point","coordinates":[133.5575836389,33.574886656062]},"properties":{"Name":"高知県立弓道場","Jusho":"高知県高知市高埇12-1","kouzui":"×","gake":"×","takashio":"×","jishin":"×","tsunami":"○","kaji":"×","naisui":"×","kazan":"×"}}
,{"type":"Feature","geometry":{"type":"Point","coordinates":[133.56300373198,33.554413021683]},"properties":{"Name":"ロゼ２","Jusho":"高知県高知市青柳町62-1","kouzui":"×","gake":"×","takashio":"×","jishin":"×","tsunami":"○","kaji":"×","naisui":"×","kazan":"×"}}
,{"type":"Feature","geometry":{"type":"Point","coordinates":[133.56543613517,33.557096117645]},"properties":{"Name":"シャルム葛島","Jusho":"高知県高知市知寄町３丁目601-１","kouzui":"×","gake":"×","takashio":"×","jishin":"×","tsunami":"○","kaji":"×","naisui":"×","kazan":"×"}}
,{"type":"Feature","geometry":{"type":"Point","coordinates":[133.56564666628,33.555634711256]},"properties":{"Name":"アルファステイツ知寄3","Jusho":"高知県高知市青柳町45-１","kouzui":"×","gake":"×","takashio":"×","jishin":"×","tsunami":"○","kaji":"×","naisui":"×","kazan":"×"}}
,{"type":"Feature","geometry":{"type":"Point","coordinates":[133.56310991051,33.559109715141]},"properties":{"Name":"アルファステイツ東雲町2","Jusho":"高知県高知市東雲町８-55","kouzui":"×","gake":"×","takashio":"×","jishin":"×","tsunami":"○","kaji":"×","naisui":"×","kazan":"×"}}
,{"type":"Feature","geometry":{"type":"Point","coordinates":[133.55500751402,33.557426779788]},"properties":{"Name":"岡村ビル","Jusho":"高知県高知市二葉町７-10","kouzui":"×","gake":"×","takashio":"×","jishin":"×","tsunami":"○","kaji":"×","naisui":"×","kazan":"×"}}
,{"type":"Feature","geometry":{"type":"Point","coordinates":[133.56130669761,33.55927458989]},"properties":{"Name":"サーパス知寄","Jusho":"高知県高知市東雲町１-23","kouzui":"×","gake":"×","takashio":"×","jishin":"×","tsunami":"○","kaji":"×","naisui":"×","kazan":"×"}}
,{"type":"Feature","geometry":{"type":"Point","coordinates":[133.56061779628,33.558498841705]},"properties":{"Name":"パチンコタマイ（立体駐車場）","Jusho":"高知県高知市知寄町２丁目２-７","kouzui":"×","gake":"×","takashio":"×","jishin":"×","tsunami":"○","kaji":"×","naisui":"×","kazan":"×"}}
,{"type":"Feature","geometry":{"type":"Point","coordinates":[133.55787507832,33.55541539099]},"properties":{"Name":"マイセル2","Jusho":"高知県高知市若松町１-６","kouzui":"×","gake":"×","takashio":"×","jishin":"×","tsunami":"○","kaji":"×","naisui":"×","kazan":"×"}}
,{"type":"Feature","geometry":{"type":"Point","coordinates":[133.56497241677,33.553722443058]},"properties":{"Name":"サーパス青柳町","Jusho":"高知県高知市青柳町53-3","kouzui":"×","gake":"×","takashio":"×","jishin":"×","tsunami":"○","kaji":"×","naisui":"×","kazan":"×"}}
,{"type":"Feature","geometry":{"type":"Point","coordinates":[133.5590738515,33.558728818131]},"properties":{"Name":"ちより街テラス","Jusho":"高知県高知市知寄町２丁目1-37","kouzui":"×","gake":"×","takashio":"×","jishin":"×","tsunami":"○","kaji":"×","naisui":"×","kazan":"×"}}
,{"type":"Feature","geometry":{"type":"Point","coordinates":[133.5560360424,33.556250739619]},"properties":{"Name":"スカイパレス二葉","Jusho":"高知県高知市二葉町14-33","kouzui":"×","gake":"×","takashio":"×","jishin":"×","tsunami":"○","kaji":"×","naisui":"×","kazan":"×"}}
,{"type":"Feature","geometry":{"type":"Point","coordinates":[133.55616411865,33.556603350297]},"properties":{"Name":"ハイツ六泉3","Jusho":"高知県高知市二葉町13-３0","kouzui":"×","gake":"×","takashio":"×","jishin":"×","tsunami":"○","kaji":"×","naisui":"×","kazan":"×"}}
,{"type":"Feature","geometry":{"type":"Point","coordinates":[133.55495114549,33.556552323966]},"properties":{"Name":"町田ビル","Jusho":"高知県高知市二葉町15-1","kouzui":"×","gake":"×","takashio":"×","jishin":"×","tsunami":"○","kaji":"×","naisui":"×","kazan":"×"}}
,{"type":"Feature","geometry":{"type":"Point","coordinates":[133.5526856,33.56196433]},"properties":{"Name":"サーパスシティ桜井町","Jusho":"高知県高知市桜井町二丁目7-32","kouzui":"×","gake":"×","takashio":"×","jishin":"×","tsunami":"○","kaji":"×","naisui":"×","kazan":"×"}}
,{"type":"Feature","geometry":{"type":"Point","coordinates":[133.5556643,33.56038414]},"properties":{"Name":"四国開発（株）高知本社","Jusho":"高知県高知市日の出町2-12","kouzui":"×","gake":"×","takashio":"×","jishin":"×","tsunami":"○","kaji":"×","naisui":"×","kazan":"×"}}
,{"type":"Feature","geometry":{"type":"Point","coordinates":[133.55849999998,33.574350000128]},"properties":{"Name":"サーパス弥右衛門公園","Jusho":"高知県高知市北川添5-20","kouzui":"×","gake":"×","takashio":"×","jishin":"×","tsunami":"○","kaji":"×","naisui":"×","kazan":"×"}}
,{"type":"Feature","geometry":{"type":"Point","coordinates":[133.55440000005,33.557840000078]},"properties":{"Name":"株式会社ラウンドワン　高知店","Jusho":"高知県高知市南宝永町4-12","kouzui":"×","gake":"×","takashio":"×","jishin":"×","tsunami":"○","kaji":"×","naisui":"×","kazan":"×"}}
,{"type":"Feature","geometry":{"type":"Point","coordinates":[133.55430000004,33.556480000085]},"properties":{"Name":"ホテルベストプライス高知　新館","Jusho":"高知県高知市南宝永町16-12","kouzui":"×","gake":"×","takashio":"×","jishin":"×","tsunami":"○","kaji":"×","naisui":"×","kazan":"×"}}
,{"type":"Feature","geometry":{"type":"Point","coordinates":[133.56344486446,33.557910052565]},"properties":{"Name":"朝日プラザ知寄町パサージュ","Jusho":"高知県高知市知寄町３丁目216","kouzui":"×","gake":"×","takashio":"×","jishin":"×","tsunami":"○","kaji":"×","naisui":"×","kazan":"×"}}
,{"type":"Feature","geometry":{"type":"Point","coordinates":[133.53254409335,33.562321906992]},"properties":{"Name":"高知県庁北庁舎","Jusho":"高知県高知市丸ノ内２丁目４-１","kouzui":"×","gake":"×","takashio":"×","jishin":"×","tsunami":"○","kaji":"×","naisui":"×","kazan":"×"}}
,{"type":"Feature","geometry":{"type":"Point","coordinates":[133.53294650454,33.563499449271]},"properties":{"Name":"高知丸の内高等学校","Jusho":"高知県高知市丸ノ内２丁目２-40","kouzui":"×","gake":"×","takashio":"×","jishin":"×","tsunami":"○","kaji":"×","naisui":"×","kazan":"×"}}
,{"type":"Feature","geometry":{"type":"Point","coordinates":[133.54008816585,33.56164889088]},"properties":{"Name":"ウェルカムホテル高知","Jusho":"高知県高知市追手筋１丁目８-25","kouzui":"×","gake":"×","takashio":"×","jishin":"×","tsunami":"○","kaji":"×","naisui":"×","kazan":"×"}}
,{"type":"Feature","geometry":{"type":"Point","coordinates":[133.54159622754,33.563094089606]},"properties":{"Name":"高知パレスホテル　新館","Jusho":"高知県高知市廿代町１-18","kouzui":"×","gake":"×","takashio":"×","jishin":"×","tsunami":"○","kaji":"×","naisui":"×","kazan":"×"}}
,{"type":"Feature","geometry":{"type":"Point","coordinates":[133.54118068884,33.563185207753]},"properties":{"Name":"高知パレスホテル　禁煙館","Jusho":"高知県高知市廿代町４-１","kouzui":"×","gake":"×","takashio":"×","jishin":"×","tsunami":"○","kaji":"×","naisui":"×","kazan":"×"}}
,{"type":"Feature","geometry":{"type":"Point","coordinates":[133.5311133963,33.559719561662]},"properties":{"Name":"高知県庁本庁舎","Jusho":"高知県高知市丸ノ内１丁目２-20","kouzui":"×","gake":"×","takashio":"×","jishin":"×","tsunami":"○","kaji":"×","naisui":"×","kazan":"×"}}
,{"type":"Feature","geometry":{"type":"Point","coordinates":[133.53439111154,33.559574263148]},"properties":{"Name":"Apパーク高知（立体駐車場）","Jusho":"高知県高知市帯屋町２丁目５-11","kouzui":"×","gake":"×","takashio":"×","jishin":"×","tsunami":"○","kaji":"×","naisui":"×","kazan":"×"}}
,{"type":"Feature","geometry":{"type":"Point","coordinates":[133.54946877365,33.558285910945]},"properties":{"Name":"サウスブリーズホテル","Jusho":"高知県高知市農人町５-29","kouzui":"×","gake":"×","takashio":"×","jishin":"×","tsunami":"○","kaji":"×","naisui":"×","kazan":"×"}}
,{"type":"Feature","geometry":{"type":"Point","coordinates":[133.52935791449,33.559200917356]},"properties":{"Name":"高知地方裁判所","Jusho":"高知県高知市丸ノ内１丁目３-５","kouzui":"×","gake":"×","takashio":"×","jishin":"×","tsunami":"○","kaji":"×","naisui":"×","kazan":"×"}}
,{"type":"Feature","geometry":{"type":"Point","coordinates":[133.52921573292,33.562973225299]},"properties":{"Name":"Ｊ．ビルディング","Jusho":"高知県高知市丸ノ内２丁目８-17","kouzui":"×","gake":"×","takashio":"×","jishin":"×","tsunami":"○","kaji":"×","naisui":"×","kazan":"×"}}
,{"type":"Feature","geometry":{"type":"Point","coordinates":[133.54439865486,33.563472847494]},"properties":{"Name":"土佐塾本館","Jusho":"高知県高知市はりまや町３丁目７-８","kouzui":"×","gake":"×","takashio":"×","jishin":"×","tsunami":"○","kaji":"×","naisui":"×","kazan":"×"}}
,{"type":"Feature","geometry":{"type":"Point","coordinates":[133.54918770871,33.560593572404]},"properties":{"Name":"Ｌｂ-１","Jusho":"高知県高知市桜井町１丁目３-36","kouzui":"×","gake":"×","takashio":"×","jishin":"×","tsunami":"○","kaji":"×","naisui":"×","kazan":"×"}}
,{"type":"Feature","geometry":{"type":"Point","coordinates":[133.5372337058,33.559456109109]},"properties":{"Name":"伊予銀行高知支店","Jusho":"高知県高知市本町２丁目１-９","kouzui":"×","gake":"×","takashio":"×","jishin":"×","tsunami":"○","kaji":"×","naisui":"×","kazan":"×"}}
,{"type":"Feature","geometry":{"type":"Point","coordinates":[133.5461145848,33.562262843529]},"properties":{"Name":"ビ・ウェル播磨屋","Jusho":"高知県高知市はりまや町３丁目21-２","kouzui":"×","gake":"×","takashio":"×","jishin":"×","tsunami":"○","kaji":"×","naisui":"×","kazan":"×"}}
,{"type":"Feature","geometry":{"type":"Point","coordinates":[133.5492713074,33.557488470549]},"properties":{"Name":"ホテル日航高知旭ロイヤル","Jusho":"高知県高知市九反田９-15","kouzui":"×","gake":"×","takashio":"×","jishin":"×","tsunami":"○","kaji":"×","naisui":"×","kazan":"×"}}
,{"type":"Feature","geometry":{"type":"Point","coordinates":[133.53649000227,33.562150616233]},"properties":{"Name":"高知追手前高校","Jusho":"高知県高知市追手筋２丁目２-10","kouzui":"×","gake":"×","takashio":"×","jishin":"×","tsunami":"○","kaji":"×","naisui":"×","kazan":"×"}}
,{"type":"Feature","geometry":{"type":"Point","coordinates":[133.53718590516,33.560471609437]},"properties":{"Name":"帯屋町チェントロ","Jusho":"高知県高知市帯屋町2丁目2-9","kouzui":"×","gake":"×","takashio":"×","jishin":"×","tsunami":"○","kaji":"×","naisui":"×","kazan":"×"}}
,{"type":"Feature","geometry":{"type":"Point","coordinates":[133.53672253699,33.560479446947]},"properties":{"Name":"ピッコロビル","Jusho":"高知県高知市帯屋町2丁目2-13-3","kouzui":"×","gake":"×","takashio":"×","jishin":"×","tsunami":"○","kaji":"×","naisui":"×","kazan":"×"}}
,{"type":"Feature","geometry":{"type":"Point","coordinates":[133.5516848,33.55642195]},"properties":{"Name":"サーパス中の島 桜通り","Jusho":"高知県高知市中の島1-93","kouzui":"×","gake":"×","takashio":"×","jishin":"×","tsunami":"○","kaji":"×","naisui":"×","kazan":"×"}}
,{"type":"Feature","geometry":{"type":"Point","coordinates":[133.5461383,33.56268661]},"properties":{"Name":"北街ビル","Jusho":"高知県高知市はりまや町3丁目20-1","kouzui":"×","gake":"×","takashio":"×","jishin":"×","tsunami":"○","kaji":"×","naisui":"×","kazan":"×"}}
,{"type":"Feature","geometry":{"type":"Point","coordinates":[133.5519907,33.55839473]},"properties":{"Name":"サーパス城見","Jusho":"高知県高知市城見町9-12","kouzui":"×","gake":"×","takashio":"×","jishin":"×","tsunami":"○","kaji":"×","naisui":"×","kazan":"×"}}
,{"type":"Feature","geometry":{"type":"Point","coordinates":[133.54438895444,33.563292341315]},"properties":{"Name":"土佐塾予備校Seizo館","Jusho":"高知県高知市はりまや町３丁目７-18","kouzui":"×","gake":"×","takashio":"×","jishin":"×","tsunami":"○","kaji":"×","naisui":"×","kazan":"×"}}
,{"type":"Feature","geometry":{"type":"Point","coordinates":[133.5485624999,33.561265240025]},"properties":{"Name":"ビ・ウェル新堀","Jusho":"高知県高知市桜井町一丁目５-28","kouzui":"×","gake":"×","takashio":"×","jishin":"×","tsunami":"○","kaji":"×","naisui":"×","kazan":"×"}}
,{"type":"Feature","geometry":{"type":"Point","coordinates":[133.53399999999,33.560150000088]},"properties":{"Name":"高知県立高知城歴史博物館","Jusho":"高知県高知市追手筋２丁目7-5","kouzui":"×","gake":"×","takashio":"×","jishin":"×","tsunami":"○","kaji":"×","naisui":"×","kazan":"×"}}
,{"type":"Feature","geometry":{"type":"Point","coordinates":[133.54340000001,33.559120000107]},"properties":{"Name":"１２３＋Nはりまや橋店","Jusho":"高知県高知市南はりまや町１丁目8ー1","kouzui":"×","gake":"×","takashio":"×","jishin":"×","tsunami":"○","kaji":"×","naisui":"×","kazan":"×"}}
,{"type":"Feature","geometry":{"type":"Point","coordinates":[133.54906057838,33.569107120985]},"properties":{"Name":"比島町市営住宅","Jusho":"高知県高知市比島町２丁目２-１","kouzui":"×","gake":"×","takashio":"×","jishin":"×","tsunami":"○","kaji":"×","naisui":"×","kazan":"×"}}
,{"type":"Feature","geometry":{"type":"Point","coordinates":[133.55158855472,33.567732541646]},"properties":{"Name":"土佐国道事務所","Jusho":"高知県高知市江陽町２-２","kouzui":"×","gake":"×","takashio":"×","jishin":"×","tsunami":"○","kaji":"×","naisui":"×","kazan":"×"}}
,{"type":"Feature","geometry":{"type":"Point","coordinates":[133.54496492124,33.56742748964]},"properties":{"Name":"高知よさこい咲都合同庁舎","Jusho":"高知県高知市栄田町２丁目２-10","kouzui":"×","gake":"×","takashio":"×","jishin":"×","tsunami":"○","kaji":"×","naisui":"×","kazan":"×"}}
,{"type":"Feature","geometry":{"type":"Point","coordinates":[133.55462747067,33.569847136856]},"properties":{"Name":"ハピネス杉井流","Jusho":"高知県高知市杉井流６-10","kouzui":"×","gake":"×","takashio":"×","jishin":"×","tsunami":"○","kaji":"×","naisui":"×","kazan":"×"}}
,{"type":"Feature","geometry":{"type":"Point","coordinates":[133.54676271847,33.565760008546]},"properties":{"Name":"ホテル ロス・イン高知","Jusho":"高知県高知市北本町２丁目４-８","kouzui":"×","gake":"×","takashio":"×","jishin":"×","tsunami":"○","kaji":"×","naisui":"×","kazan":"×"}}
,{"type":"Feature","geometry":{"type":"Point","coordinates":[133.54659455823,33.565422583357]},"properties":{"Name":"高知龍馬ホテル","Jusho":"高知県高知市北本町２丁目３-４","kouzui":"×","gake":"×","takashio":"×","jishin":"×","tsunami":"○","kaji":"×","naisui":"×","kazan":"×"}}
,{"type":"Feature","geometry":{"type":"Point","coordinates":[133.5444973454,33.565521223976]},"properties":{"Name":"オリエントホテル高知 和風別館吉萬","Jusho":"高知県高知市北本町２丁目１-22","kouzui":"×","gake":"×","takashio":"×","jishin":"×","tsunami":"○","kaji":"×","naisui":"×","kazan":"×"}}
,{"type":"Feature","geometry":{"type":"Point","coordinates":[133.5473518525,33.56550398654]},"properties":{"Name":"高知さくらホテル","Jusho":"高知県高知市北本町２丁目３-11","kouzui":"×","gake":"×","takashio":"×","jishin":"×","tsunami":"○","kaji":"×","naisui":"×","kazan":"×"}}
,{"type":"Feature","geometry":{"type":"Point","coordinates":[133.55375520631,33.567951737309]},"properties":{"Name":"高知中央自動車学校","Jusho":"高知県高知市江陽町４-50","kouzui":"×","gake":"×","takashio":"×","jishin":"×","tsunami":"○","kaji":"×","naisui":"×","kazan":"×"}}
,{"type":"Feature","geometry":{"type":"Point","coordinates":[133.55193354367,33.571246631239]},"properties":{"Name":"ライオンズヒルズ高知","Jusho":"高知県高知市比島町２丁目10-45","kouzui":"×","gake":"×","takashio":"×","jishin":"×","tsunami":"○","kaji":"×","naisui":"×","kazan":"×"}}
,{"type":"Feature","geometry":{"type":"Point","coordinates":[133.55283525252,33.564801056465]},"properties":{"Name":"サーパス北本町第２","Jusho":"高知県高知市北本町４丁目２-33","kouzui":"×","gake":"×","takashio":"×","jishin":"×","tsunami":"○","kaji":"×","naisui":"×","kazan":"×"}}
,{"type":"Feature","geometry":{"type":"Point","coordinates":[133.54677680017,33.57170653057]},"properties":{"Name":"塩田町マンション","Jusho":"高知県高知市塩田町13-14","kouzui":"×","gake":"×","takashio":"×","jishin":"×","tsunami":"○","kaji":"×","naisui":"×","kazan":"×"}}
,{"type":"Feature","geometry":{"type":"Point","coordinates":[133.54577970937,33.571542660943]},"properties":{"Name":"コーポミライクリエイト","Jusho":"高知県高知市塩田町13-4","kouzui":"×","gake":"×","takashio":"×","jishin":"×","tsunami":"○","kaji":"×","naisui":"×","kazan":"×"}}
,{"type":"Feature","geometry":{"type":"Point","coordinates":[133.5585323585,33.564494146056]},"properties":{"Name":"高知ハーモニー・ホスピタル（入院棟）","Jusho":"高知県高知市南金田9-8","kouzui":"×","gake":"×","takashio":"×","jishin":"×","tsunami":"○","kaji":"×","naisui":"×","kazan":"×"}}
,{"type":"Feature","geometry":{"type":"Point","coordinates":[133.55006858614,33.567476465145]},"properties":{"Name":"サーパス北本町","Jusho":"高知県高知市比島町１丁目４-10","kouzui":"×","gake":"×","takashio":"×","jishin":"×","tsunami":"○","kaji":"×","naisui":"×","kazan":"×"}}
,{"type":"Feature","geometry":{"type":"Point","coordinates":[133.55770454767,33.564401909854]},"properties":{"Name":"サーパス南金田","Jusho":"高知県高知市南金田８-７","kouzui":"×","gake":"×","takashio":"×","jishin":"×","tsunami":"○","kaji":"×","naisui":"×","kazan":"×"}}
,{"type":"Feature","geometry":{"type":"Point","coordinates":[133.5551413,33.56493202]},"properties":{"Name":"高知労働総合庁舎","Jusho":"高知県高知市南金田1-39","kouzui":"×","gake":"×","takashio":"×","jishin":"×","tsunami":"○","kaji":"×","naisui":"×","kazan":"×"}}
,{"type":"Feature","geometry":{"type":"Point","coordinates":[133.57337023504,33.5735524049]},"properties":{"Name":"（有）マルキ南工場","Jusho":"高知県高知市布師田3962","kouzui":"×","gake":"×","takashio":"×","jishin":"×","tsunami":"○","kaji":"×","naisui":"×","kazan":"×"}}
,{"type":"Feature","geometry":{"type":"Point","coordinates":[133.56288173326,33.579543163782]},"properties":{"Name":"マルハン高知一宮店（立体駐車場）","Jusho":"高知県高知市一宮南町１丁目11-11","kouzui":"×","gake":"×","takashio":"×","jishin":"×","tsunami":"○","kaji":"×","naisui":"×","kazan":"×"}}
,{"type":"Feature","geometry":{"type":"Point","coordinates":[133.56480747819,33.575729766638]},"properties":{"Name":"サーパスシティ高知Ⅰ棟","Jusho":"高知県高知市一宮南町１丁目１-５","kouzui":"×","gake":"×","takashio":"×","jishin":"×","tsunami":"○","kaji":"×","naisui":"×","kazan":"×"}}
,{"type":"Feature","geometry":{"type":"Point","coordinates":[133.56518833266,33.575572459797]},"properties":{"Name":"サーパスシティ高知Ⅱ棟","Jusho":"高知県高知市一宮南町１丁目１-６","kouzui":"×","gake":"×","takashio":"×","jishin":"×","tsunami":"○","kaji":"×","naisui":"×","kazan":"×"}}
,{"type":"Feature","geometry":{"type":"Point","coordinates":[133.58163422313,33.584092466559]},"properties":{"Name":"高知東高校","Jusho":"高知県高知市一宮徳谷23-１","kouzui":"×","gake":"×","takashio":"×","jishin":"×","tsunami":"○","kaji":"×","naisui":"×","kazan":"×"}}
,{"type":"Feature","geometry":{"type":"Point","coordinates":[133.52636561767,33.564392161295]},"properties":{"Name":"高知小津高校","Jusho":"高知県高知市城北町１-14","kouzui":"×","gake":"×","takashio":"×","jishin":"×","tsunami":"○","kaji":"×","naisui":"×","kazan":"×"}}
,{"type":"Feature","geometry":{"type":"Point","coordinates":[133.52325815698,33.566724707986]},"properties":{"Name":"県営住宅八反町団地１号棟","Jusho":"高知県高知市八反町２-11-23","kouzui":"×","gake":"×","takashio":"×","jishin":"×","tsunami":"○","kaji":"×","naisui":"×","kazan":"×"}}
,{"type":"Feature","geometry":{"type":"Point","coordinates":[133.53063703795,33.563933428859]},"properties":{"Name":"ビ・ウェル高知城公園","Jusho":"高知県高知市小津町２-３","kouzui":"×","gake":"×","takashio":"×","jishin":"×","tsunami":"○","kaji":"×","naisui":"×","kazan":"×"}}
,{"type":"Feature","geometry":{"type":"Point","coordinates":[133.52637308751,33.560920456086]},