var nigata={"type":"FeatureCollection","name":"nigata","features":[
{"type":"Feature","geometry":{"type":"Point","coordinates":[139.217162020367,37.9077982457619]},"properties":{"Name":"葛塚小学校","Jusho":"新潟県新潟市北区川西３丁目９番24号","kouzui":"○","gake":"×","takashio":"×","jishin":"○","tsunami":"×","kaji":"×","naisui":"○","kazan":"×"}}
,{"type":"Feature","geometry":{"type":"Point","coordinates":[139.216203707441,37.9079444956218]},"properties":{"Name":"豊栄武道館","Jusho":"新潟県新潟市北区川西３丁目5202番地３","kouzui":"×","gake":"×","takashio":"×","jishin":"○","tsunami":"×","kaji":"×","naisui":"×","kazan":"×"}}
,{"type":"Feature","geometry":{"type":"Point","coordinates":[139.218781254059,37.9044230385475]},"properties":{"Name":"光晴中学校","Jusho":"新潟県新潟市北区上土地亀4981番地","kouzui":"○","gake":"×","takashio":"×","jishin":"○","tsunami":"×","kaji":"×","naisui":"○","kazan":"×"}}
,{"type":"Feature","geometry":{"type":"Point","coordinates":[139.208328511042,37.9115497787176]},"properties":{"Name":"豊栄高等学校","Jusho":"新潟県新潟市北区上土地亀大曲761番地","kouzui":"○","gake":"×","takashio":"×","jishin":"○","tsunami":"×","kaji":"×","naisui":"○","kazan":"×"}}
,{"type":"Feature","geometry":{"type":"Point","coordinates":[139.220889243597,37.913825224151]},"properties":{"Name":"葛塚コミュニティセンター","Jusho":"新潟県新潟市北区東栄町１丁目１番18号","kouzui":"○","gake":"×","takashio":"×","jishin":"○","tsunami":"×","kaji":"×","naisui":"○","kazan":"×"}}
,{"type":"Feature","geometry":{"type":"Point","coordinates":[139.220985803121,37.913452791225]},"properties":{"Name":"豊栄地区公民館","Jusho":"新潟県新潟市北区東栄町１丁目１番35号","kouzui":"○","gake":"×","takashio":"×","jishin":"○","tsunami":"×","kaji":"×","naisui":"○","kazan":"×"}}
,{"type":"Feature","geometry":{"type":"Point","coordinates":[139.221281134655,37.9140830256725]},"properties":{"Name":"豊栄さわやか老人福祉センター","Jusho":"新潟県新潟市北区東栄町１丁目１番35号","kouzui":"○","gake":"×","takashio":"×","jishin":"○","tsunami":"×","kaji":"×","naisui":"○","kazan":"×"}}
,{"type":"Feature","geometry":{"type":"Point","coordinates":[139.218656445825,37.912442482105]},"properties":{"Name":"かやま保育園","Jusho":"新潟県新潟市北区嘉山１丁目２番41号","kouzui":"×","gake":"×","takashio":"×","jishin":"○","tsunami":"×","kaji":"×","naisui":"×","kazan":"×"}}
,{"type":"Feature","geometry":{"type":"Point","coordinates":[139.224260184564,37.9056645305266]},"properties":{"Name":"豊栄総合体育館","Jusho":"新潟県新潟市北区嘉山488番地３","kouzui":"○","gake":"×","takashio":"×","jishin":"○","tsunami":"×","kaji":"×","naisui":"○","kazan":"×"}}
,{"type":"Feature","geometry":{"type":"Point","coordinates":[139.232492602558,37.902958034771]},"properties":{"Name":"若葉保育園","Jusho":"新潟県新潟市北区新鼻279番地２","kouzui":"×","gake":"×","takashio":"×","jishin":"○","tsunami":"×","kaji":"×","naisui":"×","kazan":"×"}}
,{"type":"Feature","geometry":{"type":"Point","coordinates":[139.227128184523,37.9167937791617]},"properties":{"Name":"葛塚東小学校","Jusho":"新潟県新潟市北区朝日町４丁目１番２号","kouzui":"○","gake":"×","takashio":"×","jishin":"○","tsunami":"×","kaji":"×","naisui":"○","kazan":"×"}}
,{"type":"Feature","geometry":{"type":"Point","coordinates":[139.229595539476,37.9222214631247]},"properties":{"Name":"葛塚中学校","Jusho":"新潟県新潟市北区太田乙433番地","kouzui":"○","gake":"○","takashio":"×","jishin":"○","tsunami":"×","kaji":"×","naisui":"○","kazan":"×"}}
,{"type":"Feature","geometry":{"type":"Point","coordinates":[139.21636544546,37.9231714434827]},"properties":{"Name":"県立若草寮","Jusho":"新潟県新潟市北区石動１丁目１番地１","kouzui":"○","gake":"×","takashio":"×","jishin":"○","tsunami":"×","kaji":"×","naisui":"○","kazan":"×"}}
,{"type":"Feature","geometry":{"type":"Point","coordinates":[139.214756120052,37.9218426953021]},"properties":{"Name":"すみれ保育園","Jusho":"新潟県新潟市北区石動１丁目10番地１","kouzui":"×","gake":"×","takashio":"×","jishin":"○","tsunami":"×","kaji":"×","naisui":"×","kazan":"×"}}
,{"type":"Feature","geometry":{"type":"Point","coordinates":[139.235639813082,37.9320961074417]},"properties":{"Name":"太田保育園","Jusho":"新潟県新潟市北区太田2005番地","kouzui":"○","gake":"×","takashio":"×","jishin":"○","tsunami":"×","kaji":"×","naisui":"○","kazan":"×"}}
,{"type":"Feature","geometry":{"type":"Point","coordinates":[139.194823489619,37.940949977312]},"properties":{"Name":"木崎小学校","Jusho":"新潟県新潟市北区木崎2973番地","kouzui":"○","gake":"×","takashio":"×","jishin":"○","tsunami":"×","kaji":"×","naisui":"○","kazan":"×"}}
,{"type":"Feature","geometry":{"type":"Point","coordinates":[139.201152981651,37.9452948205897]},"properties":{"Name":"木崎中学校","Jusho":"新潟県新潟市北区木崎3291番地１","kouzui":"○","gake":"×","takashio":"×","jishin":"○","tsunami":"×","kaji":"×","naisui":"○","kazan":"×"}}
,{"type":"Feature","geometry":{"type":"Point","coordinates":[139.2001647615,37.9454640026754]},"properties":{"Name":"木崎コミュニティセンター","Jusho":"新潟県新潟市北区木崎3227番地","kouzui":"○","gake":"×","takashio":"×","jishin":"○","tsunami":"×","kaji":"×","naisui":"○","kazan":"×"}}
,{"type":"Feature","geometry":{"type":"Point","coordinates":[139.212182355386,37.9563211505477]},"properties":{"Name":"笹山小学校","Jusho":"新潟県新潟市北区笹山1457番地","kouzui":"○","gake":"×","takashio":"×","jishin":"○","tsunami":"×","kaji":"×","naisui":"○","kazan":"×"}}
,{"type":"Feature","geometry":{"type":"Point","coordinates":[139.218570296805,37.9380832225967]},"properties":{"Name":"木崎保育園","Jusho":"新潟県新潟市北区横井279番地","kouzui":"○","gake":"×","takashio":"×","jishin":"○","tsunami":"×","kaji":"×","naisui":"○","kazan":"×"}}
,{"type":"Feature","geometry":{"type":"Point","coordinates":[139.185684201505,37.8767775729058]},"properties":{"Name":"岡方第一小学校","Jusho":"新潟県新潟市北区長戸呂985番地","kouzui":"○","gake":"×","takashio":"×","jishin":"○","tsunami":"×","kaji":"×","naisui":"○","kazan":"×"}}
,{"type":"Feature","geometry":{"type":"Point","coordinates":[139.18577846083,37.8772895747372]},"properties":{"Name":"越岡保育園","Jusho":"新潟県新潟市北区十二321番地","kouzui":"×","gake":"×","takashio":"×","jishin":"○","tsunami":"×","kaji":"×","naisui":"×","kazan":"×"}}
,{"type":"Feature","geometry":{"type":"Point","coordinates":[139.168035551956,37.8870929734166]},"properties":{"Name":"岡方中学校","Jusho":"新潟県新潟市北区太子堂104番地","kouzui":"○","gake":"×","takashio":"×","jishin":"○","tsunami":"×","kaji":"×","naisui":"○","kazan":"×"}}
,{"type":"Feature","geometry":{"type":"Point","coordinates":[139.178636111585,37.884149301424]},"properties":{"Name":"岡方コミュニティセンター","Jusho":"新潟県新潟市北区長戸呂4601番地","kouzui":"×","gake":"×","takashio":"×","jishin":"○","tsunami":"×","kaji":"×","naisui":"×","kazan":"×"}}
,{"type":"Feature","geometry":{"type":"Point","coordinates":[139.164912941311,37.90483821104]},"properties":{"Name":"岡方第二小学校","Jusho":"新潟県新潟市北区森下1223番地","kouzui":"○","gake":"○","takashio":"×","jishin":"○","tsunami":"×","kaji":"×","naisui":"○","kazan":"×"}}
,{"type":"Feature","geometry":{"type":"Point","coordinates":[139.165921451898,37.9052784103793]},"properties":{"Name":"三ツ森保育園","Jusho":"新潟県新潟市北区森下1409番地","kouzui":"×","gake":"×","takashio":"×","jishin":"○","tsunami":"×","kaji":"×","naisui":"×","kazan":"×"}}
,{"type":"Feature","geometry":{"type":"Point","coordinates":[139.213693495895,37.8787761083077]},"properties":{"Name":"豊栄南小学校","Jusho":"新潟県新潟市北区長場2621番地","kouzui":"○","gake":"×","takashio":"×","jishin":"○","tsunami":"×","kaji":"×","naisui":"○","kazan":"×"}}
,{"type":"Feature","geometry":{"type":"Point","coordinates":[139.213419507937,37.885834944829]},"properties":{"Name":"長浦コミュニティセンター","Jusho":"新潟県新潟市北区長場1834番地１","kouzui":"×","gake":"×","takashio":"×","jishin":"○","tsunami":"×","kaji":"×","naisui":"×","kazan":"×"}}
,{"type":"Feature","geometry":{"type":"Point","coordinates":[139.183930656025,37.9190607417614]},"properties":{"Name":"早通南小学校","Jusho":"新潟県新潟市北区須戸１丁目１番地１","kouzui":"○","gake":"×","takashio":"×","jishin":"○","tsunami":"×","kaji":"×","naisui":"○","kazan":"×"}}
,{"type":"Feature","geometry":{"type":"Point","coordinates":[139.179644867502,37.9205104379367]},"properties":{"Name":"早通南保育園","Jusho":"新潟県新潟市北区早通南１丁目９番７号","kouzui":"○","gake":"×","takashio":"×","jishin":"○","tsunami":"×","kaji":"×","naisui":"○","kazan":"×"}}
,{"type":"Feature","geometry":{"type":"Point","coordinates":[139.176382633508,37.9203422375813]},"properties":{"Name":"早通コミュニティセンター","Jusho":"新潟県新潟市北区早通37番地１","kouzui":"○","gake":"×","takashio":"×","jishin":"○","tsunami":"×","kaji":"×","naisui":"○","kazan":"×"}}
,{"type":"Feature","geometry":{"type":"Point","coordinates":[139.17651674394,37.9201052560257]},"properties":{"Name":"早通児童センター","Jusho":"新潟県新潟市北区早通37番地１","kouzui":"×","gake":"×","takashio":"×","jishin":"○","tsunami":"×","kaji":"×","naisui":"×","kazan":"×"}}
,{"type":"Feature","geometry":{"type":"Point","coordinates":[139.188291740607,37.9220322239407]},"properties":{"Name":"早通中学校","Jusho":"新潟県新潟市北区早通396番地","kouzui":"○","gake":"×","takashio":"×","jishin":"○","tsunami":"×","kaji":"×","naisui":"○","kazan":"×"}}
,{"type":"Feature","geometry":{"type":"Point","coordinates":[139.183913873061,37.9210000227744]},"properties":{"Name":"早通北保育園","Jusho":"新潟県新潟市北区早通北３丁目７番30号","kouzui":"×","gake":"×","takashio":"×","jishin":"○","tsunami":"×","kaji":"×","naisui":"×","kazan":"×"}}
,{"type":"Feature","geometry":{"type":"Point","coordinates":[139.14004875819,37.952949324325]},"properties":{"Name":"松浜小学校","Jusho":"新潟県新潟市北区松浜３丁目19番地１","kouzui":"○","gake":"○","takashio":"×","jishin":"○","tsunami":"○","kaji":"×","naisui":"○","kazan":"×"}}
,{"type":"Feature","geometry":{"type":"Point","coordinates":[139.143838512625,37.9564747887104]},"properties":{"Name":"松浜中学校","Jusho":"新潟県新潟市北区松浜５丁目12番地２","kouzui":"○","gake":"×","takashio":"×","jishin":"○","tsunami":"○","kaji":"×","naisui":"○","kazan":"×"}}
,{"type":"Feature","geometry":{"type":"Point","coordinates":[139.156526578102,37.9505450517111]},"properties":{"Name":"北地区コミュニティセンター","Jusho":"新潟県新潟市北区名目所３丁目1129番地","kouzui":"○","gake":"×","takashio":"×","jishin":"○","tsunami":"×","kaji":"×","naisui":"○","kazan":"×"}}
,{"type":"Feature","geometry":{"type":"Point","coordinates":[139.162861676879,37.9571544695874]},"properties":{"Name":"太夫浜小学校","Jusho":"新潟県新潟市北区太夫浜2045番地２","kouzui":"○","gake":"×","takashio":"×","jishin":"○","tsunami":"×","kaji":"×","naisui":"○","kazan":"×"}}
,{"type":"Feature","geometry":{"type":"Point","coordinates":[139.196760681547,37.9703223970246]},"properties":{"Name":"南浜小学校","Jusho":"新潟県新潟市北区島見町2078番地","kouzui":"○","gake":"×","takashio":"×","jishin":"○","tsunami":"×","kaji":"×","naisui":"○","kazan":"×"}}
,{"type":"Feature","geometry":{"type":"Point","coordinates":[139.198642574794,37.9649650482282]},"properties":{"Name":"南浜中学校","Jusho":"新潟県新潟市北区島見町3965番地","kouzui":"○","gake":"×","takashio":"×","jishin":"○","tsunami":"×","kaji":"×","naisui":"○","kazan":"×"}}
,{"type":"Feature","geometry":{"type":"Point","coordinates":[139.208556899322,37.9802529165525]},"properties":{"Name":"旧埋蔵文化財センター","Jusho":"新潟県新潟市北区太郎代2554番地","kouzui":"○","gake":"○","takashio":"×","jishin":"○","tsunami":"×","kaji":"×","naisui":"○","kazan":"×"}}
,{"type":"Feature","geometry":{"type":"Point","coordinates":[139.159144447272,37.9307474676527]},"properties":{"Name":"濁川小学校","Jusho":"新潟県新潟市北区濁川284番地","kouzui":"○","gake":"×","takashio":"×","jishin":"○","tsunami":"×","kaji":"×","naisui":"○","kazan":"×"}}
,{"type":"Feature","geometry":{"type":"Point","coordinates":[139.165723229845,37.9305134577631]},"properties":{"Name":"濁川中学校","Jusho":"新潟県新潟市北区新崎5437番地","kouzui":"○","gake":"×","takashio":"×","jishin":"○","tsunami":"×","kaji":"×","naisui":"○","kazan":"×"}}
,{"type":"Feature","geometry":{"type":"Point","coordinates":[139.073443796793,37.9401955650867]},"properties":{"Name":"山の下小学校","Jusho":"新潟県新潟市東区山の下町８番55号","kouzui":"○","gake":"×","takashio":"×","jishin":"○","tsunami":"○","kaji":"×","naisui":"○","kazan":"×"}}
,{"type":"Feature","geometry":{"type":"Point","coordinates":[139.078226908099,37.9444630972593]},"properties":{"Name":"桃山小学校","Jusho":"新潟県新潟市東区桃山町２丁目204番地","kouzui":"○","gake":"×","takashio":"×","jishin":"○","tsunami":"○","kaji":"×","naisui":"○","kazan":"×"}}
,{"type":"Feature","geometry":{"type":"Point","coordinates":[139.082873090725,37.9420120766538]},"properties":{"Name":"山の下中学校","Jusho":"新潟県新潟市東区秋葉通２丁目3722番地７","kouzui":"○","gake":"×","takashio":"×","jishin":"○","tsunami":"○","kaji":"×","naisui":"○","kazan":"×"}}
,{"type":"Feature","geometry":{"type":"Point","coordinates":[139.097870451511,37.9489316969837]},"properties":{"Name":"新潟朝鮮初中級学校","Jusho":"新潟県新潟市東区空港西２丁目14番１号","kouzui":"○","gake":"×","takashio":"×","jishin":"×","tsunami":"×","kaji":"×","naisui":"○","kazan":"×"}}
,{"type":"Feature","geometry":{"type":"Point","coordinates":[139.09114555449,37.9342581461011]},"properties":{"Name":"東山の下小学校","Jusho":"新潟県新潟市東区藤見町１丁目23番57号","kouzui":"○","gake":"×","takashio":"×","jishin":"○","tsunami":"○","kaji":"×","naisui":"○","kazan":"×"}}
,{"type":"Feature","geometry":{"type":"Point","coordinates":[139.092622592589,37.9383525042865]},"properties":{"Name":"藤見中学校","Jusho":"新潟県新潟市東区小金町３丁目５番１号","kouzui":"○","gake":"○","takashio":"×","jishin":"○","tsunami":"×","kaji":"×","naisui":"○","kazan":"×"}}
,{"type":"Feature","geometry":{"type":"Point","coordinates":[139.099249266029,37.9380895334676]},"properties":{"Name":"新潟東高等学校","Jusho":"新潟県新潟市東区小金町２丁目６番１号","kouzui":"○","gake":"×","takashio":"×","jishin":"○","tsunami":"×","kaji":"×","naisui":"○","kazan":"×"}}
,{"type":"Feature","geometry":{"type":"Point","coordinates":[139.09798825541,37.9400648955714]},"properties":{"Name":"中地区コミュニティセンター","Jusho":"新潟県新潟市東区松和町15番８号","kouzui":"○","gake":"○","takashio":"×","jishin":"○","tsunami":"×","kaji":"×","naisui":"○","kazan":"×"}}
,{"type":"Feature","geometry":{"type":"Point","coordinates":[139.116474515213,37.9434351553424]},"properties":{"Name":"下山小学校","Jusho":"新潟県新潟市東区太平２丁目18番地","kouzui":"○","gake":"×","takashio":"×","jishin":"○","tsunami":"○","kaji":"×","naisui":"○","kazan":"×"}}
,{"type":"Feature","geometry":{"type":"Point","coordinates":[139.119427599859,37.9445973934793]},"properties":{"Name":"下山中学校","Jusho":"新潟県新潟市東区下山１丁目120番地","kouzui":"○","gake":"×","takashio":"×","jishin":"○","tsunami":"○","kaji":"×","naisui":"○","kazan":"×"}}
,{"type":"Feature","geometry":{"type":"Point","coordinates":[139.120616992885,37.944088671508]},"properties":{"Name":"下山コミュニティハウス","Jusho":"新潟県新潟市東区下山1丁目121番地","kouzui":"×","gake":"×","takashio":"×","jishin":"○","tsunami":"×","kaji":"×","naisui":"×","kazan":"×"}}
,{"type":"Feature","geometry":{"type":"Point","coordinates":[139.086540606737,37.9158721431183]},"properties":{"Name":"木戸小学校","Jusho":"新潟県新潟市東区中山４丁目１番１号","kouzui":"○","gake":"×","takashio":"×","jishin":"○","tsunami":"○","kaji":"×","naisui":"○","kazan":"×"}}
,{"type":"Feature","geometry":{"type":"Point","coordinates":[139.089447103153,37.9110209212173]},"properties":{"Name":"竹尾小学校","Jusho":"新潟県新潟市東区竹尾２丁目18番１号","kouzui":"○","gake":"×","takashio":"×","jishin":"○","tsunami":"○","kaji":"×","naisui":"○","kazan":"×"}}
,{"type":"Feature","geometry":{"type":"Point","coordinates":[139.078415540017,37.9193653510905]},"properties":{"Name":"東新潟中学校","Jusho":"新潟県新潟市東区山木戸１丁目２番１号","kouzui":"○","gake":"×","takashio":"×","jishin":"○","tsunami":"○","kaji":"×","naisui":"○","kazan":"×"}}
,{"type":"Feature","geometry":{"type":"Point","coordinates":[139.087489655266,37.9152705702115]},"properties":{"Name":"木戸コミュニティセンター","Jusho":"新潟県新潟市東区中山４丁目２番６号","kouzui":"○","gake":"×","takashio":"×","jishin":"○","tsunami":"×","kaji":"×","naisui":"○","kazan":"×"}}
,{"type":"Feature","geometry":{"type":"Point","coordinates":[139.098641361667,37.9189495145648]},"properties":{"Name":"牡丹山小学校","Jusho":"新潟県新潟市東区牡丹山６丁目15番１号","kouzui":"○","gake":"×","takashio":"×","jishin":"○","tsunami":"○","kaji":"×","naisui":"○","kazan":"×"}}
,{"type":"Feature","geometry":{"type":"Point","coordinates":[139.102440309344,37.9199871023626]},"properties":{"Name":"木戸中学校","Jusho":"新潟県新潟市東区上木戸５丁目１番１号","kouzui":"○","gake":"×","takashio":"×","jishin":"○","tsunami":"○","kaji":"×","naisui":"○","kazan":"×"}}
,{"type":"Feature","geometry":{"type":"Point","coordinates":[139.100795568934,37.9153729716214]},"properties":{"Name":"はなみずきコミュニティハウス","Jusho":"新潟県新潟市東区はなみずき１丁目15番12号","kouzui":"○","gake":"×","takashio":"×","jishin":"○","tsunami":"×","kaji":"×","naisui":"○","kazan":"×"}}
,{"type":"Feature","geometry":{"type":"Point","coordinates":[139.120041279193,37.9245224472786]},"properties":{"Name":"大形小学校","Jusho":"新潟県新潟市東区大形本町２丁目６番１号","kouzui":"○","gake":"×","takashio":"×","jishin":"○","tsunami":"○","kaji":"×","naisui":"○","kazan":"×"}}
,{"type":"Feature","geometry":{"type":"Point","coordinates":[139.127112633655,37.9322147474096]},"properties":{"Name":"大形中学校","Jusho":"新潟県新潟市東区海老ヶ瀬122番地１","kouzui":"○","gake":"×","takashio":"×","jishin":"○","tsunami":"○","kaji":"×","naisui":"○","kazan":"×"}}
,{"type":"Feature","geometry":{"type":"Point","coordinates":[139.131579579439,37.9186563553386]},"properties":{"Name":"新潟北高等学校","Jusho":"新潟県新潟市東区本所847番地１","kouzui":"○","gake":"×","takashio":"×","jishin":"○","tsunami":"×","kaji":"×","naisui":"○","kazan":"×"}}
,{"type":"Feature","geometry":{"type":"Point","coordinates":[139.082529247659,37.9043513040957]},"properties":{"Name":"江南小学校","Jusho":"新潟県新潟市東区江南５丁目１番１号","kouzui":"○","gake":"×","takashio":"×","jishin":"○","tsunami":"○","kaji":"×","naisui":"○","kazan":"×"}}
,{"type":"Feature","geometry":{"type":"Point","coordinates":[139.089105902149,37.8985658430172]},"properties":{"Name":"石山中学校","Jusho":"新潟県新潟市東区東明６丁目２番地","kouzui":"○","gake":"×","takashio":"×","jishin":"○","tsunami":"○","kaji":"×","naisui":"○","kazan":"×"}}
,{"type":"Feature","geometry":{"type":"Point","coordinates":[139.101207420683,37.902901360162]},"properties":{"Name":"中野山小学校","Jusho":"新潟県新潟市東区中野山１丁目１番１号","kouzui":"○","gake":"×","takashio":"×","jishin":"○","tsunami":"×","kaji":"×","naisui":"○","kazan":"×"}}
,{"type":"Feature","geometry":{"type":"Point","coordinates":[139.110364818356,37.9050981601475]},"properties":{"Name":"シルバーピア石山","Jusho":"新潟県新潟市東区石山団地10番13号","kouzui":"○","gake":"×","takashio":"×","jishin":"○","tsunami":"×","kaji":"×","naisui":"○","kazan":"×"}}
,{"type":"Feature","geometry":{"type":"Point","coordinates":[139.106047623105,37.8960660268048]},"properties":{"Name":"南中野山小学校","Jusho":"新潟県新潟市東区中野山863番地１","kouzui":"○","gake":"×","takashio":"×","jishin":"○","tsunami":"×","kaji":"×","naisui":"○","kazan":"×"}}
,{"type":"Feature","geometry":{"type":"Point","coordinates":[139.11947131179,37.9046474286552]},"properties":{"Name":"東中野山小学校","Jusho":"新潟県新潟市東区猿ヶ馬場９番地","kouzui":"○","gake":"×","takashio":"×","jishin":"○","tsunami":"×","kaji":"×","naisui":"○","kazan":"×"}}
,{"type":"Feature","geometry":{"type":"Point","coordinates":[139.115160643492,37.9012804763013]},"properties":{"Name":"東石山中学校","Jusho":"新潟県新潟市東区西野1197番地","kouzui":"○","gake":"×","takashio":"×","jishin":"○","tsunami":"×","kaji":"×","naisui":"○","kazan":"×"}}
,{"type":"Feature","geometry":{"type":"Point","coordinates":[139.122915985857,37.91119396445]},"properties":{"Name":"東石山コミュニティハウス","Jusho":"新潟県新潟市東区岡山149番地6","kouzui":"×","gake":"×","takashio":"×","jishin":"○","tsunami":"×","kaji":"×","naisui":"×","kazan":"×"}}
,{"type":"Feature","geometry":{"type":"Point","coordinates":[139.013420331159,37.912199110831]},"properties":{"Name":"浜浦小学校","Jusho":"新潟県新潟市中央区浜浦町１丁目１番地","kouzui":"○","gake":"×","takashio":"×","jishin":"○","tsunami":"○","kaji":"×","naisui":"○","kazan":"×"}}
,{"type":"Feature","geometry":{"type":"Point","coordinates":[139.025420792511,37.9160957944442]},"properties":{"Name":"関屋小学校","Jusho":"新潟県新潟市中央区関屋下川原２丁目664番地","kouzui":"○","gake":"×","takashio":"×","jishin":"○","tsunami":"○","kaji":"×","naisui":"○","kazan":"×"}}
,{"type":"Feature","geometry":{"type":"Point","coordinates":[139.032014499586,37.9154021823975]},"properties":{"Name":"鏡淵小学校","Jusho":"新潟県新潟市中央区白山浦1丁目207番地３","kouzui":"○","gake":"×","takashio":"×","jishin":"○","tsunami":"○","kaji":"×","naisui":"○","kazan":"×"}}
,{"type":"Feature","geometry":{"type":"Point","coordinates":[139.042437212462,37.9143835244653]},"properties":{"Name":"白山小学校","Jusho":"新潟県新潟市中央区川端町１丁目１番地","kouzui":"○","gake":"×","takashio":"×","jishin":"○","tsunami":"○","kaji":"×","naisui":"○","kazan":"×"}}
,{"type":"Feature","geometry":{"type":"Point","coordinates":[139.040005161955,37.9239292883318]},"properties":{"Name":"新潟小学校","Jusho":"新潟県新潟市中央区東大畑通１番町679番地","kouzui":"○","gake":"×","takashio":"×","jishin":"○","tsunami":"○","kaji":"×","naisui":"○","kazan":"×"}}
,{"type":"Feature","geometry":{"type":"Point","coordinates":[139.04876332964,37.9353233945421]},"properties":{"Name":"日和山小学校","Jusho":"新潟県新潟市中央区栄町３丁目5930番地２","kouzui":"○","gake":"×","takashio":"×","jishin":"○","tsunami":"○","kaji":"×","naisui":"○","kazan":"×"}}
,{"type":"Feature","geometry":{"type":"Point","coordinates":[139.053309131596,37.926942263553]},"properties":{"Name":"旧豊照小学校体育館","Jusho":"新潟県新潟市中央区豊照町2518番地1号","kouzui":"×","gake":"×","takashio":"×","jishin":"○","tsunami":"×","kaji":"×","naisui":"×","kazan":"×"}}
,{"type":"Feature","geometry":{"type":"Point","coordinates":[139.065041149464,37.9174788030476]},"properties":{"Name":"万代長嶺小学校","Jusho":"新潟県新潟市中央区東万代町４番１号","kouzui":"○","gake":"×","takashio":"×","jishin":"○","tsunami":"○","kaji":"×","naisui":"○","kazan":"×"}}
,{"type":"Feature","geometry":{"type":"Point","coordinates":[139.074507534447,37.9159948060573]},"properties":{"Name":"沼垂小学校","Jusho":"新潟県新潟市中央区鏡が岡５番５号","kouzui":"○","gake":"×","takashio":"×","jishin":"○","tsunami":"○","kaji":"×","naisui":"○","kazan":"×"}}
,{"type":"Feature","geometry":{"type":"Point","coordinates":[139.071652560231,37.8893259857118]},"properties":{"Name":"山潟小学校","Jusho":"新潟県新潟市中央区弁天橋通３丁目３番１号","kouzui":"○","gake":"×","takashio":"×","jishin":"○","tsunami":"×","kaji":"×","naisui":"○","kazan":"×"}}
,{"type":"Feature","geometry":{"type":"Point","coordinates":[139.044184584127,37.9027643416503]},"properties":{"Name":"上所小学校","Jusho":"新潟県新潟市中央区近江３丁目２番１号","kouzui":"○","gake":"×","takashio":"×","jishin":"○","tsunami":"○","kaji":"×","naisui":"○","kazan":"×"}}
,{"type":"Feature","geometry":{"type":"Point","coordinates":[139.018515445132,37.8831955904806]},"properties":{"Name":"鳥屋野小学校","Jusho":"新潟県新潟市中央区美咲町２丁目４番地７","kouzui":"○","gake":"×","takashio":"×","jishin":"○","tsunami":"○","kaji":"×","naisui":"○","kazan":"×"}}
,{"type":"Feature","geometry":{"type":"Point","coordinates":[139.068619668824,37.912103049042]},"properties":{"Name":"笹口小学校","Jusho":"新潟県新潟市中央区笹口２番47号","kouzui":"○","gake":"×","takashio":"×","jishin":"○","tsunami":"○","kaji":"×","naisui":"○","kazan":"×"}}
,{"type":"Feature","geometry":{"type":"Point","coordinates":[139.043715947919,37.8924972076305]},"properties":{"Name":"女池小学校","Jusho":"新潟県新潟市中央区女池６丁目４番１号","kouzui":"○","gake":"×","takashio":"×","jishin":"○","tsunami":"○","kaji":"×","naisui":"○","kazan":"×"}}
,{"type":"Feature","geometry":{"type":"Point","coordinates":[139.011326560892,37.901967740854]},"properties":{"Name":"有明台小学校","Jusho":"新潟県新潟市中央区有明台４番１号","kouzui":"○","gake":"×","takashio":"×","jishin":"○","tsunami":"○","kaji":"×","naisui":"○","kazan":"×"}}
,{"type":"Feature","geometry":{"type":"Point","coordinates":[139.050422796304,37.9134531954941]},"properties":{"Name":"南万代小学校","Jusho":"新潟県新潟市中央区幸西４丁目１番１号","kouzui":"○","gake":"×","takashio":"×","jishin":"○","tsunami":"○","kaji":"×","naisui":"○","kazan":"×"}}
,{"type":"Feature","geometry":{"type":"Point","coordinates":[139.031250413797,37.8956099767714]},"properties":{"Name":"上山小学校","Jusho":"新潟県新潟市中央区女池上山１-１-28","kouzui":"○","gake":"×","takashio":"×","jishin":"○","tsunami":"○","kaji":"×","naisui":"○","kazan":"×"}}
,{"type":"Feature","geometry":{"type":"Point","coordinates":[139.079727819717,37.8925340691526]},"properties":{"Name":"桜が丘小学校","Jusho":"新潟県新潟市中央区姥ヶ山６丁目１番21号","kouzui":"○","gake":"×","takashio":"×","jishin":"○","tsunami":"×","kaji":"×","naisui":"○","kazan":"×"}}
,{"type":"Feature","geometry":{"type":"Point","coordinates":[139.059675458283,37.8986289168889]},"properties":{"Name":"紫竹山小学校","Jusho":"新潟県新潟市中央区紫竹山１丁目12番１号","kouzui":"○","gake":"×","takashio":"×","jishin":"○","tsunami":"○","kaji":"×","naisui":"○","kazan":"×"}}
,{"type":"Feature","geometry":{"type":"Point","coordinates":[139.009274551029,37.9102313013478]},"properties":{"Name":"関屋中学校","Jusho":"新潟県新潟市中央区浜浦町２丁目１番地","kouzui":"○","gake":"×","takashio":"×","jishin":"○","tsunami":"○","kaji":"×","naisui":"○","kazan":"×"}}
,{"type":"Feature","geometry":{"type":"Point","coordinates":[139.039263279941,37.8968384677907]},"properties":{"Name":"鳥屋野中学校","Jusho":"新潟県新潟市中央区女池４丁目31番地１","kouzui":"○","gake":"×","takashio":"×","jishin":"○","tsunami":"○","kaji":"×","naisui":"○","kazan":"×"}}
,{"type":"Feature","geometry":{"type":"Point","coordinates":[139.032884833822,37.9108183164103]},"properties":{"Name":"白新中学校","Jusho":"新潟県新潟市中央区川岸町２丁目４番地","kouzui":"○","gake":"×","takashio":"×","jishin":"○","tsunami":"○","kaji":"×","naisui":"○","kazan":"×"}}
,{"type":"Feature","geometry":{"type":"Point","coordinates":[139.037625675505,37.9230468396501]},"properties":{"Name":"寄居中学校","Jusho":"新潟県新潟市中央区営所通２番町592番地12","kouzui":"○","gake":"○","takashio":"×","jishin":"○","tsunami":"○","kaji":"×","naisui":"○","kazan":"×"}}
,{"type":"Feature","geometry":{"type":"Point","coordinates":[139.050035867046,37.9360896487827]},"properties":{"Name":"新潟柳都中学校","Jusho":"新潟県新潟市中央区栄町３丁目4213番地","kouzui":"○","gake":"○","takashio":"×","jishin":"○","tsunami":"○","kaji":"×","naisui":"○","kazan":"×"}}
,{"type":"Feature","geometry":{"type":"Point","coordinates":[139.060463552959,37.9202201145672]},"properties":{"Name":"宮浦中学校","Jusho":"新潟県新潟市中央区万代５丁目６番１号","kouzui":"○","gake":"×","takashio":"×","jishin":"○","tsunami":"○","kaji":"×","naisui":"○","kazan":"×"}}
,{"type":"Feature","geometry":{"type":"Point","coordinates":[139.028761541569,37.8952031091266]},"properties":{"Name":"上山中学校","Jusho":"新潟県新潟市中央区女池上山５-１-13","kouzui":"○","gake":"×","takashio":"×","jishin":"○","tsunami":"○","kaji":"×","naisui":"○","kazan":"×"}}
,{"type":"Feature","geometry":{"type":"Point","coordinates":[139.085384242024,37.8887217899831]},"properties":{"Name":"山潟中学校","Jusho":"新潟県新潟市中央区山二ツ１番地１","kouzui":"○","gake":"×","takashio":"×","jishin":"○","tsunami":"×","kaji":"×","naisui":"○","kazan":"×"}}
,{"type":"Feature","geometry":{"type":"Point","coordinates":[139.069126385237,37.9260841598047]},"properties":{"Name":"万代高等学校","Jusho":"新潟県新潟市中央区沼垂東６丁目８番１号","kouzui":"○","gake":"×","takashio":"×","jishin":"○","tsunami":"○","kaji":"×","naisui":"○","kazan":"×"}}
,{"type":"Feature","geometry":{"type":"Point","coordinates":[139.06880988457,37.9272224181082]},"properties":{"Name":"明鏡高等学校","Jusho":"新潟県新潟市中央区沼垂東６丁目11番１号","kouzui":"○","gake":"×","takashio":"×","jishin":"○","tsunami":"○","kaji":"×","naisui":"○","kazan":"×"}}
,{"type":"Feature","geometry":{"type":"Point","coordinates":[139.074033274606,37.8971317713495]},"properties":{"Name":"高志中等教育学校","Jusho":"新潟県新潟市中央区高志１丁目15番１号","kouzui":"○","gake":"×","takashio":"×","jishin":"○","tsunami":"○","kaji":"×","naisui":"○","kazan":"×"}}
,{"type":"Feature","geometry":{"type":"Point","coordinates":[139.023420549046,37.9149818037442]},"properties":{"Name":"新潟高等学校","Jusho":"新潟県新潟市中央区関屋下川原町２丁目635番地","kouzui":"○","gake":"×","takashio":"×","jishin":"○","tsunami":"×","kaji":"×","naisui":"○","kazan":"×"}}
,{"type":"Feature","geometry":{"type":"Point","coordinates":[139.030896986991,37.9181071126898]},"properties":{"Name":"新潟中央高等学校","Jusho":"新潟県新潟市中央区学校町通２番町5317番地１","kouzui":"○","gake":"×","takashio":"×","jishin":"○","tsunami":"○","kaji":"×","naisui":"○","kazan":"×"}}
,{"type":"Feature","geometry":{"type":"Point","coordinates":[139.043832099376,37.9087138651348]},"properties":{"Name":"新潟南高等学校","Jusho":"新潟県新潟市中央区上所１丁目３番１号","kouzui":"○","gake":"×","takashio":"×","jishin":"○","tsunami":"○","kaji":"×","naisui":"○","kazan":"×"}}
,{"type":"Feature","geometry":{"type":"Point","coordinates":[139.04282763684,37.8877026132857]},"properties":{"Name":"新潟江南高等学校","Jusho":"新潟県新潟市中央区女池南３丁目６番１号","kouzui":"○","gake":"×","takashio":"×","jishin":"○","tsunami":"×","kaji":"×","naisui":"○","kazan":"×"}}
,{"type":"Feature","geometry":{"type":"Point","coordinates":[139.028063706092,37.9153201726546]},"properties":{"Name":"新潟商業高等学校","Jusho":"新潟県新潟市中央区白山浦２丁目68番２号","kouzui":"○","gake":"×","takashio":"×","jishin":"○","tsunami":"×","kaji":"×","naisui":"○","kazan":"×"}}
,{"type":"Feature","geometry":{"type":"Point","coordinates":[139.055625859369,37.9046972519502]},"properties":{"Name":"北越高等学校（体育館）","Jusho":"新潟県新潟市中央区米山５丁目１２-１","kouzui":"○","gake":"×","takashio":"×","jishin":"○","tsunami":"×","kaji":"×","naisui":"○","kazan":"×"}}
,{"type":"Feature","geometry":{"type":"Point","coordinates":[139.055140160534,37.9344775179286]},"properties":{"Name":"北部総合コミュニティセンター","Jusho":"新潟県新潟市中央区附船町１丁目4385-１","kouzui":"○","gake":"×","takashio":"×","jishin":"○","tsunami":"○","kaji":"×","naisui":"○","kazan":"×"}}
,{"type":"Feature","geometry":{"type":"Point","coordinates":[139.060321791216,37.9047232510383]},"properties":{"Name":"駅南コミュニティセンター","Jusho":"新潟県新潟市中央区米山４丁目12-20","kouzui":"○","gake":"×","takashio":"×","jishin":"○","tsunami":"○","kaji":"×","naisui":"○","kazan":"×"}}
,{"type":"Feature","geometry":{"type":"Point","coordinates":[139.02968466904,37.9146287608797]},"properties":{"Name":"白新コミュニティハウス","Jusho":"新潟県新潟市中央区白山浦２丁目180-３","kouzui":"○","gake":"×","takashio":"×","jishin":"○","tsunami":"×","kaji":"×","naisui":"○","kazan":"×"}}
,{"type":"Feature","geometry":{"type":"Point","coordinates":[139.018912924753,37.9090341349202]},"properties":{"Name":"関屋地区公民館","Jusho":"新潟県新潟市中央区関屋昭和町３丁目１４８-１","kouzui":"×","gake":"×","takashio":"×","jishin":"○","tsunami":"○","kaji":"×","naisui":"○","kazan":"×"}}
,{"type":"Feature","geometry":{"type":"Point","coordinates":[139.037435098501,37.9253318260973]},"properties":{"Name":"寄居コミュニティハウス","Jusho":"新潟県新潟市中央区西大畑町617","kouzui":"○","gake":"○","takashio":"×","jishin":"○","tsunami":"○","kaji":"×","naisui":"○","kazan":"×"}}
,{"type":"Feature","geometry":{"type":"Point","coordinates":[139.023009300291,37.8943663135321]},"properties":{"Name":"上山コミュニティハウス","Jusho":"新潟県新潟市中央区網川原２丁目１-15","kouzui":"○","gake":"×","takashio":"×","jishin":"○","tsunami":"×","kaji":"×","naisui":"○","kazan":"×"}}
,{"type":"Feature","geometry":{"type":"Point","coordinates":[139.044192259746,37.9317180770068]},"properties":{"Name":"二葉コミュニティハウス","Jusho":"新潟県新潟市中央区古町通13番町5148-２","kouzui":"○","gake":"○","takashio":"×","jishin":"○","tsunami":"○","kaji":"×","naisui":"○","kazan":"×"}}
,{"type":"Feature","geometry":{"type":"Point","coordinates":[139.062058906726,37.9166573696747]},"properties":{"Name":"万代市民会館","Jusho":"新潟県新潟市中央区東万代町９-１","kouzui":"○","gake":"×","takashio":"×","jishin":"○","tsunami":"○","kaji":"×","naisui":"○","kazan":"×"}}
,{"type":"Feature","geometry":{"type":"Point","coordinates":[139.042164289663,37.9151137029789]},"properties":{"Name":"白山コミュニティハウス","Jusho":"新潟県新潟市中央区本町通１番町168-２","kouzui":"○","gake":"×","takashio":"×","jishin":"○","tsunami":"×","kaji":"×","naisui":"○","kazan":"×"}}
,{"type":"Feature","geometry":{"type":"Point","coordinates":[139.053415917038,37.9132953990295]},"properties":{"Name":"総合福祉会館","Jusho":"新潟県新潟市中央区八千代１-３-１","kouzui":"○","gake":"×","takashio":"×","jishin":"○","tsunami":"○","kaji":"×","naisui":"○","kazan":"×"}}
,{"type":"Feature","geometry":{"type":"Point","coordinates":[139.050543199469,37.922352736032]},"properties":{"Name":"クロスパルにいがた","Jusho":"新潟県新潟市中央区礎町通３ノ町2086番地","kouzui":"○","gake":"×","takashio":"×","jishin":"○","tsunami":"○","kaji":"×","naisui":"○","kazan":"×"}}
,{"type":"Feature","geometry":{"type":"Point","coordinates":[139.050421088121,37.8798942264925]},"properties":{"Name":"食育・花育センター","Jusho":"新潟県新潟市中央区清五郎401番地","kouzui":"○","gake":"×","takashio":"×","jishin":"○","tsunami":"×","kaji":"×","naisui":"○","kazan":"×"}}
,{"type":"Feature","geometry":{"type":"Point","coordinates":[139.042469343223,37.9265713250813]},"properties":{"Name":"教育相談センター","Jusho":"新潟県新潟市中央区西大畑町458番地1","kouzui":"○","gake":"○","takashio":"×","jishin":"○","tsunami":"○","kaji":"×","naisui":"○","kazan":"×"}}
,{"type":"Feature","geometry":{"type":"Point","coordinates":[139.069353819973,37.8849407204568]},"properties":{"Name":"山潟会館","Jusho":"新潟県新潟市中央区長潟827番地","kouzui":"○","gake":"×","takashio":"×","jishin":"○","tsunami":"×","kaji":"×","naisui":"○","kazan":"×"}}
,{"type":"Feature","geometry":{"type":"Point","coordinates":[139.032703735761,37.8574348265983]},"properties":{"Name":"曽野木小学校","Jusho":"新潟県新潟市江南区天野２丁目７番１号","kouzui":"○","gake":"×","takashio":"×","jishin":"○","tsunami":"○","kaji":"×","naisui":"○","kazan":"×"}}
,{"type":"Feature","geometry":{"type":"Point","coordinates":[139.048948990829,37.8683536987918]},"properties":{"Name":"東曽野木小学校","Jusho":"新潟県新潟市江南区鐘木214番地１","kouzui":"○","gake":"×","takashio":"×","jishin":"○","tsunami":"○","kaji":"×","naisui":"○","kazan":"×"}}
,{"type":"Feature","geometry":{"type":"Point","coordinates":[139.043001965404,37.8557839085237]},"properties":{"Name":"曽野木中学校","Jusho":"新潟県新潟市江南区曽川甲387番地１","kouzui":"○","gake":"×","takashio":"×","jishin":"○","tsunami":"○","kaji":"×","naisui":"○","kazan":"×"}}
,{"type":"Feature","geometry":{"type":"Point","coordinates":[139.072264192278,37.8379074249409]},"properties":{"Name":"両川小学校","Jusho":"新潟県新潟市江南区酒屋町687番地１","kouzui":"○","gake":"×","takashio":"×","jishin":"○","tsunami":"×","kaji":"×","naisui":"○","kazan":"×"}}
,{"type":"Feature","geometry":{"type":"Point","coordinates":[139.070947072401,37.8378283188206]},"properties":{"Name":"両川中学校","Jusho":"新潟県新潟市江南区酒屋町702番地１","kouzui":"○","gake":"×","takashio":"×","jishin":"○","tsunami":"×","kaji":"×","naisui":"○","kazan":"×"}}
,{"type":"Feature","geometry":{"type":"Point","coordinates":[139.129815867553,37.8791817765247]},"properties":{"Name":"丸山小学校","Jusho":"新潟県新潟市江南区丸山300番地","kouzui":"○","gake":"×","takashio":"×","jishin":"○","tsunami":"×","kaji":"×","naisui":"○","kazan":"×"}}
,{"type":"Feature","geometry":{"type":"Point","coordinates":[139.140033197644,37.8998417648489]},"properties":{"Name":"大淵小学校","Jusho":"新潟県新潟市江南区大淵1760番地１","kouzui":"○","gake":"×","takashio":"×","jishin":"○","tsunami":"×","kaji":"×","naisui":"○","kazan":"×"}}
,{"type":"Feature","geometry":{"type":"Point","coordinates":[139.140006676682,37.8855025892701]},"properties":{"Name":"大江山中学校","Jusho":"新潟県新潟市江南区西山491番地","kouzui":"○","gake":"○","takashio":"×","jishin":"○","tsunami":"×","kaji":"×","naisui":"○","kazan":"×"}}
,{"type":"Feature","geometry":{"type":"Point","coordinates":[139.110952074537,37.8681237866819]},"properties":{"Name":"亀田小学校","Jusho":"新潟県新潟市江南区亀田新明町１丁目１番46号","kouzui":"○","gake":"×","takashio":"×","jishin":"○","tsunami":"×","kaji":"×","naisui":"○","kazan":"×"}}
,{"type":"Feature","geometry":{"type":"Point","coordinates":[139.118358261918,37.8690566587397]},"properties":{"Name":"亀田東小学校","Jusho":"新潟県新潟市江南区亀田水道町３丁目２番45号","kouzui":"○","gake":"×","takashio":"×","jishin":"○","tsunami":"×","kaji":"×","naisui":"○","kazan":"×"}}
,{"type":"Feature","geometry":{"type":"Point","coordinates":[139.099842349688,37.8702086847937]},"properties":{"Name":"亀田西小学校","Jusho":"新潟県新潟市江南区亀田四ツ興野４丁目１番１号","kouzui":"○","gake":"×","takashio":"×","jishin":"○","tsunami":"×","kaji":"×","naisui":"○","kazan":"×"}}
,{"type":"Feature","geometry":{"type":"Point","coordinates":[139.087323006992,37.8618023619228]},"properties":{"Name":"早通小学校","Jusho":"新潟県新潟市江南区早通５丁目７番２号","kouzui":"○","gake":"×","takashio":"×","jishin":"○","tsunami":"×","kaji":"×","naisui":"○","kazan":"×"}}
,{"type":"Feature","geometry":{"type":"Point","coordinates":[139.110993079243,37.862961526638]},"properties":{"Name":"亀田中学校","Jusho":"新潟県新潟市江南区城山１丁目３番５号","kouzui":"○","gake":"×","takashio":"×","jishin":"○","tsunami":"×","kaji":"×","naisui":"○","kazan":"×"}}
,{"type":"Feature","geometry":{"type":"Point","coordinates":[139.094001860773,37.8690673824709]},"properties":{"Name":"亀田西中学校","Jusho":"新潟県新潟市江南区早苗３丁目１番８号","kouzui":"○","gake":"×","takashio":"×","jishin":"○","tsunami":"×","kaji":"×","naisui":"○","kazan":"×"}}
,{"type":"Feature","geometry":{"type":"Point","coordinates":[139.108695667306,37.8812445797956]},"properties":{"Name":"新潟向陽高等学校","Jusho":"新潟県新潟市江南区亀田向陽４丁目３-１","kouzui":"○","gake":"×","takashio":"×","jishin":"○","tsunami":"×","kaji":"×","naisui":"○","kazan":"×"}}
,{"type":"Feature","geometry":{"type":"Point","coordinates":[139.110326124899,37.8670015459415]},"properties":{"Name":"亀田第一保育園","Jusho":"新潟県新潟市江南区亀田新明町２丁目６番１号","kouzui":"○","gake":"×","takashio":"×","jishin":"○","tsunami":"×","kaji":"×","naisui":"○","kazan":"×"}}
,{"type":"Feature","geometry":{"type":"Point","coordinates":[139.111610953288,37.8739933268981]},"properties":{"Name":"亀田第二保育園","Jusho":"新潟県新潟市江南区諏訪１丁目６番10号","kouzui":"○","gake":"×","takashio":"×","jishin":"○","tsunami":"×","kaji":"×","naisui":"○","kazan":"×"}}
,{"type":"Feature","geometry":{"type":"Point","coordinates":[139.115241547437,37.8674881701946]},"properties":{"Name":"亀田第三保育園","Jusho":"新潟県新潟市江南区亀田東町３丁目５番15号","kouzui":"○","gake":"×","takashio":"×","jishin":"○","tsunami":"×","kaji":"×","naisui":"○","kazan":"×"}}
,{"type":"Feature","geometry":{"type":"Point","coordinates":[139.104966694194,37.8733853225664]},"properties":{"Name":"亀田第四保育園","Jusho":"新潟県新潟市江南区西町４丁目６番24号","kouzui":"○","gake":"×","takashio":"×","jishin":"○","tsunami":"×","kaji":"×","naisui":"○","kazan":"×"}}
,{"type":"Feature","geometry":{"type":"Point","coordinates":[139.103276278395,37.8835111807115]},"properties":{"Name":"亀田第五保育園","Jusho":"新潟県新潟市江南区亀田中島２丁目４番14号","kouzui":"○","gake":"×","takashio":"×","jishin":"○","tsunami":"×","kaji":"×","naisui":"○","kazan":"×"}}
,{"type":"Feature","geometry":{"type":"Point","coordinates":[139.103981320597,37.8672748043655]},"properties":{"Name":"亀田市民会館","Jusho":"新潟県新潟市江南区船戸山５丁目７番２号","kouzui":"○","gake":"×","takashio":"×","jishin":"○","tsunami":"×","kaji":"×","naisui":"○","kazan":"×"}}
,{"type":"Feature","geometry":{"type":"Point","coordinates":[139.097364262068,37.8560487163271]},"properties":{"Name":"亀田総合体育館","Jusho":"新潟県新潟市江南区茅野山３丁目１番13号","kouzui":"○","gake":"×","takashio":"×","jishin":"○","tsunami":"×","kaji":"×","naisui":"○","kazan":"×"}}
,{"type":"Feature","geometry":{"type":"Point","coordinates":[139.148540115492,37.8518938681463]},"properties":{"Name":"横越小学校","Jusho":"新潟県新潟市江南区横越中央６丁目３番１号","kouzui":"○","gake":"×","takashio":"×","jishin":"○","tsunami":"×","kaji":"×","naisui":"○","kazan":"×"}}
,{"type":"Feature","geometry":{"type":"Point","coordinates":[139.151251013223,37.8546775036287]},"properties":{"Name":"横越中学校","Jusho":"新潟県新潟市江南区横越中央３丁目４番１号","kouzui":"○","gake":"×","takashio":"×","jishin":"○","tsunami":"×","kaji":"×","naisui":"○","kazan":"×"}}
,{"type":"Feature","geometry":{"type":"Point","coordinates":[139.149183496336,37.8549276056373]},"properties":{"Name":"横越中央保育園","Jusho":"新潟県新潟市江南区横越中央３丁目２番８号","kouzui":"○","gake":"×","takashio":"×","jishin":"○","tsunami":"×","kaji":"×","naisui":"○","kazan":"×"}}
,{"type":"Feature","geometry":{"type":"Point","coordinates":[139.121754194843,37.8357028707852]},"properties":{"Name":"横越双葉保育園","Jusho":"新潟県新潟市江南区木津５丁目５番10号","kouzui":"○","gake":"×","takashio":"×","jishin":"○","tsunami":"×","kaji":"×","naisui":"○","kazan":"×"}}
,{"type":"Feature","geometry":{"type":"Point","coordinates":[139.161403605576,37.8751962425655]},"properties":{"Name":"横越小杉保育園","Jusho":"新潟県新潟市江南区小杉３丁目14番16号","kouzui":"×","gake":"×","takashio":"×","jishin":"○","tsunami":"×","kaji":"×","naisui":"×","kazan":"×"}}
,{"type":"Feature","geometry":{"type":"Point","coordinates":[139.114600077965,37.8468165463258]},"properties":{"Name":"横越体育センター・二本木地区コミュニティセンター","Jusho":"新潟県新潟市江南区二本木３丁目２番50号","kouzui":"×","gake":"×","takashio":"×","jishin":"○","tsunami":"×","kaji":"×","naisui":"×","kazan":"×"}}
,{"type":"Feature","geometry":{"type":"Point","coordinates":[139.162192993889,37.8738157571052]},"properties":{"Name":"小杉地区コミュニティセンター","Jusho":"新潟県新潟市江南区小杉３丁目11番26号","kouzui":"○","gake":"×","takashio":"×","jishin":"○","tsunami":"×","kaji":"×","naisui":"○","kazan":"×"}}
,{"type":"Feature","geometry":{"type":"Point","coordinates":[139.136589346875,37.8528184253962]},"properties":{"Name":"横越地区勤労者総合福祉センター","Jusho":"新潟県新潟市江南区横越川根町２丁目20番１号","kouzui":"×","gake":"×","takashio":"×","jishin":"○","tsunami":"×","kaji":"×","naisui":"×","kazan":"×"}}
,{"type":"Feature","geometry":{"type":"Point","coordinates":[139.153493276929,37.8290737435773]},"properties":{"Name":"横越農村環境改善センター","Jusho":"新潟県新潟市江南区沢海３丁目１番30号","kouzui":"○","gake":"×","takashio":"×","jishin":"○","tsunami":"×","kaji":"×","naisui":"○","kazan":"×"}}
,{"type":"Feature","geometry":{"type":"Point","coordinates":[139.13245087852,37.8369875794147]},"properties":{"Name":"木津地域研修センター","Jusho":"新潟県新潟市江南区木津２丁目３番28号","kouzui":"×","gake":"×","takashio":"×","jishin":"○","tsunami":"×","kaji":"×","naisui":"×","kazan":"×"}}
,{"type":"Feature","geometry":{"type":"Point","coordinates":[139.144323154602,37.8582704642514]},"properties":{"Name":"横越総合体育館","Jusho":"新潟県新潟市江南区いぶき野１丁目１番１号","kouzui":"○","gake":"×","takashio":"×","jishin":"○","tsunami":"×","kaji":"×","naisui":"○","kazan":"×"}}
,{"type":"Feature","geometry":{"type":"Point","coordinates":[139.125427649627,37.7937289208722]},"properties":{"Name":"新津第一幼稚園","Jusho":"新潟県新潟市秋葉区新津本町４丁目４番３号","kouzui":"○","gake":"×","takashio":"×","jishin":"○","tsunami":"×","kaji":"×","naisui":"○","kazan":"×"}}
,{"type":"Feature","geometry":{"type":"Point","coordinates":[139.125095055706,37.7933389243332]},"properties":{"Name":"新津第一小学校","Jusho":"新潟県新潟市秋葉区新津本町４丁目４番３号","kouzui":"○","gake":"○","takashio":"×","jishin":"○","tsunami":"×","kaji":"×","naisui":"○","kazan":"×"}}
,{"type":"Feature","geometry":{"type":"Point","coordinates":[139.120277121621,37.7917299623309]},"properties":{"Name":"新津第一中学校","Jusho":"新潟県新潟市秋葉区新栄町４番１号","kouzui":"○","gake":"○","takashio":"×","jishin":"○","tsunami":"×","kaji":"×","naisui":"○","kazan":"×"}}
,{"type":"Feature","geometry":{"type":"Point","coordinates":[139.130882607692,37.7894401697832]},"properties":{"Name":"新津高等学校","Jusho":"新潟県新潟市秋葉区秋葉１丁目19番１号","kouzui":"○","gake":"○","takashio":"×","jishin":"○","tsunami":"×","kaji":"×","naisui":"○","kazan":"×"}}
,{"type":"Feature","geometry":{"type":"Point","coordinates":[139.122200053962,37.7987886698439]},"properties":{"Name":"新津地域交流 センター","Jusho":"新潟県新潟市秋葉区新津本町１丁目２番39号","kouzui":"○","gake":"×","takashio":"×","jishin":"○","tsunami":"×","kaji":"×","naisui":"○","kazan":"×"}}
,{"type":"Feature","geometry":{"type":"Point","coordinates":[139.112747583271,37.8014037973726]},"properties":{"Name":"新津第三幼稚園","Jusho":"新潟県新潟市秋葉区山谷町３丁目4785番地","kouzui":"○","gake":"×","takashio":"×","jishin":"○","tsunami":"×","kaji":"×","naisui":"○","kazan":"×"}}
,{"type":"Feature","geometry":{"type":"Point","coordinates":[139.112624201661,37.8005899737711]},"properties":{"Name":"新津第三小学校","Jusho":"新潟県新潟市秋葉区山谷町３丁目4785番地","kouzui":"○","gake":"×","takashio":"×","jishin":"○","tsunami":"×","kaji":"×","naisui":"○","kazan":"×"}}
,{"type":"Feature","geometry":{"type":"Point","coordinates":[139.077128683834,37.8336389859731]},"properties":{"Name":"市之瀬幼稚園","Jusho":"新潟県新潟市秋葉区市之瀬349番地２","kouzui":"×","gake":"×","takashio":"×","jishin":"○","tsunami":"×","kaji":"×","naisui":"×","kazan":"×"}}
,{"type":"Feature","geometry":{"type":"Point","coordinates":[139.120564366548,37.828555690884]},"properties":{"Name":"結幼稚園","Jusho":"新潟県新潟市秋葉区結160番地３","kouzui":"×","gake":"×","takashio":"×","jishin":"○","tsunami":"×","kaji":"×","naisui":"×","kazan":"×"}}
,{"type":"Feature","geometry":{"type":"Point","coordinates":[139.121443472195,37.8279551972785]},"properties":{"Name":"結小学校","Jusho":"新潟県新潟市秋葉区結132番地","kouzui":"○","gake":"×","takashio":"×","jishin":"○","tsunami":"×","kaji":"×","naisui":"○","kazan":"×"}}
,{"type":"Feature","geometry":{"type":"Point","coordinates":[139.100355542846,37.8339888252039]},"properties":{"Name":"荻川小学校","Jusho":"新潟県新潟市秋葉区車場922番地１","kouzui":"○","gake":"×","takashio":"×","jishin":"○","tsunami":"×","kaji":"×","naisui":"○","kazan":"×"}}
,{"type":"Feature","geometry":{"type":"Point","coordinates":[139.118741806846,37.8338301082148]},"properties":{"Name":"新津第二中学校","Jusho":"新潟県新潟市秋葉区荻島１丁目15番17号","kouzui":"○","gake":"×","takashio":"×","jishin":"○","tsunami":"×","kaji":"×","naisui":"○","kazan":"×"}}
,{"type":"Feature","geometry":{"type":"Point","coordinates":[139.108376028348,37.8328873031125]},"properties":{"Name":"荻川コミュニティ センター","Jusho":"新潟県新潟市秋葉区中野５丁目１番50号","kouzui":"○","gake":"×","takashio":"×","jishin":"○","tsunami":"×","kaji":"×","naisui":"○","kazan":"×"}}
,{"type":"Feature","geometry":{"type":"Point","coordinates":[139.149085814224,37.8243206167772]},"properties":{"Name":"旧満日小学校","Jusho":"新潟県新潟市秋葉区七日町17番地乙","kouzui":"○","gake":"×","takashio":"×","jishin":"○","tsunami":"×","kaji":"×","naisui":"○","kazan":"×"}}
,{"type":"Feature","geometry":{"type":"Point","coordinates":[139.143539012989,37.8172269638928]},"properties":{"Name":"新津Ｂ＆Ｇ海洋 センター","Jusho":"新潟県新潟市秋葉区七日町2186番地９","kouzui":"○","gake":"×","takashio":"×","jishin":"○","tsunami":"×","kaji":"×","naisui":"○","kazan":"×"}}
,{"type":"Feature","geometry":{"type":"Point","coordinates":[139.12864161193,37.7976058642776]},"properties":{"Name":"新津東保育園","Jusho":"新潟県新潟市秋葉区日宝町９番４号","kouzui":"○","gake":"×","takashio":"×","jishin":"○","tsunami":"×","kaji":"×","naisui":"○","kazan":"×"}}
,{"type":"Feature","geometry":{"type":"Point","coordinates":[139.130854372151,37.7966073898261]},"properties":{"Name":"新津第二幼稚園","Jusho":"新潟県新潟市秋葉区新町２丁目３番３号","kouzui":"○","gake":"×","takashio":"×","jishin":"○","tsunami":"×","kaji":"×","naisui":"○","kazan":"×"}}
,{"type":"Feature","geometry":{"type":"Point","coordinates":[139.131642941604,37.7972983299796]},"properties":{"Name":"新津第二小学校","Jusho":"新潟県新潟市秋葉区新町２丁目３番３号","kouzui":"○","gake":"○","takashio":"×","jishin":"○","tsunami":"×","kaji":"×","naisui":"○","kazan":"×"}}
,{"type":"Feature","geometry":{"type":"Point","coordinates":[139.127575050386,37.7964259888842]},"properties":{"Name":"新津図書館","Jusho":"新潟県新潟市秋葉区日宝町６番２号","kouzui":"○","gake":"×","takashio":"×","jishin":"○","tsunami":"×","kaji":"×","naisui":"○","kazan":"×"}}
,{"type":"Feature","geometry":{"type":"Point","coordinates":[139.145075892558,37.7978204520043]},"properties":{"Name":"新金沢保育園","Jusho":"新潟県新潟市秋葉区新金沢町12番11号","kouzui":"×","gake":"×","takashio":"×","jishin":"○","tsunami":"×","kaji":"×","naisui":"×","kazan":"×"}}
,{"type":"Feature","geometry":{"type":"Point","coordinates":[139.145493741837,37.800520267538]},"properties":{"Name":"阿賀小学校","Jusho":"新潟県新潟市秋葉区新津東町２丁目1325番地","kouzui":"○","gake":"×","takashio":"×","jishin":"○","tsunami":"×","kaji":"×","naisui":"○","kazan":"×"}}
,{"type":"Feature","geometry":{"type":"Point","coordinates":[139.142957199862,37.8005811910239]},"properties":{"Name":"新津第五中学校","Jusho":"新潟県新潟市秋葉区新津東町２丁目７番29号","kouzui":"○","gake":"×","takashio":"×","jishin":"○","tsunami":"×","kaji":"×","naisui":"○","kazan":"×"}}
,{"type":"Feature","geometry":{"type":"Point","coordinates":[139.14069548578,37.8045129839793]},"properties":{"Name":"新津工業高等学校","Jusho":"新潟県新潟市秋葉区新津東町１丁目12番９号","kouzui":"○","gake":"×","takashio":"×","jishin":"○","tsunami":"×","kaji":"×","naisui":"○","kazan":"×"}}
,{"type":"Feature","geometry":{"type":"Point","coordinates":[139.142025876873,37.802072620814]},"properties":{"Name":"新津地域学園","Jusho":"新潟県新潟市秋葉区新津東町２丁目５番６号","kouzui":"○","gake":"×","takashio":"×","jishin":"○","tsunami":"×","kaji":"×","naisui":"○","kazan":"×"}}
,{"type":"Feature","geometry":{"type":"Point","coordinates":[139.138736341515,37.8028101734129]},"properties":{"Name":"新津地区 勤労青少年ホーム","Jusho":"新潟県新潟市秋葉区新津東町１丁目５番12号","kouzui":"×","gake":"×","takashio":"×","jishin":"○","tsunami":"×","kaji":"×","naisui":"×","kazan":"×"}}
,{"type":"Feature","geometry":{"type":"Point","coordinates":[139.170984373098,37.7805159573268]},"properties":{"Name":"新関小学校","Jusho":"新潟県新潟市秋葉区下新766番地","kouzui":"○","gake":"×","takashio":"×","jishin":"○","tsunami":"×","kaji":"×","naisui":"○","kazan":"×"}}
,{"type":"Feature","geometry":{"type":"Point","coordinates":[139.146941510335,37.7688295515427]},"properties":{"Name":"新津クリーンセンター","Jusho":"新潟県新潟市秋葉区小口1289番地１","kouzui":"○","gake":"○","takashio":"×","jishin":"○","tsunami":"×","kaji":"×","naisui":"○","kazan":"×"}}
,{"type":"Feature","geometry":{"type":"Point","coordinates":[139.17215994549,37.7867846761047]},"properties":{"Name":"新津金屋運動広場","Jusho":"新潟県新潟市秋葉区金屋260番地１","kouzui":"×","gake":"×","takashio":"×","jishin":"○","tsunami":"×","kaji":"×","naisui":"×","kazan":"×"}}
,{"type":"Feature","geometry":{"type":"Point","coordinates":[139.093531656943,37.7945243934744]},"properties":{"Name":"小合東幼稚園","Jusho":"新潟県新潟市秋葉区栗宮41番地１","kouzui":"○","gake":"×","takashio":"×","jishin":"○","tsunami":"×","kaji":"×","naisui":"○","kazan":"×"}}
,{"type":"Feature","geometry":{"type":"Point","coordinates":[139.093017112153,37.7938119542728]},"properties":{"Name":"小合東小学校","Jusho":"新潟県新潟市秋葉区小戸上組234番地","kouzui":"○","gake":"×","takashio":"×","jishin":"○","tsunami":"×","kaji":"×","naisui":"○","kazan":"×"}}
,{"type":"Feature","geometry":{"type":"Point","coordinates":[139.071745780474,37.7860738487612]},"properties":{"Name":"小合小学校","Jusho":"新潟県新潟市秋葉区出戸180番地","kouzui":"○","gake":"×","takashio":"×","jishin":"○","tsunami":"×","kaji":"×","naisui":"○","kazan":"×"}}
,{"type":"Feature","geometry":{"type":"Point","coordinates":[139.08473846187,37.7932517371078]},"properties":{"Name":"小合中学校","Jusho":"新潟県新潟市秋葉区小戸下組77番地","kouzui":"○","gake":"×","takashio":"×","jishin":"○","tsunami":"×","kaji":"×","naisui":"○","kazan":"×"}}
,{"type":"Feature","geometry":{"type":"Point","coordinates":[139.084319406135,37.7918218267448]},"properties":{"Name":"小合地区コミュニティセンター","Jusho":"新潟県新潟市秋葉区小戸下組22番地１","kouzui":"×","gake":"×","takashio":"×","jishin":"○","tsunami":"×","kaji":"×","naisui":"×","kazan":"×"}}
,{"type":"Feature","geometry":{"type":"Point","coordinates":[139.119993885094,37.7686581710392]},"properties":{"Name":"金津保育園","Jusho":"新潟県新潟市秋葉区朝日483番地２","kouzui":"○","gake":"×","takashio":"×","jishin":"○","tsunami":"×","kaji":"×","naisui":"○","kazan":"×"}}
,{"type":"Feature","geometry":{"type":"Point","coordinates":[139.118083466788,37.768276747625]},"properties":{"Name":"金津小学校","Jusho":"新潟県新潟市秋葉区古津88番地","kouzui":"○","gake":"○","takashio":"×","jishin":"○","tsunami":"×","kaji":"×","naisui":"○","kazan":"×"}}
,{"type":"Feature","geometry":{"type":"Point","coordinates":[139.119510401989,37.7679799091198]},"properties":{"Name":"金津中学校","Jusho":"新潟県新潟市秋葉区割町10番地２","kouzui":"○","gake":"○","takashio":"×","jishin":"○","tsunami":"×","kaji":"×","naisui":"○","kazan":"×"}}
,{"type":"Feature","geometry":{"type":"Point","coordinates":[139.11290513454,37.7682220271551]},"properties":{"Name":"金津地区コミュニティセンター","Jusho":"新潟県新潟市秋葉区古津597番地","kouzui":"○","gake":"○","takashio":"×","jishin":"○","tsunami":"×","kaji":"×","naisui":"○","kazan":"×"}}
,{"type":"Feature","geometry":{"type":"Point","coordinates":[139.112593727887,37.787404624681]},"properties":{"Name":"秋葉区新津健康 センター","Jusho":"新潟県新潟市秋葉区程島1979番地４","kouzui":"○","gake":"○","takashio":"×","jishin":"○","tsunami":"×","kaji":"×","naisui":"○","kazan":"×"}}
,{"type":"Feature","geometry":{"type":"Point","coordinates":[139.112271862805,37.788672207706]},"properties":{"Name":"秋葉区総合体育館","Jusho":"新潟県新潟市秋葉区程島2009番地","kouzui":"○","gake":"×","takashio":"×","jishin":"○","tsunami":"×","kaji":"×","naisui":"○","kazan":"×"}}
,{"type":"Feature","geometry":{"type":"Point","coordinates":[139.112460249034,37.7878912202342]},"properties":{"Name":"新津武道館","Jusho":"新潟県新潟市秋葉区程島2009番地","kouzui":"×","gake":"×","takashio":"×","jishin":"○","tsunami":"×","kaji":"×","naisui":"×","kazan":"×"}}
,{"type":"Feature","geometry":{"type":"Point","coordinates":[139.112175181533,37.7491325029874]},"properties":{"Name":"里山ビジターセンター","Jusho":"新潟県新潟市秋葉区金津1193番地","kouzui":"○","gake":"○","takashio":"×","jishin":"○","tsunami":"×","kaji":"×","naisui":"○","kazan":"×"}}
,{"type":"Feature","geometry":{"type":"Point","coordinates":[139.074116600383,37.7591044950084]},"properties":{"Name":"小須戸保育園","Jusho":"新潟県新潟市秋葉区小須戸325番地１","kouzui":"×","gake":"×","takashio":"×","jishin":"○","tsunami":"×","kaji":"×","naisui":"×","kazan":"×"}}
,{"type":"Feature","geometry":{"type":"Point","coordinates":[139.076525230975,37.7533151827353]},"properties":{"Name":"小須戸幼稚園","Jusho":"新潟県新潟市秋葉区横川浜527番地１","kouzui":"×","gake":"×","takashio":"×","jishin":"○","tsunami":"×","kaji":"×","naisui":"×","kazan":"×"}}
,{"type":"Feature","geometry":{"type":"Point","coordinates":[139.072184894277,37.7520825829469]},"properties":{"Name":"小須戸小学校","Jusho":"新潟県新潟市秋葉区横川浜541番地１","kouzui":"○","gake":"×","takashio":"×","jishin":"○","tsunami":"×","kaji":"×","naisui":"○","kazan":"×"}}
,{"type":"Feature","geometry":{"type":"Point","coordinates":[139.075057074196,37.7528578554821]},"properties":{"Name":"小須戸中学校","Jusho":"新潟県新潟市秋葉区横川浜526番地１","kouzui":"○","gake":"×","takashio":"×","jishin":"○","tsunami":"×","kaji":"×","naisui":"○","kazan":"×"}}
,{"type":"Feature","geometry":{"type":"Point","coordinates":[139.071136552876,37.7555174510652]},"properties":{"Name":"小須戸まちづくり センター","Jusho":"新潟県新潟市秋葉区小須戸120番地１","kouzui":"○","gake":"×","takashio":"×","jishin":"○","tsunami":"×","kaji":"×","naisui":"○","kazan":"×"}}
,{"type":"Feature","geometry":{"type":"Point","coordinates":[139.076161378681,37.7525050294531]},"properties":{"Name":"小須戸体育館","Jusho":"新潟県新潟市秋葉区横川浜526番地２","kouzui":"×","gake":"×","takashio":"×","jishin":"○","tsunami":"×","kaji":"×","naisui":"×","kazan":"×"}}
,{"type":"Feature","geometry":{"type":"Point","coordinates":[139.077234332305,37.7526455988864]},"properties":{"Name":"小須戸武道館","Jusho":"新潟県新潟市秋葉区横川浜239番地１","kouzui":"×","gake":"×","takashio":"×","jishin":"○","tsunami":"×","kaji":"×","naisui":"×","kazan":"×"}}
,{"type":"Feature","geometry":{"type":"Point","coordinates":[139.066880834694,37.7611200303323]},"properties":{"Name":"小須戸老人福祉 センター","Jusho":"新潟県新潟市秋葉区小須戸3870番地２","kouzui":"×","gake":"×","takashio":"×","jishin":"○","tsunami":"×","kaji":"×","naisui":"×","kazan":"×"}}
,{"type":"Feature","geometry":{"type":"Point","coordinates":[139.068347011109,37.7419352761474]},"properties":{"Name":"ワークセンター ほほえみ","Jusho":"新潟県新潟市秋葉区小向1744番地","kouzui":"×","gake":"×","takashio":"×","jishin":"○","tsunami":"×","kaji":"×","naisui":"×","kazan":"×"}}
,{"type":"Feature","geometry":{"type":"Point","coordinates":[139.08423444962,37.7593079261093]},"properties":{"Name":"新保地域研修センター","Jusho":"新潟県新潟市秋葉区新保1747番地","kouzui":"×","gake":"×","takashio":"×","jishin":"○","tsunami":"×","kaji":"×","naisui":"×","kazan":"×"}}
,{"type":"Feature","geometry":{"type":"Point","coordinates":[139.094992617982,37.7503194340541]},"properties":{"Name":"矢代田保育園","Jusho":"新潟県新潟市秋葉区矢代田1237番地１","kouzui":"×","gake":"○","takashio":"×","jishin":"○","tsunami":"×","kaji":"×","naisui":"×","kazan":"×"}}
,{"type":"Feature","geometry":{"type":"Point","coordinates":[139.092618180073,37.7394407976922]},"properties":{"Name":"矢代田小学校","Jusho":"新潟県新潟市秋葉区矢代田5596番地","kouzui":"○","gake":"○","takashio":"×","jishin":"○","tsunami":"×","kaji":"×","naisui":"○","kazan":"×"}}
,{"type":"Feature","geometry":{"type":"Point","coordinates":[139.101449804822,37.7546481018866]},"properties":{"Name":"新津南高等学校","Jusho":"新潟県新潟市秋葉区矢代田3200番地１","kouzui":"○","gake":"○","takashio":"×","jishin":"○","tsunami":"×","kaji":"×","naisui":"○","kazan":"×"}}
,{"type":"Feature","geometry":{"type":"Point","coordinates":[139.091136802429,37.7404288446994]},"properties":{"Name":"小須戸地区 ふれあい会館","Jusho":"新潟県新潟市秋葉区矢代田35番地","kouzui":"○","gake":"○","takashio":"×","jishin":"○","tsunami":"×","kaji":"×","naisui":"○","kazan":"×"}}
,{"type":"Feature","geometry":{"type":"Point","coordinates":[139.08827590297,37.7331836030027]},"properties":{"Name":"小須戸温泉健康 センター","Jusho":"新潟県新潟市秋葉区天ヶ沢498番地１","kouzui":"○","gake":"×","takashio":"×","jishin":"○","tsunami":"×","kaji":"×","naisui":"○","kazan":"×"}}
,{"type":"Feature","geometry":{"type":"Point","coordinates":[139.084150353125,37.7317323779314]},"properties":{"Name":"鎌倉地域研修センター","Jusho":"新潟県新潟市秋葉区鎌倉273番地１","kouzui":"○","gake":"○","takashio":"×","jishin":"○","tsunami":"×","kaji":"×","naisui":"○","kazan":"×"}}
,{"type":"Feature","geometry":{"type":"Point","coordinates":[138.981954683787,37.6874728692084]},"properties":{"Name":"新飯田小学校","Jusho":"新潟県新潟市南区新飯田1791番地","kouzui":"○","gake":"×","takashio":"×","jishin":"○","tsunami":"×","kaji":"×","naisui":"○","kazan":"×"}}
,{"type":"Feature","geometry":{"type":"Point","coordinates":[138.9808155364,37.6920119971565]},"properties":{"Name":"新飯田地域生活センター","Jusho":"新潟県新潟市南区新飯田1261番地１","kouzui":"○","gake":"×","takashio":"×","jishin":"○","tsunami":"×","kaji":"×","naisui":"○","kazan":"×"}}
,{"type":"Feature","geometry":{"type":"Point","coordinates":[139.000168855209,37.7175618908027]},"properties":{"Name":"茨曽根小学校","Jusho":"新潟県新潟市南区茨曽根1432番地１","kouzui":"○","gake":"×","takashio":"×","jishin":"○","tsunami":"×","kaji":"×","naisui":"○","kazan":"×"}}
,{"type":"Feature","geometry":{"type":"Point","coordinates":[139.01705060558,37.7125745202196]},"properties":{"Name":"白南中学校","Jusho":"新潟県新潟市南区茨曽根7619番地","kouzui":"○","gake":"×","takashio":"×","jishin":"○","tsunami":"×","kaji":"×","naisui":"○","kazan":"×"}}
,{"type":"Feature","geometry":{"type":"Point","coordinates":[138.997556856368,37.7179308411084]},"properties":{"Name":"茨曽根地域生活センター","Jusho":"新潟県新潟市南区茨曽根3443番地","kouzui":"○","gake":"×","takashio":"×","jishin":"○","tsunami":"×","kaji":"×","naisui":"○","kazan":"×"}}
,{"type":"Feature","geometry":{"type":"Point","coordinates":[139.042302450553,37.7212033961095]},"properties":{"Name":"庄瀬小学校","Jusho":"新潟県新潟市南区菱潟新田193番地","kouzui":"○","gake":"×","takashio":"×","jishin":"○","tsunami":"×","kaji":"×","naisui":"○","kazan":"×"}}
,{"type":"Feature","geometry":{"type":"Point","coordinates":[139.040966171112,37.7188659691505]},"properties":{"Name":"庄瀬地域生活センター","Jusho":"新潟県新潟市南区庄瀬6489番地","kouzui":"○","gake":"×","takashio":"×","jishin":"○","tsunami":"×","kaji":"×","naisui":"○","kazan":"×"}}
,{"type":"Feature","geometry":{"type":"Point","coordinates":[139.030764758215,37.754692605501]},"properties":{"Name":"小林小学校","Jusho":"新潟県新潟市南区浦梨215番地１","kouzui":"○","gake":"×","takashio":"×","jishin":"○","tsunami":"×","kaji":"×","naisui":"○","kazan":"×"}}
,{"type":"Feature","geometry":{"type":"Point","coordinates":[139.032785135325,37.7477099833302]},"properties":{"Name":"小林地域生活センター","Jusho":"新潟県新潟市南区下木山613番地","kouzui":"○","gake":"×","takashio":"×","jishin":"○","tsunami":"×","kaji":"×","naisui":"○","kazan":"×"}}
,{"type":"Feature","geometry":{"type":"Point","coordinates":[139.057595468936,37.7766385769022]},"properties":{"Name":"臼井小学校","Jusho":"新潟県新潟市南区臼井4483番地","kouzui":"○","gake":"×","takashio":"×","jishin":"○","tsunami":"×","kaji":"×","naisui":"○","kazan":"×"}}
,{"type":"Feature","geometry":{"type":"Point","coordinates":[139.05516220882,37.7861826328889]},"properties":{"Name":"臼井中学校","Jusho":"新潟県新潟市南区臼井1425番地","kouzui":"○","gake":"×","takashio":"×","jishin":"○","tsunami":"×","kaji":"×","naisui":"○","kazan":"×"}}
,{"type":"Feature","geometry":{"type":"Point","coordinates":[139.057063742492,37.7837652281688]},"properties":{"Name":"臼井地域生活センター","Jusho":"新潟県新潟市南区臼井1193-1","kouzui":"○","gake":"×","takashio":"×","jishin":"○","tsunami":"×","kaji":"×","naisui":"○","kazan":"×"}}
,{"type":"Feature","geometry":{"type":"Point","coordinates":[139.050101856963,37.7854303077539]},"properties":{"Name":"臼井保育園","Jusho":"新潟県新潟市南区赤渋4540番地","kouzui":"×","gake":"×","takashio":"×","jishin":"○","tsunami":"×","kaji":"×","naisui":"×","kazan":"×"}}
,{"type":"Feature","geometry":{"type":"Point","coordinates":[139.060249429665,37.7619457574585]},"properties":{"Name":"ワークセンターしらはす","Jusho":"新潟県新潟市南区戸石45番地2","kouzui":"×","gake":"×","takashio":"×","jishin":"○","tsunami":"×","kaji":"×","naisui":"×","kazan":"×"}}
,{"type":"Feature","geometry":{"type":"Point","coordinates":[139.05314471074,37.8158918114226]},"properties":{"Name":"大鷲小学校","Jusho":"新潟県新潟市南区東笠巻1202番地","kouzui":"○","gake":"×","takashio":"×","jishin":"○","tsunami":"×","kaji":"×","naisui":"○","kazan":"×"}}
,{"type":"Feature","geometry":{"type":"Point","coordinates":[139.059263576791,37.8168234880486]},"properties":{"Name":"大郷地域生活センター","Jusho":"新潟県新潟市南区犬帰新田751番地６","kouzui":"○","gake":"×","takashio":"×","jishin":"○","tsunami":"×","kaji":"×","naisui":"○","kazan":"×"}}
,{"type":"Feature","geometry":{"type":"Point","coordinates":[139.029425105663,37.8167652288604]},"properties":{"Name":"白根北中学校","Jusho":"新潟県新潟市南区鷲ノ木新田4814番地","kouzui":"○","gake":"×","takashio":"×","jishin":"○","tsunami":"×","kaji":"×","naisui":"○","kazan":"×"}}
,{"type":"Feature","geometry":{"type":"Point","coordinates":[139.047668848277,37.8168498543789]},"properties":{"Name":"鷲巻地域生活センター","Jusho":"新潟県新潟市南区東笠巻新田278番地１","kouzui":"○","gake":"×","takashio":"×","jishin":"○","tsunami":"×","kaji":"×","naisui":"○","kazan":"×"}}
,{"type":"Feature","geometry":{"type":"Point","coordinates":[139.005180563141,37.8091795054556]},"properties":{"Name":"根岸小学校","Jusho":"新潟県新潟市南区山崎興野2288番地","kouzui":"○","gake":"×","takashio":"×","jishin":"○","tsunami":"×","kaji":"×","naisui":"○","kazan":"×"}}
,{"type":"Feature","geometry":{"type":"Point","coordinates":[139.00871179055,37.8051109024313]},"properties":{"Name":"根岸地域生活センター","Jusho":"新潟県新潟市南区山崎興野290番地","kouzui":"○","gake":"×","takashio":"×","jishin":"○","tsunami":"×","kaji":"×","naisui":"○","kazan":"×"}}
,{"type":"Feature","geometry":{"type":"Point","coordinates":[139.015907092795,37.7645868088707]},"properties":{"Name":"白根小学校","Jusho":"新潟県新潟市南区白根1407番地","kouzui":"○","gake":"×","takashio":"×","jishin":"○","tsunami":"×","kaji":"×","naisui":"○","kazan":"×"}}
,{"type":"Feature","geometry":{"type":"Point","coordinates":[139.028125638382,37.7598740411209]},"properties":{"Name":"白根第一中学校","Jusho":"新潟県新潟市南区白根407番地","kouzui":"○","gake":"×","takashio":"×","jishin":"○","tsunami":"×","kaji":"×","naisui":"○","kazan":"×"}}
,{"type":"Feature","geometry":{"type":"Point","coordinates":[139.028332132212,37.7649171244849]},"properties":{"Name":"白根高等学校","Jusho":"新潟県新潟市南区上下諏訪木1214番地","kouzui":"○","gake":"×","takashio":"×","jishin":"○","tsunami":"×","kaji":"×","naisui":"○","kazan":"×"}}
,{"type":"Feature","geometry":{"type":"Point","coordinates":[139.019931806174,37.7657598461369]},"properties":{"Name":"白根地域生活センター","Jusho":"新潟県新潟市南区白根1136番地１","kouzui":"○","gake":"×","takashio":"×","jishin":"○","tsunami":"×","kaji":"×","naisui":"○","kazan":"×"}}
,{"type":"Feature","geometry":{"type":"Point","coordinates":[139.013043280459,37.7545074789253]},"properties":{"Name":"諏訪木保育園","Jusho":"新潟県新潟市南区白根水道町10番地35","kouzui":"○","gake":"×","takashio":"×","jishin":"○","tsunami":"×","kaji":"×","naisui":"○","kazan":"×"}}
,{"type":"Feature","geometry":{"type":"Point","coordinates":[139.015119374621,37.7639100576675]},"properties":{"Name":"白根保育園","Jusho":"新潟県新潟市南区白根2444番地","kouzui":"○","gake":"×","takashio":"×","jishin":"○","tsunami":"×","kaji":"×","naisui":"○","kazan":"×"}}
,{"type":"Feature","geometry":{"type":"Point","coordinates":[139.024937161796,37.7695758250624]},"properties":{"Name":"古川保育園","Jusho":"新潟県新潟市南区七軒383番地","kouzui":"×","gake":"×","takashio":"×","jishin":"○","tsunami":"×","kaji":"×","naisui":"×","kazan":"×"}}
,{"type":"Feature","geometry":{"type":"Point","coordinates":[139.016052781271,37.765590674245]},"properties":{"Name":"白根児童センター","Jusho":"新潟県新潟市南区白根1372番地","kouzui":"○","gake":"×","takashio":"×","jishin":"○","tsunami":"×","kaji":"×","naisui":"○","kazan":"×"}}
,{"type":"Feature","geometry":{"type":"Point","coordinates":[139.024946440009,37.7575740625517]},"properties":{"Name":"白根カルチャーセンター","Jusho":"新潟県新潟市南区上下諏訪木1811番地","kouzui":"○","gake":"×","takashio":"×","jishin":"○","tsunami":"×","kaji":"×","naisui":"○","kazan":"×"}}
,{"type":"Feature","geometry":{"type":"Point","coordinates":[139.02143618342,37.7578401765872]},"properties":{"Name":"白根学習館","Jusho":"新潟県新潟市南区田中383番地","kouzui":"○","gake":"×","takashio":"×","jishin":"○","tsunami":"×","kaji":"×","naisui":"○","kazan":"×"}}
,{"type":"Feature","geometry":{"type":"Point","coordinates":[139.021103356269,37.8334933827118]},"properties":{"Name":"大通小学校","Jusho":"新潟県新潟市南区大通南５丁目5426番地","kouzui":"○","gake":"×","takashio":"×","jishin":"○","tsunami":"×","kaji":"×","naisui":"○","kazan":"×"}}
,{"type":"Feature","geometry":{"type":"Point","coordinates":[139.022271801607,37.8310017498666]},"properties":{"Name":"大通地域生活センター","Jusho":"新潟県新潟市南区大通南４丁目105番地","kouzui":"○","gake":"×","takashio":"×","jishin":"○","tsunami":"×","kaji":"×","naisui":"○","kazan":"×"}}
,{"type":"Feature","geometry":{"type":"Point","coordinates":[139.020789477076,37.836597933622]},"properties":{"Name":"大通保育園","Jusho":"新潟県新潟市南区鷲ノ木新田5681番地","kouzui":"×","gake":"×","takashio":"×","jishin":"○","tsunami":"×","kaji":"×","naisui":"×","kazan":"×"}}
,{"type":"Feature","geometry":{"type":"Point","coordinates":[139.011727431815,37.7897478130492]},"properties":{"Name":"味方小学校","Jusho":"新潟県新潟市南区吉江370番地","kouzui":"○","gake":"×","takashio":"×","jishin":"○","tsunami":"×","kaji":"×","naisui":"○","kazan":"×"}}
,{"type":"Feature","geometry":{"type":"Point","coordinates":[139.012200417063,37.788106185099]},"properties":{"Name":"味方中学校","Jusho":"新潟県新潟市南区味方1199番地","kouzui":"○","gake":"×","takashio":"×","jishin":"○","tsunami":"×","kaji":"×","naisui":"○","kazan":"×"}}
,{"type":"Feature","geometry":{"type":"Point","coordinates":[139.006416327256,37.7731995301879]},"properties":{"Name":"味方体育館・ 味方地区公民館","Jusho":"新潟県新潟市南区西白根2676番地","kouzui":"○","gake":"×","takashio":"×","jishin":"○","tsunami":"×","kaji":"×","naisui":"○","kazan":"×"}}
,{"type":"Feature","geometry":{"type":"Point","coordinates":[139.010586427332,37.7655755308726]},"properties":{"Name":"西白根公民館","Jusho":"新潟県新潟市南区西白根1563番地１","kouzui":"×","gake":"×","takashio":"×","jishin":"○","tsunami":"×","kaji":"×","naisui":"×","kazan":"×"}}
,{"type":"Feature","geometry":{"type":"Point","coordinates":[139.01040846546,37.778115038312]},"properties":{"Name":"味方公民館","Jusho":"新潟県新潟市南区味方685番地１","kouzui":"×","gake":"×","takashio":"×","jishin":"○","tsunami":"×","kaji":"×","naisui":"×","kazan":"×"}}
,{"type":"Feature","geometry":{"type":"Point","coordinates":[139.008423933583,37.8005674219419]},"properties":{"Name":"七穂公民館","Jusho":"新潟県新潟市南区吉江238番地１","kouzui":"×","gake":"×","takashio":"×","jishin":"○","tsunami":"×","kaji":"×","naisui":"×","kazan":"×"}}
,{"type":"Feature","geometry":{"type":"Point","coordinates":[139.003261736128,37.778163708317]},"properties":{"Name":"味方出張所","Jusho":"新潟県新潟市南区味方1544番地","kouzui":"○","gake":"×","takashio":"×","jishin":"○","tsunami":"×","kaji":"×","naisui":"○","kazan":"×"}}
,{"type":"Feature","geometry":{"type":"Point","coordinates":[139.005822197975,37.7559883720146]},"properties":{"Name":"味方地区千日運動施設","Jusho":"新潟県新潟市南区西白根262番地","kouzui":"×","gake":"×","takashio":"×","jishin":"○","tsunami":"×","kaji":"×","naisui":"×","kazan":"×"}}
,{"type":"Feature","geometry":{"type":"Point","coordinates":[139.008265349341,37.7784199209401]},"properties":{"Name":"老人福祉センターいこいの家楽友荘・南区味方健康センター","Jusho":"新潟県新潟市南区味方583番地１","kouzui":"×","gake":"×","takashio":"×","jishin":"○","tsunami":"×","kaji":"×","naisui":"×","kazan":"×"}}
,{"type":"Feature","geometry":{"type":"Point","coordinates":[138.998207012046,37.7316450317356]},"properties":{"Name":"月潟小学校","Jusho":"新潟県新潟市南区月潟1410番地","kouzui":"○","gake":"×","takashio":"×","jishin":"○","tsunami":"×","kaji":"×","naisui":"○","kazan":"×"}}
,{"type":"Feature","geometry":{"type":"Point","coordinates":[138.994776402533,37.7335410047049]},"properties":{"Name":"月潟中学校","Jusho":"新潟県新潟市南区月潟740番地","kouzui":"○","gake":"×","takashio":"×","jishin":"○","tsunami":"×","kaji":"×","naisui":"○","kazan":"×"}}
,{"type":"Feature","geometry":{"type":"Point","coordinates":[138.991343806981,37.7280018858154]},"properties":{"Name":"月潟地区公民館","Jusho":"新潟県新潟市南区月潟535番地","kouzui":"○","gake":"×","takashio":"×","jishin":"○","tsunami":"×","kaji":"×","naisui":"○","kazan":"×"}}
,{"type":"Feature","geometry":{"type":"Point","coordinates":[138.995363182418,37.7337281845766]},"properties":{"Name":"月潟農村環境改善 センター","Jusho":"新潟県新潟市南区西萱場1069番地","kouzui":"×","gake":"×","takashio":"×","jishin":"○","tsunami":"×","kaji":"×","naisui":"×","kazan":"×"}}
,{"type":"Feature","geometry":{"type":"Point","coordinates":[138.994826214772,37.7322645065761]},"properties":{"Name":"老人福祉センターいこいの家月寿荘","Jusho":"新潟県新潟市南区月潟770番地","kouzui":"×","gake":"×","takashio":"×","jishin":"○","tsunami":"×","kaji":"×","naisui":"×","kazan":"×"}}
,{"type":"Feature","geometry":{"type":"Point","coordinates":[138.998430687224,37.7309855074556]},"properties":{"Name":"南区月潟健康センター","Jusho":"新潟県新潟市南区月潟1417番地","kouzui":"×","gake":"×","takashio":"×","jishin":"○","tsunami":"×","kaji":"×","naisui":"×","kazan":"×"}}
,{"type":"Feature","geometry":{"type":"Point","coordinates":[138.997432361943,37.9006246135297]},"properties":{"Name":"青山コミュニティ ハウス","Jusho":"新潟県新潟市西区青山６丁目16番地20","kouzui":"○","gake":"×","takashio":"×","jishin":"○","tsunami":"×","kaji":"×","naisui":"○","kazan":"×"}}
,{"type":"Feature","geometry":{"type":"Point","coordinates":[138.989520408082,37.8974328306894]},"properties":{"Name":"青山小学校","Jusho":"新潟県新潟市西区西有明町４番１号","kouzui":"○","gake":"×","takashio":"×","jishin":"○","tsunami":"×","kaji":"×","naisui":"○","kazan":"×"}}
,{"type":"Feature","geometry":{"type":"Point","coordinates":[138.980824220127,37.8918053727204]},"properties":{"Name":"真砂小学校","Jusho":"新潟県新潟市西区真砂３丁目24番１号","kouzui":"○","gake":"○","takashio":"×","jishin":"○","tsunami":"×","kaji":"×","naisui":"○","kazan":"×"}}
,{"type":"Feature","geometry":{"type":"Point","coordinates":[138.965156991364,37.885295234818]},"properties":{"Name":"五十嵐中学校","Jusho":"新潟県新潟市西区上新栄町５丁目３番１号","kouzui":"○","gake":"○","takashio":"×","jishin":"○","tsunami":"×","kaji":"×","naisui":"○","kazan":"×"}}
,{"type":"Feature","geometry":{"type":"Point","coordinates":[138.9675147661,37.8810332595862]},"properties":{"Name":"五十嵐コミュニティハウス","Jusho":"新潟県新潟市西区上新栄町４丁目５番68号","kouzui":"○","gake":"×","takashio":"×","jishin":"○","tsunami":"×","kaji":"×","naisui":"○","kazan":"×"}}
,{"type":"Feature","geometry":{"type":"Point","coordinates":[138.961022287884,37.8790004704837]},"properties":{"Name":"五十嵐小学校","Jusho":"新潟県新潟市西区寺尾西４丁目23番１号","kouzui":"○","gake":"×","takashio":"×","jishin":"○","tsunami":"×","kaji":"×","naisui":"○","kazan":"×"}}
,{"type":"Feature","geometry":{"type":"Point","coordinates":[138.940353333736,37.8682125025978]},"properties":{"Name":"新潟大学（体育館）","Jusho":"新潟県新潟市西区五十嵐２の町8050番地","kouzui":"○","gake":"○","takashio":"×","jishin":"○","tsunami":"×","kaji":"×","naisui":"○","kazan":"×"}}
,{"type":"Feature","geometry":{"type":"Point","coordinates":[138.935287171925,37.8590130461514]},"properties":{"Name":"内野小学校","Jusho":"新潟県新潟市西区内野山手２丁目18番36号","kouzui":"○","gake":"×","takashio":"×","jishin":"○","tsunami":"×","kaji":"×","naisui":"○","kazan":"×"}}
,{"type":"Feature","geometry":{"type":"Point","coordinates":[138.931171366196,37.8556788700725]},"properties":{"Name":"内野中学校","Jusho":"新潟県新潟市西区内野西１丁目10番１号","kouzui":"○","gake":"○","takashio":"×","jishin":"○","tsunami":"×","kaji":"×","naisui":"○","kazan":"×"}}
,{"type":"Feature","geometry":{"type":"Point","coordinates":[138.911879419963,37.8501917439785]},"properties":{"Name":"西内野小学校","Jusho":"新潟県新潟市西区内野上新町308番地１","kouzui":"○","gake":"○","takashio":"×","jishin":"○","tsunami":"×","kaji":"×","naisui":"○","kazan":"×"}}
,{"type":"Feature","geometry":{"type":"Point","coordinates":[138.912719974473,37.8499634673539]},"properties":{"Name":"西コミュニティ センター","Jusho":"新潟県新潟市西区内野上新町11810番地","kouzui":"○","gake":"×","takashio":"×","jishin":"○","tsunami":"×","kaji":"×","naisui":"○","kazan":"×"}}
,{"type":"Feature","geometry":{"type":"Point","coordinates":[138.919673651996,37.8467608535204]},"properties":{"Name":"新潟西高等学校","Jusho":"新潟県新潟市西区内野関場4699番地","kouzui":"○","gake":"×","takashio":"×","jishin":"○","tsunami":"×","kaji":"×","naisui":"○","kazan":"×"}}
,{"type":"Feature","geometry":{"type":"Point","coordinates":[138.892019743574,37.8335750686387]},"properties":{"Name":"木山小学校","Jusho":"新潟県新潟市西区谷内1886番地","kouzui":"○","gake":"×","takashio":"×","jishin":"○","tsunami":"×","kaji":"×","naisui":"○","kazan":"×"}}
,{"type":"Feature","geometry":{"type":"Point","coordinates":[138.877945892078,37.8205094983674]},"properties":{"Name":"赤塚中学校","Jusho":"新潟県新潟市西区赤塚5590番地","kouzui":"○","gake":"×","takashio":"×","jishin":"○","tsunami":"×","kaji":"×","naisui":"○","kazan":"×"}}
,{"type":"Feature","geometry":{"type":"Point","coordinates":[138.88320286723,37.8149256611247]},"properties":{"Name":"赤塚小学校","Jusho":"新潟県新潟市西区赤塚4478番地","kouzui":"○","gake":"×","takashio":"×","jishin":"○","tsunami":"×","kaji":"×","naisui":"○","kazan":"×"}}
,{"type":"Feature","geometry":{"type":"Point","coordinates":[138.900181785383,37.8172599877026]},"properties":{"Name":"新潟国際情報大学","Jusho":"新潟県新潟市西区みずき野３丁目１番１号","kouzui":"○","gake":"×","takashio":"×","jishin":"○","tsunami":"×","kaji":"×","naisui":"○","kazan":"×"}}
,{"type":"Feature","geometry":{"type":"Point","coordinates":[138.929290180525,37.8230936616233]},"properties":{"Name":"小瀬小学校","Jusho":"新潟県新潟市西区小瀬637番地","kouzui":"○","gake":"×","takashio":"×","jishin":"○","tsunami":"×","kaji":"×","naisui":"○","kazan":"×"}}
,{"type":"Feature","geometry":{"type":"Point","coordinates":[138.933873944871,37.8255191911101]},"properties":{"Name":"中野小屋中学校","Jusho":"新潟県新潟市西区中野小屋932番地","kouzui":"○","gake":"×","takashio":"×","jishin":"○","tsunami":"○","kaji":"×","naisui":"○","kazan":"×"}}
,{"type":"Feature","geometry":{"type":"Point","coordinates":[138.94672182989,37.8420386403446]},"properties":{"Name":"笠木小学校","Jusho":"新潟県新潟市西区笠木1695番地","kouzui":"○","gake":"×","takashio":"×","jishin":"○","tsunami":"○","kaji":"×","naisui":"○","kazan":"×"}}
,{"type":"Feature","geometry":{"type":"Point","coordinates":[138.949584934165,37.8587347374967]},"properties":{"Name":"日本文理高等学校","Jusho":"新潟県新潟市西区新通1072番地","kouzui":"○","gake":"○","takashio":"×","jishin":"○","tsunami":"×","kaji":"×","naisui":"○","kazan":"×"}}
,{"type":"Feature","geometry":{"type":"Point","coordinates":[138.964418809304,37.870462441135]},"properties":{"Name":"新通小学校","Jusho":"新潟県新潟市西区坂井東６丁目18番１号","kouzui":"○","gake":"○","takashio":"×","jishin":"○","tsunami":"○","kaji":"×","naisui":"○","kazan":"×"}}
,{"type":"Feature","geometry":{"type":"Point","coordinates":[138.971393538918,37.8676442105239]},"properties":{"Name":"坂井東小学校","Jusho":"新潟県新潟市西区坂井東５丁目17番１号","kouzui":"○","gake":"×","takashio":"×","jishin":"○","tsunami":"○","kaji":"×","naisui":"○","kazan":"×"}}
,{"type":"Feature","geometry":{"type":"Point","coordinates":[138.97007241171,37.874659162849]},"properties":{"Name":"坂井輪中学校","Jusho":"新潟県新潟市西区寺尾上３丁目１番36号","kouzui":"○","gake":"○","takashio":"×","jishin":"○","tsunami":"○","kaji":"×","naisui":"○","kazan":"×"}}
,{"type":"Feature","geometry":{"type":"Point","coordinates":[138.985440741154,37.8866913990207]},"properties":{"Name":"坂井輪コミュニティセンター","Jusho":"新潟県新潟市西区小針西１丁目12番地12","kouzui":"○","gake":"○","takashio":"×","jishin":"○","tsunami":"×","kaji":"×","naisui":"○","kazan":"×"}}
,{"type":"Feature","geometry":{"type":"Point","coordinates":[138.986833937915,37.8804059865167]},"properties":{"Name":"坂井輪小学校","Jusho":"新潟県新潟市西区坂井東１丁目２番１号","kouzui":"○","gake":"○","takashio":"×","jishin":"○","tsunami":"○","kaji":"×","naisui":"○","kazan":"×"}}
,{"type":"Feature","geometry":{"type":"Point","coordinates":[138.993389367784,37.8726264332163]},"properties":{"Name":"小新中学校","Jusho":"新潟県新潟市西区小新西３丁目18番１号","kouzui":"○","gake":"×","takashio":"×","jishin":"○","tsunami":"○","kaji":"×","naisui":"○","kazan":"×"}}
,{"type":"Feature","geometry":{"type":"Point","coordinates":[138.995245038669,37.8763713284664]},"properties":{"Name":"新潟工業高等学校","Jusho":"新潟県新潟市西区小新西１丁目５番１号","kouzui":"○","gake":"×","takashio":"×","jishin":"○","tsunami":"×","kaji":"×","naisui":"○","kazan":"×"}}
,{"type":"Feature","geometry":{"type":"Point","coordinates":[138.995998438846,37.888865075496]},"properties":{"Name":"小針小学校","Jusho":"新潟県新潟市西区小針２丁目36番１号","kouzui":"○","gake":"○","takashio":"×","jishin":"○","tsunami":"○","kaji":"×","naisui":"○","kazan":"×"}}
,{"type":"Feature","geometry":{"type":"Point","coordinates":[139.002304330635,37.8878133101584]},"properties":{"Name":"小針中学校","Jusho":"新潟県新潟市西区小針１丁目37番１号","kouzui":"○","gake":"×","takashio":"×","jishin":"○","tsunami":"○","kaji":"×","naisui":"○","kazan":"×"}}
,{"type":"Feature","geometry":{"type":"Point","coordinates":[139.008124346747,37.8955613639822]},"properties":{"Name":"東青山小学校","Jusho":"新潟県新潟市西区青山261番地１","kouzui":"○","gake":"○","takashio":"×","jishin":"○","tsunami":"○","kaji":"×","naisui":"○","kazan":"×"}}
,{"type":"Feature","geometry":{"type":"Point","coordinates":[139.002875788935,37.8728720664728]},"properties":{"Name":"立仏小学校","Jusho":"新潟県新潟市西区立仏950番地","kouzui":"○","gake":"×","takashio":"×","jishin":"○","tsunami":"○","kaji":"×","naisui":"○","kazan":"×"}}
,{"type":"Feature","geometry":{"type":"Point","coordinates":[139.012465832884,37.8690369050663]},"properties":{"Name":"山田小学校","Jusho":"新潟県新潟市西区山田2781番地２","kouzui":"○","gake":"×","takashio":"×","jishin":"○","tsunami":"×","kaji":"×","naisui":"○","kazan":"×"}}
,{"type":"Feature","geometry":{"type":"Point","coordinates":[139.01081583511,37.8564150347153]},"properties":{"Name":"黒埼市民会館","Jusho":"新潟県新潟市西区鳥原909番地１","kouzui":"○","gake":"×","takashio":"×","jishin":"○","tsunami":"○","kaji":"×","naisui":"○","kazan":"×"}}
,{"type":"Feature","geometry":{"type":"Point","coordinates":[139.013049275518,37.846788172293]},"properties":{"Name":"黒埼中学校","Jusho":"新潟県新潟市西区大野町2540番地１","kouzui":"○","gake":"×","takashio":"×","jishin":"○","tsunami":"×","kaji":"×","naisui":"○","kazan":"×"}}
,{"type":"Feature","geometry":{"type":"Point","coordinates":[139.018716608916,37.845051136925]},"properties":{"Name":"大野小学校","Jusho":"新潟県新潟市西区大野町3140番地乙","kouzui":"○","gake":"×","takashio":"×","jishin":"○","tsunami":"×","kaji":"×","naisui":"○","kazan":"×"}}
,{"type":"Feature","geometry":{"type":"Point","coordinates":[138.997908921049,37.8389709287687]},"properties":{"Name":"新潟翠江高等学校","Jusho":"新潟県新潟市西区金巻1657番地","kouzui":"○","gake":"×","takashio":"×","jishin":"○","tsunami":"×","kaji":"×","naisui":"○","kazan":"×"}}
,{"type":"Feature","geometry":{"type":"Point","coordinates":[138.989403958636,37.8298888802514]},"properties":{"Name":"黒埼南小学校","Jusho":"新潟県新潟市西区木場911番地１","kouzui":"○","gake":"×","takashio":"×","jishin":"○","tsunami":"×","kaji":"×","naisui":"○","kazan":"×"}}
,{"type":"Feature","geometry":{"type":"Point","coordinates":[138.876282890939,37.7558966919552]},"properties":{"Name":"巻南小学校","Jusho":"新潟県新潟市西蒲区堀山新田1301","kouzui":"○","gake":"×","takashio":"×","jishin":"○","tsunami":"×","kaji":"×","naisui":"○","kazan":"×"}}
,{"type":"Feature","geometry":{"type":"Point","coordinates":[138.877486400999,37.7646853295759]},"properties":{"Name":"巻北小学校","Jusho":"新潟県新潟市西蒲区竹野町163","kouzui":"○","gake":"○","takashio":"×","jishin":"○","tsunami":"×","kaji":"×","naisui":"○","kazan":"×"}}
,{"type":"Feature","geometry":{"type":"Point","coordinates":[138.880693585154,37.762379084725]},"properties":{"Name":"巻高等学校","Jusho":"新潟県新潟市西蒲区巻乙30-１","kouzui":"○","gake":"×","takashio":"×","jishin":"○","tsunami":"×","kaji":"×","naisui":"○","kazan":"×"}}
,{"type":"Feature","geometry":{"type":"Point","coordinates":[138.890998351496,37.7552733458265]},"properties":{"Name":"巻総合高等学校","Jusho":"新潟県新潟市西蒲区巻甲4295-１","kouzui":"○","gake":"×","takashio":"×","jishin":"○","tsunami":"×","kaji":"×","naisui":"○","kazan":"×"}}
,{"type":"Feature","geometry":{"type":"Point","coordinates":[138.881924966945,37.7584757884059]},"properties":{"Name":"西蒲高等特別支援学校","Jusho":"新潟県新潟市西蒲区堀山新田51-１","kouzui":"○","gake":"×","takashio":"×","jishin":"○","tsunami":"×","kaji":"×","naisui":"○","kazan":"×"}}
,{"type":"Feature","geometry":{"type":"Point","coordinates":[138.88185137269,37.7543838362658]},"properties":{"Name":"巻つくし保育園","Jusho":"新潟県新潟市西蒲区堀山新田256","kouzui":"×","gake":"×","takashio":"×","jishin":"○","tsunami":"×","kaji":"×","naisui":"×","kazan":"×"}}
,{"type":"Feature","geometry":{"type":"Point","coordinates":[138.888715927096,37.7592349152721]},"properties":{"Name":"巻保育園","Jusho":"新潟県新潟市西蒲区巻甲2644","kouzui":"○","gake":"×","takashio":"×","jishin":"○","tsunami":"×","kaji":"×","naisui":"○","kazan":"×"}}
,{"type":"Feature","geometry":{"type":"Point","coordinates":[138.88398517486,37.7588185864906]},"properties":{"Name":"巻文化会館・ 巻地区公民館","Jusho":"新潟県新潟市西蒲区巻甲635","kouzui":"○","gake":"×","takashio":"×","jishin":"○","tsunami":"×","kaji":"×","naisui":"○","kazan":"×"}}
,{"type":"Feature","geometry":{"type":"Point","coordinates":[138.883577479085,37.7590094350184]},"properties":{"Name":"巻体育館","Jusho":"新潟県新潟市西蒲区巻甲647","kouzui":"○","gake":"×","takashio":"×","jishin":"○","tsunami":"×","kaji":"×","naisui":"○","kazan":"×"}}
,{"type":"Feature","geometry":{"type":"Point","coordinates":[138.883394443645,37.7640097926469]},"properties":{"Name":"巻やすらぎ会館","Jusho":"新潟県新潟市西蒲区巻甲121-１","kouzui":"○","gake":"×","takashio":"×","jishin":"○","tsunami":"×","kaji":"×","naisui":"○","kazan":"×"}}
,{"type":"Feature","geometry":{"type":"Point","coordinates":[138.892197923413,37.7550455934899]},"properties":{"Name":"巻地域保健福祉センター","Jusho":"新潟県新潟市西蒲区巻甲4363","kouzui":"○","gake":"×","takashio":"×","jishin":"○","tsunami":"×","kaji":"×","naisui":"○","kazan":"×"}}
,{"type":"Feature","geometry":{"type":"Point","coordinates":[138.920156051023,37.7427780460995]},"properties":{"Name":"漆山小学校","Jusho":"新潟県新潟市西蒲区馬堀4515","kouzui":"○","gake":"×","takashio":"×","jishin":"○","tsunami":"×","kaji":"×","naisui":"○","kazan":"×"}}
,{"type":"Feature","geometry":{"type":"Point","coordinates":[138.901317560018,37.7448972176757]},"properties":{"Name":"巻東中学校","Jusho":"新潟県新潟市西蒲区潟頭1493","kouzui":"○","gake":"×","takashio":"×","jishin":"○","tsunami":"×","kaji":"×","naisui":"○","kazan":"×"}}
,{"type":"Feature","geometry":{"type":"Point","coordinates":[138.91477188685,37.7349308504015]},"properties":{"Name":"漆山西保育園","Jusho":"新潟県新潟市西蒲区並岡10-２","kouzui":"×","gake":"×","takashio":"×","jishin":"○","tsunami":"×","kaji":"×","naisui":"×","kazan":"×"}}
,{"type":"Feature","geometry":{"type":"Point","coordinates":[138.91899095102,37.7480735896154]},"properties":{"Name":"漆山公民館","Jusho":"新潟県新潟市西蒲区馬堀6001-56","kouzui":"×","gake":"×","takashio":"×","jishin":"○","tsunami":"×","kaji":"×","naisui":"×","kazan":"×"}}
,{"type":"Feature","geometry":{"type":"Point","coordinates":[138.92671500898,37.7487109175506]},"properties":{"Name":"漆山体育館","Jusho":"新潟県新潟市西蒲区漆山3299-３","kouzui":"×","gake":"×","takashio":"×","jishin":"○","tsunami":"×","kaji":"×","naisui":"×","kazan":"×"}}
,{"type":"Feature","geometry":{"type":"Point","coordinates":[138.927107781636,37.7488677697694]},"properties":{"Name":"漆山東保育園","Jusho":"新潟県新潟市西蒲区漆山3320","kouzui":"×","gake":"×","takashio":"×","jishin":"○","tsunami":"×","kaji":"×","naisui":"×","kazan":"×"}}
,{"type":"Feature","geometry":{"type":"Point","coordinates":[138.878880396236,37.7751322584381]},"properties":{"Name":"巻西中学校","Jusho":"新潟県新潟市西蒲区仁箇42-１","kouzui":"○","gake":"○","takashio":"×","jishin":"○","tsunami":"×","kaji":"×","naisui":"○","kazan":"×"}}
,{"type":"Feature","geometry":{"type":"Point","coordinates":[138.864742523939,37.757079721151]},"properties":{"Name":"峰岡公民館","Jusho":"新潟県新潟市西蒲区鷲ノ木1633-９","kouzui":"○","gake":"×","takashio":"×","jishin":"○","tsunami":"×","kaji":"×","naisui":"○","kazan":"×"}}
,{"type":"Feature","geometry":{"type":"Point","coordinates":[138.845140960588,37.7566220100036]},"properties":{"Name":"入徳館野外研修場","Jusho":"新潟県新潟市西蒲区峰岡444番地２","kouzui":"○","gake":"○","takashio":"×","jishin":"○","tsunami":"×","kaji":"×","naisui":"○","kazan":"×"}}
,{"type":"Feature","geometry":{"type":"Point","coordinates":[138.854489091949,37.7642955680728]},"properties":{"Name":"城山運動公園（管理棟・屋内コート）","Jusho":"新潟県新潟市西蒲区峰岡580番地","kouzui":"○","gake":"○","takashio":"×","jishin":"○","tsunami":"×","kaji":"×","naisui":"○","kazan":"×"}}
,{"type":"Feature","geometry":{"type":"Point","coordinates":[138.878204161226,37.7961100470707]},"properties":{"Name":"松野尾小学校","Jusho":"新潟県新潟市西蒲区松野尾690","kouzui":"○","gake":"×","takashio":"×","jishin":"○","tsunami":"×","kaji":"×","naisui":"○","kazan":"×"}}
,{"type":"Feature","geometry":{"type":"Point","coordinates":[138.843087559424,37.8053520722326]},"properties":{"Name":"越前小学校","Jusho":"新潟県新潟市西蒲区越前浜4670","kouzui":"○","gake":"×","takashio":"×","jishin":"○","tsunami":"×","kaji":"×","naisui":"○","kazan":"×"}}
,{"type":"Feature","geometry":{"type":"Point","coordinates":[138.814507792535,37.7712094741538]},"properties":{"Name":"巻ふるさと会館","Jusho":"新潟県新潟市西蒲区五ヶ浜2237","kouzui":"○","gake":"×","takashio":"×","jishin":"○","tsunami":"×","kaji":"×","naisui":"○","kazan":"×"}}
,{"type":"Feature","geometry":{"type":"Point","coordinates":[138.840619734589,37.8028647739517]},"properties":{"Name":"角田地区コミュニティセンター","Jusho":"新潟県新潟市西蒲区角田浜1815番地１","kouzui":"○","gake":"○","takashio":"×","jishin":"○","tsunami":"×","kaji":"×","naisui":"○","kazan":"×"}}
,{"type":"Feature","geometry":{"type":"Point","coordinates":[138.851002615913,37.7295459805533]},"properties":{"Name":"岩室小学校","Jusho":"新潟県新潟市西蒲区西長島510番地","kouzui":"○","gake":"×","takashio":"×","jishin":"○","tsunami":"×","kaji":"×","naisui":"○","kazan":"×"}}
,{"type":"Feature","geometry":{"type":"Point","coordinates":[138.88540207932,37.7226712745599]},"properties":{"Name":"和納小学校","Jusho":"新潟県新潟市西蒲区和納1212番地","kouzui":"○","gake":"×","takashio":"×","jishin":"○","tsunami":"×","kaji":"×","naisui":"○","kazan":"×"}}
,{"type":"Feature","geometry":{"type":"Point","coordinates":[138.860316103871,37.7288358877984]},"properties":{"Name":"岩室中学校","Jusho":"新潟県新潟市西蒲区西中1421番地","kouzui":"○","gake":"×","takashio":"×","jishin":"○","tsunami":"×","kaji":"×","naisui":"○","kazan":"×"}}
,{"type":"Feature","geometry":{"type":"Point","coordinates":[138.867342614866,37.7267654371622]},"properties":{"Name":"岩室体育館","Jusho":"新潟県新潟市西蒲区西中860番地","kouzui":"○","gake":"×","takashio":"×","jishin":"○","tsunami":"×","kaji":"×","naisui":"○","kazan":"×"}}
,{"type":"Feature","geometry":{"type":"Point","coordinates":[138.796999914309,37.7383958657156]},"properties":{"Name":"間瀬公民館","Jusho":"新潟県新潟市西蒲区間瀬4287番地１","kouzui":"○","gake":"○","takashio":"×","jishin":"○","tsunami":"○","kaji":"×","naisui":"○","kazan":"×"}}
,{"type":"Feature","geometry":{"type":"Point","coordinates":[138.876616411859,37.7276603726006]},"properties":{"Name":"岩室農村環境改善センター","Jusho":"新潟県新潟市西蒲区和納3930番地","kouzui":"○","gake":"×","takashio":"×","jishin":"○","tsunami":"×","kaji":"×","naisui":"○","kazan":"×"}}
,{"type":"Feature","geometry":{"type":"Point","coordinates":[138.795920871644,37.7380829858547]},"properties":{"Name":"岩室すこやか センター","Jusho":"新潟県新潟市西蒲区間瀬4290番地１","kouzui":"○","gake":"○","takashio":"×","jishin":"○","tsunami":"×","kaji":"×","naisui":"○","kazan":"×"}}
,{"type":"Feature","geometry":{"type":"Point","coordinates":[138.918917148805,37.79580084305]},"properties":{"Name":"曽根小学校","Jusho":"新潟県新潟市西蒲区曽根750","kouzui":"○","gake":"×","takashio":"×","jishin":"○","tsunami":"×","kaji":"×","naisui":"○","kazan":"×"}}
,{"type":"Feature","geometry":{"type":"Point","coordinates":[138.9016102115,37.7866664659431]},"properties":{"Name":"鎧郷小学校","Jusho":"新潟県新潟市西蒲区天竺堂412-４","kouzui":"○","gake":"×","takashio":"×","jishin":"○","tsunami":"×","kaji":"×","naisui":"○","kazan":"×"}}
,{"type":"Feature","geometry":{"type":"Point","coordinates":[138.941292799136,37.8102384936432]},"properties":{"Name":"升潟小学校","Jusho":"新潟県新潟市西蒲区升潟2179","kouzui":"○","gake":"×","takashio":"×","jishin":"○","tsunami":"×","kaji":"×","naisui":"○","kazan":"×"}}
,{"type":"Feature","geometry":{"type":"Point","coordinates":[138.926643812706,37.79451291399]},"properties":{"Name":"西川中学校","Jusho":"新潟県新潟市西蒲区曽根1828-３","kouzui":"○","gake":"×","takashio":"×","jishin":"○","tsunami":"×","kaji":"×","naisui":"○","kazan":"×"}}
,{"type":"Feature","geometry":{"type":"Point","coordinates":[138.921975098959,37.8036488411469]},"properties":{"Name":"西川総合体育館","Jusho":"新潟県新潟市西蒲区善光寺369番地１","kouzui":"○","gake":"×","takashio":"×","jishin":"○","tsunami":"×","kaji":"×","naisui":"○","kazan":"×"}}
,{"type":"Feature","geometry":{"type":"Point","coordinates":[138.913445031338,37.7886469774074]},"properties":{"Name":"西川体育センター","Jusho":"新潟県新潟市西蒲区川崎１-１","kouzui":"○","gake":"×","takashio":"×","jishin":"○","tsunami":"×","kaji":"×","naisui":"○","kazan":"×"}}
,{"type":"Feature","geometry":{"type":"Point","coordinates":[138.921725490253,37.7914518823066]},"properties":{"Name":"西蒲区西川健康センター","Jusho":"新潟県新潟市西蒲区旗屋701-２","kouzui":"×","gake":"×","takashio":"×","jishin":"○","tsunami":"×","kaji":"×","naisui":"×","kazan":"×"}}
,{"type":"Feature","geometry":{"type":"Point","coordinates":[138.922601658464,37.7945841280637]},"properties":{"Name":"西川学習館","Jusho":"新潟県新潟市西蒲区曽根1951","kouzui":"○","gake":"×","takashio":"×","jishin":"○","tsunami":"×","kaji":"×","naisui":"○","kazan":"×"}}
,{"type":"Feature","geometry":{"type":"Point","coordinates":[138.911270236221,37.788657248107]},"properties":{"Name":"いこいの家西川荘","Jusho":"新潟県新潟市西蒲区川崎308-４","kouzui":"○","gake":"×","takashio":"×","jishin":"○","tsunami":"×","kaji":"×","naisui":"○","kazan":"×"}}
,{"type":"Feature","geometry":{"type":"Point","coordinates":[138.965992782108,37.8181072898076]},"properties":{"Name":"貝柄地区集会所","Jusho":"新潟県新潟市西蒲区貝柄805-６","kouzui":"×","gake":"×","takashio":"×","jishin":"○","tsunami":"×","kaji":"×","naisui":"×","kazan":"×"}}
,{"type":"Feature","geometry":{"type":"Point","coordinates":[138.950722287068,37.7515893152049]},"properties":{"Name":"潟東小学校","Jusho":"新潟県新潟市西蒲区今井1031番地","kouzui":"○","gake":"×","takashio":"×","jishin":"○","tsunami":"×","kaji":"×","naisui":"○","kazan":"×"}}
,{"type":"Feature","geometry":{"type":"Point","coordinates":[138.961490203795,37.772384850767]},"properties":{"Name":"潟東中学校","Jusho":"新潟県新潟市西蒲区三方250番地","kouzui":"○","gake":"×","takashio":"×","jishin":"○","tsunami":"×","kaji":"×","naisui":"○","kazan":"×"}}
,{"type":"Feature","geometry":{"type":"Point","coordinates":[138.965007954759,37.7671162466268]},"properties":{"Name":"潟東体育館","Jusho":"新潟県新潟市西蒲区三方２番地","kouzui":"○","gake":"×","takashio":"×","jishin":"○","tsunami":"×","kaji":"×","naisui":"○","kazan":"×"}}
,{"type":"Feature","geometry":{"type":"Point","coordinates":[138.965378126116,37.7667074288751]},"properties":{"Name":"潟東農村環境改善センター","Jusho":"新潟県新潟市西蒲区三方１番地","kouzui":"○","gake":"×","takashio":"×","jishin":"○","tsunami":"×","kaji":"×","naisui":"○","kazan":"×"}}
,{"type":"Feature","geometry":{"type":"Point","coordinates":[138.978516629837,37.7077980750331]},"properties":{"Name":"中之口東小学校","Jusho":"新潟県新潟市西蒲区小吉1100","kouzui":"○","gake":"×","takashio":"×","jishin":"○","tsunami":"×","kaji":"×","naisui":"○","kazan":"×"}}
,{"type":"Feature","geometry":{"type":"Point","coordinates":[138.95281033115,37.7308241760392]},"properties":{"Name":"中之口西小学校","Jusho":"新潟県新潟市西蒲区打越甲244","kouzui":"○","gake":"×","takashio":"×","jishin":"○","tsunami":"×","kaji":"×","naisui":"○","kazan":"×"}}
,{"type":"Feature","geometry":{"type":"Point","coordinates":[138.967813705034,37.7183637681217]},"properties":{"Name":"中之口中学校","Jusho":"新潟県新潟市西蒲区中之口660","kouzui":"○","gake":"×","takashio":"×","jishin":"○","tsunami":"×","kaji":"×","naisui":"○","kazan":"×"}}
,{"type":"Feature","geometry":{"type":"Point","coordinates":[138.968566071268,37.7122580648204]},"properties":{"Name":"中之口地区公民館","Jusho":"新潟県新潟市西蒲区中之口310","kouzui":"○","gake":"×","takashio":"×","jishin":"○","tsunami":"×","kaji":"×","naisui":"○","kazan":"×"}}
,{"type":"Feature","geometry":{"type":"Point","coordinates":[139.195349273312,37.9693044007508]},"properties":{"Name":"島見公園","Jusho":"新潟県新潟市北区島見町1876番地１","kouzui":"×","gake":"×","takashio":"×","jishin":"○","tsunami":"×","kaji":"×","naisui":"×","kazan":"×"}}
,{"type":"Feature","geometry":{"type":"Point","coordinates":[139.15720419023,37.9578268857586]},"properties":{"Name":"陽光南公園","Jusho":"新潟県新潟市北区太夫浜新町１丁目５番１号","kouzui":"×","gake":"×","takashio":"×","jishin":"○","tsunami":"×","kaji":"×","naisui":"×","kazan":"×"}}
,{"type":"Feature","geometry":{"type":"Point","coordinates":[139.153448321693,37.9272744224423]},"properties":{"Name":"つくし野西公園","Jusho":"新潟県新潟市北区つくし野１丁目13番１号","kouzui":"×","gake":"×","takashio":"×","jishin":"○","tsunami":"×","kaji":"×","naisui":"×","kazan":"×"}}
,{"type":"Feature","geometry":{"type":"Point","coordinates":[139.157230243753,37.929288516131]},"properties":{"Name":"つくし野東公園","Jusho":"新潟県新潟市北区つくし野２丁目18番","kouzui":"×","gake":"×","takashio":"×","jishin":"○","tsunami":"×","kaji":"×","naisui":"×","kazan":"×"}}
,{"type":"Feature","geometry":{"type":"Point","coordinates":[139.145363317274,37.9514221680951]},"properties":{"Name":"山の上公園","Jusho":"新潟県新潟市北区松浜１丁目17番地","kouzui":"×","gake":"×","takashio":"×","jishin":"○","tsunami":"×","kaji":"×","naisui":"×","kazan":"×"}}
,{"type":"Feature","geometry":{"type":"Point","coordinates":[139.141216046659,37.9530801377332]},"properties":{"Name":"あかしあ公園","Jusho":"新潟県新潟市北区松浜３丁目19番地８","kouzui":"×","gake":"×","takashio":"×","jishin":"○","tsunami":"×","kaji":"×","naisui":"×","kazan":"×"}}
,{"type":"Feature","geometry":{"type":"Point","coordinates":[139.142946703992,37.957369931403]},"properties":{"Name":"ちとせ公園","Jusho":"新潟県新潟市北区松浜５丁目12番地１","kouzui":"×","gake":"×","takashio":"×","jishin":"○","tsunami":"×","kaji":"×","naisui":"×","kazan":"×"}}
,{"type":"Feature","geometry":{"type":"Point","coordinates":[139.137139198267,37.9572103325389]},"properties":{"Name":"みなと公園","Jusho":"新潟県新潟市北区松浜７丁目９番地１","kouzui":"×","gake":"×","takashio":"×","jishin":"○","tsunami":"×","kaji":"×","naisui":"×","kazan":"×"}}
,{"type":"Feature","geometry":{"type":"Point","coordinates":[139.15886454115,37.9200488594002]},"properties":{"Name":"すみれ野公園","Jusho":"新潟県新潟市北区すみれ野１丁目12番２号","kouzui":"×","gake":"×","takashio":"×","jishin":"○","tsunami":"×","kaji":"×","naisui":"×","kazan":"×"}}
,{"type":"Feature","geometry":{"type":"Point","coordinates":[139.211572762515,37.9204095792258]},"properties":{"Name":"豊栄ひまわり公園","Jusho":"新潟県新潟市北区柳原２丁目７番１号","kouzui":"×","gake":"×","takashio":"×","jishin":"○","tsunami":"×","kaji":"×","naisui":"×","kazan":"×"}}
,{"type":"Feature","geometry":{"type":"Point","coordinates":[139.221981428192,37.9243669820119]},"properties":{"Name":"月見公園","Jusho":"新潟県新潟市北区太田字法花鳥屋甲5271番地","kouzui":"×","gake":"×","takashio":"×","jishin":"○","tsunami":"×","kaji":"×","naisui":"×","kazan":"×"}}
,{"type":"Feature","geometry":{"type":"Point","coordinates":[139.190539162942,37.9422793634]},"properties":{"Name":"見国山公園","Jusho":"新潟県新潟市北区木崎字見国山2878番地５","kouzui":"×","gake":"×","takashio":"×","jishin":"○","tsunami":"×","kaji":"×","naisui":"×","kazan":"×"}}
,{"type":"Feature","geometry":{"type":"Point","coordinates":[139.214494021458,37.907191429386]},"properties":{"Name":"美里第一公園","Jusho":"新潟県新潟市北区美里１丁目５番５号","kouzui":"×","gake":"×","takashio":"×","jishin":"○","tsunami":"×","kaji":"×","naisui":"×","kazan":"×"}}
,{"type":"Feature","geometry":{"type":"Point","coordinates":[139.225677644345,37.9145494755771]},"properties":{"Name":"前新田公園","Jusho":"新潟県新潟市北区東栄町２丁目７番１号","kouzui":"×","gake":"×","takashio":"×","jishin":"○","tsunami":"×","kaji":"×","naisui":"×","kazan":"×"}}
,{"type":"Feature","geometry":{"type":"Point","coordinates":[139.189430289437,37.9381567003331]},"properties":{"Name":"やまどおり公園","Jusho":"新潟県新潟市北区木崎字樋ノ入山2741番地１","kouzui":"×","gake":"×","takashio":"×","jishin":"○","tsunami":"×","kaji":"×","naisui":"×","kazan":"×"}}
,{"type":"Feature","geometry":{"type":"Point","coordinates":[139.219540052921,37.9114322824384]},"properties":{"Name":"川岸公園","Jusho":"新潟県新潟市北区嘉山２丁目1646番地","kouzui":"×","gake":"×","takashio":"×","jishin":"○","tsunami":"×","kaji":"×","naisui":"×","kazan":"×"}}
,{"type":"Feature","geometry":{"type":"Point","coordinates":[139.21747741421,37.9206227590293]},"properties":{"Name":"石動公園","Jusho":"新潟県新潟市北区白新町１丁目3994番地","kouzui":"×","gake":"×","takashio":"×","jishin":"○","tsunami":"×","kaji":"×","naisui":"×","kazan":"×"}}
,{"type":"Feature","geometry":{"type":"Point","coordinates":[139.217797675844,37.9243873472881]},"properties":{"Name":"下大口公園","Jusho":"新潟県新潟市北区葛塚字下大口4539番地","kouzui":"×","gake":"×","takashio":"×","jishin":"○","tsunami":"×","kaji":"×","naisui":"×","kazan":"×"}}
,{"type":"Feature","geometry":{"type":"Point","coordinates":[139.187029325615,37.9211657055446]},"properties":{"Name":"彩野公園","Jusho":"新潟県新潟市北区彩野１丁目６番１号","kouzui":"×","gake":"×","takashio":"×","jishin":"○","tsunami":"×","kaji":"×","naisui":"×","kazan":"×"}}
,{"type":"Feature","geometry":{"type":"Point","coordinates":[139.178632014989,37.9180176252895]},"properties":{"Name":"仏伝公園","Jusho":"新潟県新潟市北区早通南３丁目977番地","kouzui":"×","gake":"×","takashio":"×","jishin":"○","tsunami":"×","kaji":"×","naisui":"×","kazan":"×"}}
,{"type":"Feature","geometry":{"type":"Point","coordinates":[139.18471526503,37.920704858368]},"properties":{"Name":"まえわり公園","Jusho":"新潟県新潟市北区早通北３丁目311番地75","kouzui":"×","gake":"×","takashio":"×","jishin":"○","tsunami":"×","kaji":"×","naisui":"×","kazan":"×"}}
,{"type":"Feature","geometry":{"type":"Point","coordinates":[139.215208739612,37.9219065492447]},"properties":{"Name":"すみれ公園","Jusho":"新潟県新潟市北区石動１丁目10番３号","kouzui":"×","gake":"×","takashio":"×","jishin":"○","tsunami":"×","kaji":"×","naisui":"×","kazan":"×"}}
,{"type":"Feature","geometry":{"type":"Point","coordinates":[139.21187268338,37.9148363087851]},"properties":{"Name":"さくら公園","Jusho":"新潟県新潟市北区白新町４丁目54番１号","kouzui":"×","gake":"×","takashio":"×","jishin":"○","tsunami":"×","kaji":"×","naisui":"×","kazan":"×"}}
,{"type":"Feature","geometry":{"type":"Point","coordinates":[139.236079695349,37.9322399657304]},"properties":{"Name":"太田農村公園","Jusho":"新潟県新潟市北区太田字下黒山2005番地","kouzui":"×","gake":"×","takashio":"×","jishin":"○","tsunami":"×","kaji":"×","naisui":"×","kazan":"×"}}
,{"type":"Feature","geometry":{"type":"Point","coordinates":[139.18248870092,37.9340538674514]},"properties":{"Name":"おやま公園","Jusho":"新潟県新潟市北区木崎837番地30","kouzui":"×","gake":"×","takashio":"×","jishin":"○","tsunami":"×","kaji":"×","naisui":"×","kazan":"×"}}
,{"type":"Feature","geometry":{"type":"Point","coordinates":[139.214369076465,37.9088079246222]},"properties":{"Name":"住良公園","Jusho":"新潟県新潟市北区川西３丁目1834番地","kouzui":"×","gake":"×","takashio":"×","jishin":"○","tsunami":"×","kaji":"×","naisui":"×","kazan":"×"}}
,{"type":"Feature","geometry":{"type":"Point","coordinates":[139.208648534407,37.9161209513462]},"properties":{"Name":"夕やけ公園","Jusho":"新潟県新潟市北区柳原３丁目10番２号","kouzui":"×","gake":"×","takashio":"×","jishin":"○","tsunami":"×","kaji":"×","naisui":"×","kazan":"×"}}
,{"type":"Feature","geometry":{"type":"Point","coordinates":[139.22255412632,37.9075092340731]},"properties":{"Name":"中嘉山公園","Jusho":"新潟県新潟市北区嘉山４丁目６番１号","kouzui":"×","gake":"×","takashio":"×","jishin":"○","tsunami":"×","kaji":"×","naisui":"×","kazan":"×"}}
,{"type":"Feature","geometry":{"type":"Point","coordinates":[139.185217776833,37.9243443714866]},"properties":{"Name":"豊栄大空公園","Jusho":"新潟県新潟市北区早通北５丁目1682番地１","kouzui":"×","gake":"×","takashio":"×","jishin":"○","tsunami":"×","kaji":"×","naisui":"×","kazan":"×"}}
,{"type":"Feature","geometry":{"type":"Point","coordinates":[139.226116201732,37.9195890722417]},"properties":{"Name":"しらかば公園","Jusho":"新潟県新潟市北区朝日町２丁目14番１号","kouzui":"×","gake":"×","takashio":"×","jishin":"○","tsunami":"×","kaji":"×","naisui":"×","kazan":"×"}}
,{"type":"Feature","geometry":{"type":"Point","coordinates":[139.210639861015,37.8883308201378]},"properties":{"Name":"長浦農村公園","Jusho":"新潟県新潟市北区浦木字長場村下1963番地１","kouzui":"×","gake":"×","takashio":"×","jishin":"○","tsunami":"×","kaji":"×","naisui":"×","kazan":"×"}}
,{"type":"Feature","geometry":{"type":"Point","coordinates":[139.224887755303,37.9066517683955]},"properties":{"Name":"豊栄南運動公園","Jusho":"新潟県新潟市北区嘉山字嘉山493番地","kouzui":"×","gake":"×","takashio":"×","jishin":"○","tsunami":"×","kaji":"×","naisui":"×","kazan":"×"}}
,{"type":"Feature","geometry":{"type":"Point","coordinates":[139.159654499866,37.9373345874328]},"properties":{"Name":"濁川公園","Jusho":"新潟県新潟市北区濁川686番地１","kouzui":"×","gake":"×","takashio":"×","jishin":"○","tsunami":"×","kaji":"○","naisui":"×","kazan":"×"}}
,{"type":"Feature","geometry":{"type":"Point","coordinates":[139.241054179036,37.9126181626627]},"properties":{"Name":"水の公園福島潟","Jusho":"新潟県新潟市北区前新田乙493番地","kouzui":"×","gake":"×","takashio":"×","jishin":"○","tsunami":"×","kaji":"○","naisui":"×","kazan":"×"}}
,{"type":"Feature","geometry":{"type":"Point","coordinates":[139.072446381433,37.9417153353338]},"properties":{"Name":"青葉公園","Jusho":"新潟県新潟市東区臨港１丁目８番10号","kouzui":"×","gake":"×","takashio":"×","jishin":"○","tsunami":"×","kaji":"×","naisui":"×","kazan":"×"}}
,{"type":"Feature","geometry":{"type":"Point","coordinates":[139.078238507577,37.9358198690907]},"properties":{"Name":"大山台公園","Jusho":"新潟県新潟市東区大山２丁目13番２号","kouzui":"×","gake":"×","takashio":"×","jishin":"○","tsunami":"×","kaji":"×","naisui":"×","kazan":"×"}}
,{"type":"Feature","geometry":{"type":"Point","coordinates":[139.073120964154,37.9368454732967]},