var oita={"type":"FeatureCollection","name":"oita","features":[
{"type":"Feature","geometry":{"type":"Point","coordinates":[131.613352,33.233965]},"properties":{"Name":"金池小学校","Jusho":"大分県大分市金池町３丁目１番９０号","kouzui":"○","gake":"○","takashio":"○","jishin":"○","tsunami":"○","kaji":"○","naisui":"○","kazan":"○"}}
,{"type":"Feature","geometry":{"type":"Point","coordinates":[131.605997,33.23053]},"properties":{"Name":"J:COM ホルトホール大分","Jusho":"大分県大分市金池南町１丁目５番１号","kouzui":"○","gake":"○","takashio":"○","jishin":"○","tsunami":"○","kaji":"○","naisui":"○","kazan":"○"}}
,{"type":"Feature","geometry":{"type":"Point","coordinates":[131.612649,33.228724]},"properties":{"Name":"上野ヶ丘中学校","Jusho":"大分県大分市上野町４番５号","kouzui":"○","gake":"○","takashio":"○","jishin":"○","tsunami":"○","kaji":"○","naisui":"○","kazan":"○"}}
,{"type":"Feature","geometry":{"type":"Point","coordinates":[131.611995,33.22158]},"properties":{"Name":"大分上野丘高等学校","Jusho":"大分県大分市上野ヶ丘２丁目１０番１号","kouzui":"○","gake":"○","takashio":"○","jishin":"○","tsunami":"○","kaji":"○","naisui":"○","kazan":"○"}}
,{"type":"Feature","geometry":{"type":"Point","coordinates":[131.610873,33.235361]},"properties":{"Name":"コンパルホール","Jusho":"大分県大分市府内町１丁目５番３８号","kouzui":"○","gake":"○","takashio":"○","jishin":"○","tsunami":"○","kaji":"○","naisui":"○","kazan":"○"}}
,{"type":"Feature","geometry":{"type":"Point","coordinates":[131.607923,33.240341]},"properties":{"Name":"（旧）荷揚町小学校体育館","Jusho":"大分県大分市荷揚町３番４９号","kouzui":"○","gake":"○","takashio":"○","jishin":"○","tsunami":"×","kaji":"○","naisui":"○","kazan":"○"}}
,{"type":"Feature","geometry":{"type":"Point","coordinates":[131.618603,33.236664]},"properties":{"Name":"長浜小学校","Jusho":"大分県大分市長浜町２丁目６番２５号","kouzui":"○","gake":"○","takashio":"○","jishin":"○","tsunami":"○","kaji":"○","naisui":"○","kazan":"○"}}
,{"type":"Feature","geometry":{"type":"Point","coordinates":[131.607848,33.243571]},"properties":{"Name":"(旧)中島小学校","Jusho":"大分県大分市中島西２丁目１番５２号","kouzui":"○","gake":"○","takashio":"○","jishin":"○","tsunami":"×","kaji":"○","naisui":"○","kazan":"○"}}
,{"type":"Feature","geometry":{"type":"Point","coordinates":[131.605541,33.248116]},"properties":{"Name":"浜町保育所","Jusho":"大分県大分市新川西６組","kouzui":"○","gake":"○","takashio":"○","jishin":"○","tsunami":"×","kaji":"○","naisui":"○","kazan":"○"}}
,{"type":"Feature","geometry":{"type":"Point","coordinates":[131.612231,33.24806]},"properties":{"Name":"碩田学園","Jusho":"大分県大分市碩田町２丁目５番６０号","kouzui":"○","gake":"○","takashio":"○","jishin":"○","tsunami":"×","kaji":"○","naisui":"○","kazan":"○"}}
,{"type":"Feature","geometry":{"type":"Point","coordinates":[131.596743,33.24022]},"properties":{"Name":"春日町小学校","Jusho":"大分県大分市西春日町１番４８号","kouzui":"○","gake":"○","takashio":"○","jishin":"○","tsunami":"○","kaji":"○","naisui":"○","kazan":"○"}}
,{"type":"Feature","geometry":{"type":"Point","coordinates":[131.594764,33.236276]},"properties":{"Name":"王子中学校","Jusho":"大分県大分市南春日町６番１号","kouzui":"○","gake":"○","takashio":"○","jishin":"○","tsunami":"○","kaji":"○","naisui":"○","kazan":"○"}}
,{"type":"Feature","geometry":{"type":"Point","coordinates":[131.588048,33.243172]},"properties":{"Name":"生石保育所","Jusho":"大分県大分市王子西町８番１１号","kouzui":"○","gake":"○","takashio":"○","jishin":"○","tsunami":"○","kaji":"○","naisui":"○","kazan":"○"}}
,{"type":"Feature","geometry":{"type":"Point","coordinates":[131.589936,33.237214]},"properties":{"Name":"大分西部公民館","Jusho":"大分県大分市王子新町５番１号","kouzui":"○","gake":"○","takashio":"○","jishin":"○","tsunami":"○","kaji":"○","naisui":"○","kazan":"○"}}
,{"type":"Feature","geometry":{"type":"Point","coordinates":[131.600118,33.23318]},"properties":{"Name":"大道小学校","Jusho":"大分県大分市大道町２丁目９番５７号","kouzui":"○","gake":"○","takashio":"○","jishin":"○","tsunami":"○","kaji":"○","naisui":"○","kazan":"○"}}
,{"type":"Feature","geometry":{"type":"Point","coordinates":[131.601555,33.228361]},"properties":{"Name":"県立聾学校","Jusho":"大分県大分市東大道２丁目５番１２号","kouzui":"○","gake":"○","takashio":"○","jishin":"○","tsunami":"○","kaji":"○","naisui":"○","kazan":"○"}}
,{"type":"Feature","geometry":{"type":"Point","coordinates":[131.584797,33.228329]},"properties":{"Name":"西の台小学校","Jusho":"大分県大分市にじが丘３丁目１７１７番地の１","kouzui":"○","gake":"○","takashio":"○","jishin":"○","tsunami":"○","kaji":"○","naisui":"○","kazan":"○"}}
,{"type":"Feature","geometry":{"type":"Point","coordinates":[131.578628,33.235506]},"properties":{"Name":"大分西中学校","Jusho":"大分県大分市高崎２丁目２０番１号","kouzui":"○","gake":"○","takashio":"○","jishin":"○","tsunami":"○","kaji":"○","naisui":"○","kazan":"○"}}
,{"type":"Feature","geometry":{"type":"Point","coordinates":[131.589877,33.232834]},"properties":{"Name":"大分西高等学校","Jusho":"大分県大分市新春日町２丁目１番１号","kouzui":"○","gake":"○","takashio":"○","jishin":"○","tsunami":"○","kaji":"○","naisui":"○","kazan":"○"}}
,{"type":"Feature","geometry":{"type":"Point","coordinates":[131.575763,33.242598]},"properties":{"Name":"八幡小学校","Jusho":"大分県大分市大字生石８２番地の１","kouzui":"○","gake":"○","takashio":"○","jishin":"○","tsunami":"○","kaji":"○","naisui":"○","kazan":"○"}}
,{"type":"Feature","geometry":{"type":"Point","coordinates":[131.545132,33.254414]},"properties":{"Name":"神崎小学校","Jusho":"大分県大分市大字神崎１７９８番地","kouzui":"○","gake":"○","takashio":"○","jishin":"○","tsunami":"○","kaji":"○","naisui":"○","kazan":"○"}}
,{"type":"Feature","geometry":{"type":"Point","coordinates":[131.6039415,33.21690101]},"properties":{"Name":"豊府小学校","Jusho":"大分県大分市大字羽屋１３番地の１","kouzui":"○","gake":"○","takashio":"○","jishin":"○","tsunami":"○","kaji":"○","naisui":"○","kazan":"○"}}
,{"type":"Feature","geometry":{"type":"Point","coordinates":[131.593925302092,33.2144398320637]},"properties":{"Name":"南大分小学校","Jusho":"大分県大分市二又町2丁目4番1号","kouzui":"○","gake":"○","takashio":"○","jishin":"○","tsunami":"○","kaji":"○","naisui":"○","kazan":"○"}}
,{"type":"Feature","geometry":{"type":"Point","coordinates":[131.5926766,33.20746697]},"properties":{"Name":"南大分公民館","Jusho":"大分県大分市豊饒3丁目9番26号","kouzui":"×","gake":"×","takashio":"○","jishin":"○","tsunami":"○","kaji":"○","naisui":"○","kazan":"○"}}
,{"type":"Feature","geometry":{"type":"Point","coordinates":[131.600748,33.20892076]},"properties":{"Name":"南大分体育館","Jusho":"大分県大分市豊饒1丁目1番1号","kouzui":"×","gake":"×","takashio":"○","jishin":"○","tsunami":"○","kaji":"○","naisui":"○","kazan":"○"}}
,{"type":"Feature","geometry":{"type":"Point","coordinates":[131.586701,33.215625]},"properties":{"Name":"城南小学校","Jusho":"大分県大分市永興2丁目5番25号","kouzui":"○","gake":"○","takashio":"○","jishin":"○","tsunami":"○","kaji":"○","naisui":"○","kazan":"○"}}
,{"type":"Feature","geometry":{"type":"Point","coordinates":[131.579518,33.213087]},"properties":{"Name":"城南中学校","Jusho":"大分県大分市大字荏隈７５４番地の１９","kouzui":"○","gake":"○","takashio":"○","jishin":"○","tsunami":"○","kaji":"○","naisui":"○","kazan":"○"}}
,{"type":"Feature","geometry":{"type":"Point","coordinates":[131.6327384,33.21395335]},"properties":{"Name":"滝尾小学校","Jusho":"大分県大分市大字羽田５１５番地の１","kouzui":"○","gake":"○","takashio":"○","jishin":"○","tsunami":"○","kaji":"○","naisui":"○","kazan":"○"}}
,{"type":"Feature","geometry":{"type":"Point","coordinates":[131.6286361,33.21678577]},"properties":{"Name":"滝尾校区公民館","Jusho":"大分県大分市大字羽田５８９番地の１","kouzui":"×","gake":"×","takashio":"○","jishin":"○","tsunami":"○","kaji":"○","naisui":"○","kazan":"○"}}
,{"type":"Feature","geometry":{"type":"Point","coordinates":[131.634091,33.228899]},"properties":{"Name":"下郡小学校","Jusho":"大分県大分市下郡北３丁目１７番２３号","kouzui":"○","gake":"○","takashio":"○","jishin":"○","tsunami":"○","kaji":"○","naisui":"○","kazan":"○"}}
,{"type":"Feature","geometry":{"type":"Point","coordinates":[131.6146438,33.20534803]},"properties":{"Name":"森岡小学校","Jusho":"大分県大分市大字曲１０４１番地の２","kouzui":"○","gake":"○","takashio":"○","jishin":"○","tsunami":"○","kaji":"○","naisui":"○","kazan":"○"}}
,{"type":"Feature","geometry":{"type":"Point","coordinates":[131.61215,33.202093]},"properties":{"Name":"大分南部公民館","Jusho":"大分県大分市大字曲１１１３番地","kouzui":"○","gake":"○","takashio":"○","jishin":"○","tsunami":"○","kaji":"○","naisui":"○","kazan":"○"}}
,{"type":"Feature","geometry":{"type":"Point","coordinates":[131.619698,33.210912]},"properties":{"Name":"森岡校区公民館","Jusho":"大分県大分市大字津守３０７番地","kouzui":"○","gake":"○","takashio":"○","jishin":"○","tsunami":"○","kaji":"○","naisui":"○","kazan":"○"}}
,{"type":"Feature","geometry":{"type":"Point","coordinates":[131.630223,33.24074]},"properties":{"Name":"津留小学校","Jusho":"大分県大分市東津留１丁目４番１号","kouzui":"○","gake":"○","takashio":"○","jishin":"○","tsunami":"×","kaji":"○","naisui":"○","kazan":"○"}}
,{"type":"Feature","geometry":{"type":"Point","coordinates":[131.626403,33.246896]},"properties":{"Name":"舞鶴小学校","Jusho":"大分県大分市西浜２番１号","kouzui":"○","gake":"○","takashio":"○","jishin":"○","tsunami":"×","kaji":"○","naisui":"○","kazan":"○"}}
,{"type":"Feature","geometry":{"type":"Point","coordinates":[131.640093,33.243984]},"properties":{"Name":"東大分小学校","Jusho":"大分県大分市萩原１丁目１０番３０号","kouzui":"○","gake":"○","takashio":"○","jishin":"○","tsunami":"×","kaji":"○","naisui":"○","kazan":"○"}}
,{"type":"Feature","geometry":{"type":"Point","coordinates":[131.644921,33.238829]},"properties":{"Name":"城東中学校","Jusho":"大分県大分市牧上町１４番１９号","kouzui":"○","gake":"○","takashio":"○","jishin":"○","tsunami":"○","kaji":"○","naisui":"○","kazan":"○"}}
,{"type":"Feature","geometry":{"type":"Point","coordinates":[131.658998,33.24965]},"properties":{"Name":"日岡小学校","Jusho":"大分県大分市日岡２丁目２番１号","kouzui":"○","gake":"○","takashio":"○","jishin":"○","tsunami":"○","kaji":"○","naisui":"○","kazan":"○"}}
,{"type":"Feature","geometry":{"type":"Point","coordinates":[131.650457,33.245532]},"properties":{"Name":"大分東部公民館","Jusho":"大分県大分市日吉町３番１号","kouzui":"○","gake":"○","takashio":"○","jishin":"○","tsunami":"○","kaji":"○","naisui":"○","kazan":"○"}}
,{"type":"Feature","geometry":{"type":"Point","coordinates":[131.669152,33.241907]},"properties":{"Name":"桃園小学校","Jusho":"大分県大分市山津町２丁目７番１号","kouzui":"○","gake":"○","takashio":"○","jishin":"○","tsunami":"○","kaji":"○","naisui":"○","kazan":"○"}}
,{"type":"Feature","geometry":{"type":"Point","coordinates":[131.664035,33.247196]},"properties":{"Name":"原川中学校","Jusho":"大分県大分市寺崎町１丁目１０番１号","kouzui":"○","gake":"○","takashio":"○","jishin":"○","tsunami":"×","kaji":"○","naisui":"○","kazan":"○"}}
,{"type":"Feature","geometry":{"type":"Point","coordinates":[131.657356,33.21847]},"properties":{"Name":"明野東小学校","Jusho":"大分県大分市明野東３丁目２番１号","kouzui":"○","gake":"○","takashio":"○","jishin":"○","tsunami":"○","kaji":"○","naisui":"○","kazan":"○"}}
,{"type":"Feature","geometry":{"type":"Point","coordinates":[131.646686,33.221993]},"properties":{"Name":"明野西小学校","Jusho":"大分県大分市明野南２丁目６番１号","kouzui":"○","gake":"○","takashio":"○","jishin":"○","tsunami":"○","kaji":"○","naisui":"○","kazan":"○"}}
,{"type":"Feature","geometry":{"type":"Point","coordinates":[131.65543,33.230438]},"properties":{"Name":"明野北小学校","Jusho":"大分県大分市明野北４丁目１０番１号","kouzui":"○","gake":"○","takashio":"○","jishin":"○","tsunami":"○","kaji":"○","naisui":"○","kazan":"○"}}
,{"type":"Feature","geometry":{"type":"Point","coordinates":[131.650935,33.21837486]},"properties":{"Name":"明野中学校","Jusho":"大分県大分市明野南３丁目７番１号","kouzui":"○","gake":"○","takashio":"○","jishin":"○","tsunami":"○","kaji":"○","naisui":"○","kazan":"○"}}
,{"type":"Feature","geometry":{"type":"Point","coordinates":[131.6584461,33.22864845]},"properties":{"Name":"明治明野公民館","Jusho":"大分県大分市明野北４丁目７番８号","kouzui":"○","gake":"○","takashio":"○","jishin":"○","tsunami":"○","kaji":"○","naisui":"○","kazan":"○"}}
,{"type":"Feature","geometry":{"type":"Point","coordinates":[131.691678,33.239338]},"properties":{"Name":"鶴崎小学校","Jusho":"大分県大分市南鶴崎３丁目３番１号","kouzui":"○","gake":"○","takashio":"○","jishin":"○","tsunami":"○","kaji":"○","naisui":"○","kazan":"○"}}
,{"type":"Feature","geometry":{"type":"Point","coordinates":[131.6955492,33.24125898]},"properties":{"Name":"鶴崎公民館","Jusho":"大分県大分市東鶴崎１丁目１番７号","kouzui":"○","gake":"○","takashio":"○","jishin":"○","tsunami":"○","kaji":"○","naisui":"○","kazan":"○"}}
,{"type":"Feature","geometry":{"type":"Point","coordinates":[131.696686,33.24725224]},"properties":{"Name":"小中島公民館","Jusho":"大分県大分市小中島３丁目１番３７号","kouzui":"×","gake":"×","takashio":"○","jishin":"○","tsunami":"○","kaji":"○","naisui":"○","kazan":"○"}}
,{"type":"Feature","geometry":{"type":"Point","coordinates":[131.680294,33.252887]},"properties":{"Name":"三佐小学校","Jusho":"大分県大分市三佐５丁目６番８号","kouzui":"○","gake":"○","takashio":"○","jishin":"○","tsunami":"×","kaji":"○","naisui":"○","kazan":"○"}}
,{"type":"Feature","geometry":{"type":"Point","coordinates":[131.685549,33.227488]},"properties":{"Name":"別保小学校","Jusho":"大分県大分市大字森町９６３番地の１","kouzui":"○","gake":"○","takashio":"○","jishin":"○","tsunami":"○","kaji":"○","naisui":"○","kazan":"○"}}
,{"type":"Feature","geometry":{"type":"Point","coordinates":[131.686772,33.236722]},"properties":{"Name":"鶴崎中学校","Jusho":"大分県大分市大字皆春１２００番地の１","kouzui":"○","gake":"○","takashio":"○","jishin":"○","tsunami":"○","kaji":"○","naisui":"○","kazan":"○"}}
,{"type":"Feature","geometry":{"type":"Point","coordinates":[131.676939,33.224602]},"properties":{"Name":"学校法人上東学園 も り ま ち 幼 稚 園","Jusho":"大分県大分市大字森町４０３番地の２","kouzui":"○","gake":"○","takashio":"○","jishin":"○","tsunami":"○","kaji":"○","naisui":"○","kazan":"○"}}
,{"type":"Feature","geometry":{"type":"Point","coordinates":[131.66569,33.218472]},"properties":{"Name":"明治小学校","Jusho":"大分県大分市大字猪野７４番地","kouzui":"○","gake":"○","takashio":"○","jishin":"○","tsunami":"○","kaji":"○","naisui":"○","kazan":"○"}}
,{"type":"Feature","geometry":{"type":"Point","coordinates":[131.675142,33.209869]},"properties":{"Name":"大東中学校","Jusho":"大分県大分市横尾東町1丁目23番1号","kouzui":"○","gake":"○","takashio":"○","jishin":"○","tsunami":"○","kaji":"○","naisui":"○","kazan":"○"}}
,{"type":"Feature","geometry":{"type":"Point","coordinates":[131.668023,33.233572]},"properties":{"Name":"明治北小学校","Jusho":"大分県大分市大字小池原４２８番地の１","kouzui":"○","gake":"○","takashio":"○","jishin":"○","tsunami":"○","kaji":"○","naisui":"○","kazan":"○"}}
,{"type":"Feature","geometry":{"type":"Point","coordinates":[131.68987,33.211011]},"properties":{"Name":"高田小学校","Jusho":"大分県大分市大字下徳丸３８番地の２","kouzui":"○","gake":"○","takashio":"○","jishin":"○","tsunami":"○","kaji":"○","naisui":"○","kazan":"○"}}
,{"type":"Feature","geometry":{"type":"Point","coordinates":[131.667632,33.181067]},"properties":{"Name":"松岡小学校","Jusho":"大分県大分市大字松岡５０４７番地","kouzui":"○","gake":"○","takashio":"○","jishin":"○","tsunami":"○","kaji":"○","naisui":"○","kazan":"○"}}
,{"type":"Feature","geometry":{"type":"Point","coordinates":[131.697651,33.202081]},"properties":{"Name":"川添小学校","Jusho":"大分県大分市大字宮河内４５６６番地","kouzui":"○","gake":"○","takashio":"○","jishin":"○","tsunami":"○","kaji":"○","naisui":"○","kazan":"○"}}
,{"type":"Feature","geometry":{"type":"Point","coordinates":[131.6998864,33.19019501]},"properties":{"Name":"宮河内ハイランド公民館","Jusho":"大分県大分市大字宮河内３７６９番地の１９２","kouzui":"○","gake":"○","takashio":"○","jishin":"○","tsunami":"○","kaji":"○","naisui":"○","kazan":"○"}}
,{"type":"Feature","geometry":{"type":"Point","coordinates":[131.700993,33.222327]},"properties":{"Name":"陽光台公民館","Jusho":"大分県大分市大字迫９番地の４４","kouzui":"×","gake":"×","takashio":"○","jishin":"○","tsunami":"○","kaji":"○","naisui":"○","kazan":"○"}}
,{"type":"Feature","geometry":{"type":"Point","coordinates":[131.652777,33.112447]},"properties":{"Name":"上戸次小学校","Jusho":"大分県大分市大字端登１７９２番地","kouzui":"×","gake":"×","takashio":"○","jishin":"○","tsunami":"○","kaji":"○","naisui":"○","kazan":"○"}}
,{"type":"Feature","geometry":{"type":"Point","coordinates":[131.655454,33.119833]},"properties":{"Name":"大塔公民館","Jusho":"大分県大分市大字上戸次３４７８番地","kouzui":"○","gake":"○","takashio":"○","jishin":"○","tsunami":"○","kaji":"○","naisui":"○","kazan":"○"}}
,{"type":"Feature","geometry":{"type":"Point","coordinates":[131.65899,33.15679]},"properties":{"Name":"大南公民館","Jusho":"大分県大分市大字中戸次４４９１番地の２","kouzui":"○","gake":"○","takashio":"○","jishin":"○","tsunami":"○","kaji":"○","naisui":"○","kazan":"○"}}
,{"type":"Feature","geometry":{"type":"Point","coordinates":[131.636864,33.164281]},"properties":{"Name":"判田小学校","Jusho":"大分県大分市判田台東１丁目２番１号","kouzui":"○","gake":"○","takashio":"○","jishin":"○","tsunami":"○","kaji":"○","naisui":"○","kazan":"○"}}
,{"type":"Feature","geometry":{"type":"Point","coordinates":[131.6336765,33.16614769]},"properties":{"Name":"判田中学校","Jusho":"大分県大分市判田台北１丁目１番１号","kouzui":"○","gake":"○","takashio":"○","jishin":"○","tsunami":"○","kaji":"○","naisui":"○","kazan":"○"}}
,{"type":"Feature","geometry":{"type":"Point","coordinates":[131.6207632,33.16046948]},"properties":{"Name":"判田米良公民館","Jusho":"大分県大分市大字上判田３７６６番地の２","kouzui":"○","gake":"○","takashio":"○","jishin":"○","tsunami":"○","kaji":"○","naisui":"○","kazan":"○"}}
,{"type":"Feature","geometry":{"type":"Point","coordinates":[131.630407,33.15905595]},"properties":{"Name":"大分南高等学校","Jusho":"大分県大分市判田台南1丁目1番1号","kouzui":"○","gake":"○","takashio":"○","jishin":"○","tsunami":"○","kaji":"○","naisui":"○","kazan":"○"}}
,{"type":"Feature","geometry":{"type":"Point","coordinates":[131.639459760436,33.1717486748923]},"properties":{"Name":"ひばりヶ丘公民館","Jusho":"大分県大分市ひばりヶ丘2丁目6番1号","kouzui":"○","gake":"○","takashio":"○","jishin":"○","tsunami":"○","kaji":"○","naisui":"○","kazan":"○"}}
,{"type":"Feature","geometry":{"type":"Point","coordinates":[131.653453,33.13973]},"properties":{"Name":"竹中小学校","Jusho":"大分県大分市大字竹中２８２１番地の１","kouzui":"○","gake":"○","takashio":"○","jishin":"○","tsunami":"○","kaji":"○","naisui":"○","kazan":"○"}}
,{"type":"Feature","geometry":{"type":"Point","coordinates":[131.650154,33.133715]},"properties":{"Name":"竹中中学校","Jusho":"大分県大分市大字竹中３６２１番地","kouzui":"○","gake":"○","takashio":"○","jishin":"○","tsunami":"○","kaji":"○","naisui":"○","kazan":"○"}}
,{"type":"Feature","geometry":{"type":"Point","coordinates":[131.693496,33.113954]},"properties":{"Name":"吉野小学校","Jusho":"大分県大分市大字辻６５４番地","kouzui":"○","gake":"○","takashio":"○","jishin":"○","tsunami":"○","kaji":"○","naisui":"○","kazan":"○"}}
,{"type":"Feature","geometry":{"type":"Point","coordinates":[131.693856,33.111137]},"properties":{"Name":"吉野中学校","Jusho":"大分県大分市大字辻８１２番地","kouzui":"○","gake":"○","takashio":"○","jishin":"○","tsunami":"○","kaji":"○","naisui":"○","kazan":"○"}}
,{"type":"Feature","geometry":{"type":"Point","coordinates":[131.563688,33.183624]},"properties":{"Name":"稙田小学校","Jusho":"大分県大分市大字木ノ上４３３番地の１","kouzui":"○","gake":"○","takashio":"○","jishin":"○","tsunami":"○","kaji":"○","naisui":"○","kazan":"○"}}
,{"type":"Feature","geometry":{"type":"Point","coordinates":[131.577491,33.188177]},"properties":{"Name":"稙田公民館","Jusho":"大分県大分市大字玉沢７８９番地","kouzui":"○","gake":"○","takashio":"○","jishin":"○","tsunami":"○","kaji":"○","naisui":"○","kazan":"○"}}
,{"type":"Feature","geometry":{"type":"Point","coordinates":[131.559842,33.190592]},"properties":{"Name":"稙田西中学校","Jusho":"大分県大分市大字田原３７８番地","kouzui":"○","gake":"○","takashio":"○","jishin":"○","tsunami":"○","kaji":"○","naisui":"○","kazan":"○"}}
,{"type":"Feature","geometry":{"type":"Point","coordinates":[131.576825,33.205576]},"properties":{"Name":"宗方小学校","Jusho":"大分県大分市松ヶ丘1丁目24番1号","kouzui":"○","gake":"○","takashio":"○","jishin":"○","tsunami":"○","kaji":"○","naisui":"○","kazan":"○"}}
,{"type":"Feature","geometry":{"type":"Point","coordinates":[131.589046,33.199031]},"properties":{"Name":"下宗方公民館","Jusho":"大分県大分市大字下宗方１２９５番地の１","kouzui":"×","gake":"×","takashio":"○","jishin":"○","tsunami":"○","kaji":"○","naisui":"○","kazan":"○"}}
,{"type":"Feature","geometry":{"type":"Point","coordinates":[131.541587,33.185918]},"properties":{"Name":"横瀬小学校","Jusho":"大分県大分市大字横瀬１１０９番地の１","kouzui":"○","gake":"○","takashio":"○","jishin":"○","tsunami":"○","kaji":"○","naisui":"○","kazan":"○"}}
,{"type":"Feature","geometry":{"type":"Point","coordinates":[131.532086,33.190394]},"properties":{"Name":"横瀬西小学校","Jusho":"大分県大分市大字横瀬２４６９番地","kouzui":"○","gake":"○","takashio":"○","jishin":"○","tsunami":"○","kaji":"○","naisui":"○","kazan":"○"}}
,{"type":"Feature","geometry":{"type":"Point","coordinates":[131.596513,33.187665]},"properties":{"Name":"東稙田小学校","Jusho":"大分県大分市大字田尻４９９番地の１","kouzui":"○","gake":"○","takashio":"○","jishin":"○","tsunami":"○","kaji":"○","naisui":"○","kazan":"○"}}
,{"type":"Feature","geometry":{"type":"Point","coordinates":[131.590231,33.178295]},"properties":{"Name":"田尻小学校","Jusho":"大分県大分市大字田尻１２５０番地","kouzui":"○","gake":"○","takashio":"○","jishin":"○","tsunami":"○","kaji":"○","naisui":"○","kazan":"○"}}
,{"type":"Feature","geometry":{"type":"Point","coordinates":[131.604635,33.184136]},"properties":{"Name":"寒田小学校","Jusho":"大分県大分市大字寒田６８４番地の４","kouzui":"○","gake":"○","takashio":"○","jishin":"○","tsunami":"○","kaji":"○","naisui":"○","kazan":"○"}}
,{"type":"Feature","geometry":{"type":"Point","coordinates":[131.611871,33.179979]},"properties":{"Name":"稙田東中学校","Jusho":"大分県大分市大字寒田１３６９番地の１","kouzui":"○","gake":"○","takashio":"○","jishin":"○","tsunami":"○","kaji":"○","naisui":"○","kazan":"○"}}
,{"type":"Feature","geometry":{"type":"Point","coordinates":[131.622364,33.190915]},"properties":{"Name":"敷戸小学校","Jusho":"大分県大分市敷戸北町１２番１号","kouzui":"○","gake":"○","takashio":"○","jishin":"○","tsunami":"○","kaji":"○","naisui":"○","kazan":"○"}}
,{"type":"Feature","geometry":{"type":"Point","coordinates":[131.618743,33.183948]},"properties":{"Name":"鴛野小学校","Jusho":"大分県大分市大字鴛野１０８番地の１","kouzui":"○","gake":"○","takashio":"○","jishin":"○","tsunami":"○","kaji":"○","naisui":"○","kazan":"○"}}
,{"type":"Feature","geometry":{"type":"Point","coordinates":[131.559879,33.20655]},"properties":{"Name":"賀来中学校","Jusho":"大分県大分市大字賀来１０１番地の３","kouzui":"○","gake":"○","takashio":"○","jishin":"○","tsunami":"○","kaji":"○","naisui":"○","kazan":"○"}}
,{"type":"Feature","geometry":{"type":"Point","coordinates":[131.558136,33.204198]},"properties":{"Name":"賀来公民館","Jusho":"大分県大分市大字中尾４９５番地の１","kouzui":"×","gake":"×","takashio":"○","jishin":"○","tsunami":"○","kaji":"○","naisui":"○","kazan":"○"}}
,{"type":"Feature","geometry":{"type":"Point","coordinates":[131.70812,33.247474]},"properties":{"Name":"大在西小学校","Jusho":"大分県大分市角子原１丁目４番４１号","kouzui":"○","gake":"○","takashio":"○","jishin":"○","tsunami":"○","kaji":"○","naisui":"○","kazan":"○"}}
,{"type":"Feature","geometry":{"type":"Point","coordinates":[131.719578,33.248385]},"properties":{"Name":"大在小学校","Jusho":"大分県大分市横田１丁目１５番５８号","kouzui":"○","gake":"○","takashio":"○","jishin":"○","tsunami":"○","kaji":"○","naisui":"○","kazan":"○"}}
,{"type":"Feature","geometry":{"type":"Point","coordinates":[131.721874,33.234625]},"properties":{"Name":"大在中学校","Jusho":"大分県大分市大字政所２６０２番地の１２","kouzui":"○","gake":"○","takashio":"○","jishin":"○","tsunami":"○","kaji":"○","naisui":"○","kazan":"○"}}
,{"type":"Feature","geometry":{"type":"Point","coordinates":[131.723832,33.246694]},"properties":{"Name":"大在公民館","Jusho":"大分県大分市政所１丁目４番１８号","kouzui":"○","gake":"○","takashio":"○","jishin":"○","tsunami":"○","kaji":"○","naisui":"○","kazan":"○"}}
,{"type":"Feature","geometry":{"type":"Point","coordinates":[131.732243,33.242037]},"properties":{"Name":"大在浜公民館","Jusho":"大分県大分市大在浜２丁目９番１１号","kouzui":"○","gake":"○","takashio":"○","jishin":"○","tsunami":"○","kaji":"○","naisui":"○","kazan":"○"}}
,{"type":"Feature","geometry":{"type":"Point","coordinates":[131.757038,33.23322]},"properties":{"Name":"坂ノ市小学校","Jusho":"大分県大分市坂ノ市中央5丁目8番1号","kouzui":"○","gake":"○","takashio":"○","jishin":"○","tsunami":"○","kaji":"○","naisui":"○","kazan":"○"}}
,{"type":"Feature","geometry":{"type":"Point","coordinates":[131.75111,33.229164]},"properties":{"Name":"坂ノ市中学校","Jusho":"大分県大分市坂ノ市南2丁目9番72号","kouzui":"○","gake":"○","takashio":"○","jishin":"○","tsunami":"○","kaji":"○","naisui":"○","kazan":"○"}}
,{"type":"Feature","geometry":{"type":"Point","coordinates":[131.7473631,33.22828708]},"properties":{"Name":"坂ノ市公民館","Jusho":"大分県大分市坂ノ市西１丁目１０番６号","kouzui":"○","gake":"○","takashio":"○","jishin":"○","tsunami":"○","kaji":"○","naisui":"○","kazan":"○"}}
,{"type":"Feature","geometry":{"type":"Point","coordinates":[131.7747688,33.24155425]},"properties":{"Name":"細公民館","Jusho":"大分県大分市大字細８８番地の１","kouzui":"○","gake":"○","takashio":"○","jishin":"×","tsunami":"×","kaji":"○","naisui":"○","kazan":"○"}}
,{"type":"Feature","geometry":{"type":"Point","coordinates":[131.744061,33.220023]},"properties":{"Name":"大分東高等学校","Jusho":"大分県大分市大字屋山２００９番地","kouzui":"○","gake":"○","takashio":"○","jishin":"○","tsunami":"○","kaji":"○","naisui":"○","kazan":"○"}}
,{"type":"Feature","geometry":{"type":"Point","coordinates":[131.742113436474,33.2349316418359]},"properties":{"Name":"和光こども園","Jusho":"大分県大分市里２丁目１番２３号","kouzui":"○","gake":"○","takashio":"○","jishin":"○","tsunami":"○","kaji":"○","naisui":"○","kazan":"○"}}
,{"type":"Feature","geometry":{"type":"Point","coordinates":[131.722968,33.214911]},"properties":{"Name":"丹生小学校","Jusho":"大分県大分市大字佐野２６６０番地の２","kouzui":"○","gake":"○","takashio":"○","jishin":"○","tsunami":"○","kaji":"○","naisui":"○","kazan":"○"}}
,{"type":"Feature","geometry":{"type":"Point","coordinates":[131.731396,33.214391]},"properties":{"Name":"久土公民館","Jusho":"大分県大分市大字久土９７５番地の１","kouzui":"○","gake":"○","takashio":"○","jishin":"○","tsunami":"○","kaji":"○","naisui":"○","kazan":"○"}}
,{"type":"Feature","geometry":{"type":"Point","coordinates":[131.706811,33.20238068]},"properties":{"Name":"延命寺公民館","Jusho":"大分県大分市大字丹川２４４０番地","kouzui":"○","gake":"○","takashio":"○","jishin":"○","tsunami":"○","kaji":"○","naisui":"○","kazan":"○"}}
,{"type":"Feature","geometry":{"type":"Point","coordinates":[131.798751,33.239466]},"properties":{"Name":"こうざき小学校","Jusho":"大分県大分市大字本神崎９４５番地の2","kouzui":"○","gake":"○","takashio":"○","jishin":"○","tsunami":"○","kaji":"○","naisui":"○","kazan":"○"}}
,{"type":"Feature","geometry":{"type":"Point","coordinates":[131.7969069,33.21739492]},"properties":{"Name":"（旧）木佐上小学校","Jusho":"大分県大分市大字木佐上８１７番地","kouzui":"○","gake":"○","takashio":"○","jishin":"○","tsunami":"○","kaji":"○","naisui":"○","kazan":"○"}}
,{"type":"Feature","geometry":{"type":"Point","coordinates":[131.835375,33.24555191]},"properties":{"Name":"（旧）大志生木小学校","Jusho":"大分県大分市大字志生木２０７番地の１","kouzui":"○","gake":"○","takashio":"○","jishin":"○","tsunami":"×","kaji":"○","naisui":"○","kazan":"○"}}
,{"type":"Feature","geometry":{"type":"Point","coordinates":[131.862829,33.249323]},"properties":{"Name":"佐賀関中学校","Jusho":"大分県大分市大字佐賀関２の１１５番地の２","kouzui":"○","gake":"○","takashio":"○","jishin":"○","tsunami":"○","kaji":"○","naisui":"○","kazan":"○"}}
,{"type":"Feature","geometry":{"type":"Point","coordinates":[131.874245,33.24594]},"properties":{"Name":"佐賀関小学校","Jusho":"大分県大分市大字佐賀関１１０４番地","kouzui":"○","gake":"○","takashio":"○","jishin":"○","tsunami":"○","kaji":"○","naisui":"○","kazan":"○"}}
,{"type":"Feature","geometry":{"type":"Point","coordinates":[131.8729872,33.24913357]},"properties":{"Name":"佐賀関公民館","Jusho":"大分県大分市大字佐賀関１４０７番地の２７ （佐賀関市民センター内）","kouzui":"○","gake":"○","takashio":"○","jishin":"○","tsunami":"×","kaji":"○","naisui":"○","kazan":"○"}}
,{"type":"Feature","geometry":{"type":"Point","coordinates":[131.8993613,33.26566046]},"properties":{"Name":"関崎海星館","Jusho":"大分県大分市大字佐賀関４０５７番地の４１９","kouzui":"○","gake":"○","takashio":"○","jishin":"○","tsunami":"○","kaji":"○","naisui":"○","kazan":"○"}}
,{"type":"Feature","geometry":{"type":"Point","coordinates":[131.8580953,33.20083319]},"properties":{"Name":"一尺屋小学校","Jusho":"大分県大分市大字一尺屋２３６８番地の１","kouzui":"○","gake":"○","takashio":"○","jishin":"○","tsunami":"○","kaji":"○","naisui":"○","kazan":"○"}}
,{"type":"Feature","geometry":{"type":"Point","coordinates":[131.530037,33.165017]},"properties":{"Name":"野津原小学校","Jusho":"大分県大分市大字野津原１７７４番地の１","kouzui":"○","gake":"○","takashio":"○","jishin":"○","tsunami":"○","kaji":"○","naisui":"○","kazan":"○"}}
,{"type":"Feature","geometry":{"type":"Point","coordinates":[131.5245083,33.15932277]},"properties":{"Name":"野津原公民館","Jusho":"大分県大分市大字野津原２８８５番地","kouzui":"○","gake":"○","takashio":"○","jishin":"○","tsunami":"○","kaji":"○","naisui":"○","kazan":"○"}}
,{"type":"Feature","geometry":{"type":"Point","coordinates":[131.52309,33.15498]},"properties":{"Name":"野津原中学校","Jusho":"大分県大分市大字野津原２９７８番地の１３","kouzui":"○","gake":"○","takashio":"○","jishin":"○","tsunami":"○","kaji":"○","naisui":"○","kazan":"○"}}
,{"type":"Feature","geometry":{"type":"Point","coordinates":[131.50999,33.146321]},"properties":{"Name":"（旧）野津原中部小学校","Jusho":"大分県大分市大字竹矢２１０８番地の１","kouzui":"○","gake":"○","takashio":"○","jishin":"○","tsunami":"○","kaji":"○","naisui":"○","kazan":"○"}}
,{"type":"Feature","geometry":{"type":"Point","coordinates":[131.4779608,33.12262525]},"properties":{"Name":"（旧）野津原西部小学校","Jusho":"大分県大分市大字上詰７０４番地の１","kouzui":"○","gake":"○","takashio":"○","jishin":"○","tsunami":"○","kaji":"○","naisui":"○","kazan":"○"}}
,{"type":"Feature","geometry":{"type":"Point","coordinates":[131.4504885,33.10770315]},"properties":{"Name":"今市健康増進センター","Jusho":"大分県大分市大字今市１０９９番地の２６","kouzui":"○","gake":"○","takashio":"○","jishin":"○","tsunami":"○","kaji":"○","naisui":"○","kazan":"○"}}
,{"type":"Feature","geometry":{"type":"Point","coordinates":[131.516495598411,33.2646614771278]},"properties":{"Name":"両郡橋公民館集会室","Jusho":"大分県別府市両郡橋10組","kouzui":"○","gake":"○","takashio":"○","jishin":"○","tsunami":"○","kaji":"×","naisui":"○","kazan":"○"}}
,{"type":"Feature","geometry":{"type":"Point","coordinates":[131.500664,33.269437]},"properties":{"Name":"朝見一丁目２区公民館集会室、和室","Jusho":"大分県別府市朝見1-7-36","kouzui":"○","gake":"×","takashio":"○","jishin":"○","tsunami":"×","kaji":"×","naisui":"○","kazan":"○"}}
,{"type":"Feature","geometry":{"type":"Point","coordinates":[131.506757,33.261753]},"properties":{"Name":"鳥越公民館集会室","Jusho":"大分県別府市鳥越3組","kouzui":"○","gake":"×","takashio":"○","jishin":"○","tsunami":"○","kaji":"×","naisui":"○","kazan":"○"}}
,{"type":"Feature","geometry":{"type":"Point","coordinates":[131.512283,33.254704]},"properties":{"Name":"赤松公民館集会室、和室","Jusho":"大分県別府市赤松1組","kouzui":"○","gake":"○","takashio":"○","jishin":"×","tsunami":"○","kaji":"×","naisui":"○","kazan":"○"}}
,{"type":"Feature","geometry":{"type":"Point","coordinates":[131.493408,33.258113]},"properties":{"Name":"柳公民館集会室","Jusho":"大分県別府市大字浜脇字隠山2302-3","kouzui":"○","gake":"×","takashio":"○","jishin":"○","tsunami":"○","kaji":"×","naisui":"○","kazan":"○"}}
,{"type":"Feature","geometry":{"type":"Point","coordinates":[131.499996,33.245968]},"properties":{"Name":"古賀原公民館集会室、和室","Jusho":"大分県別府市古賀原2組","kouzui":"○","gake":"○","takashio":"○","jishin":"○","tsunami":"○","kaji":"×","naisui":"○","kazan":"○"}}
,{"type":"Feature","geometry":{"type":"Point","coordinates":[131.486582,33.233963]},"properties":{"Name":"内成公民館大広間、集会室","Jusho":"大分県別府市内成舟子川1237-1","kouzui":"○","gake":"○","takashio":"○","jishin":"○","tsunami":"○","kaji":"×","naisui":"○","kazan":"○"}}
,{"type":"Feature","geometry":{"type":"Point","coordinates":[131.5041647705,33.266005067116]},"properties":{"Name":"河内公民館集会室","Jusho":"大分県別府市河内3組","kouzui":"○","gake":"○","takashio":"○","jishin":"○","tsunami":"○","kaji":"×","naisui":"○","kazan":"○"}}
,{"type":"Feature","geometry":{"type":"Point","coordinates":[131.510218,33.270036]},"properties":{"Name":"浜脇公園","Jusho":"大分県別府市浜脇1-6","kouzui":"×","gake":"○","takashio":"×","jishin":"○","tsunami":"×","kaji":"×","naisui":"×","kazan":"○"}}
,{"type":"Feature","geometry":{"type":"Point","coordinates":[131.501513,33.272044]},"properties":{"Name":"中央保育所屋内遊戯室","Jusho":"大分県別府市立田町4-30","kouzui":"○","gake":"○","takashio":"○","jishin":"○","tsunami":"×","kaji":"×","naisui":"○","kazan":"○"}}
,{"type":"Feature","geometry":{"type":"Point","coordinates":[131.508174,33.273085]},"properties":{"Name":"仲良公園","Jusho":"大分県別府市浜町10","kouzui":"×","gake":"○","takashio":"×","jishin":"○","tsunami":"×","kaji":"×","naisui":"×","kazan":"○"}}
,{"type":"Feature","geometry":{"type":"Point","coordinates":[131.505918,33.272413]},"properties":{"Name":"松原公園","Jusho":"大分県別府市松原町8","kouzui":"×","gake":"○","takashio":"○","jishin":"○","tsunami":"×","kaji":"×","naisui":"×","kazan":"○"}}
,{"type":"Feature","geometry":{"type":"Point","coordinates":[131.506856,33.278768]},"properties":{"Name":"北浜公園","Jusho":"大分県別府市北浜1-818-386","kouzui":"○","gake":"○","takashio":"×","jishin":"○","tsunami":"×","kaji":"×","naisui":"○","kazan":"○"}}
,{"type":"Feature","geometry":{"type":"Point","coordinates":[131.50357,33.280133]},"properties":{"Name":"海門寺公園","Jusho":"大分県別府市北浜2-2","kouzui":"○","gake":"○","takashio":"○","jishin":"○","tsunami":"×","kaji":"×","naisui":"○","kazan":"○"}}
,{"type":"Feature","geometry":{"type":"Point","coordinates":[131.505462,33.284158]},"properties":{"Name":"的ヶ浜公園","Jusho":"大分県別府市北的ヶ浜町1183-4","kouzui":"○","gake":"○","takashio":"×","jishin":"○","tsunami":"×","kaji":"×","naisui":"○","kazan":"○"}}
,{"type":"Feature","geometry":{"type":"Point","coordinates":[131.501969,33.291304]},"properties":{"Name":"餅ヶ浜公園","Jusho":"大分県別府市若草町4","kouzui":"○","gake":"○","takashio":"○","jishin":"○","tsunami":"×","kaji":"×","naisui":"○","kazan":"○"}}
,{"type":"Feature","geometry":{"type":"Point","coordinates":[131.49994221261,33.298724106447]},"properties":{"Name":"石垣東６・７丁目公民館集会室","Jusho":"大分県別府市石垣東6-1588","kouzui":"○","gake":"○","takashio":"○","jishin":"○","tsunami":"○","kaji":"×","naisui":"○","kazan":"○"}}
,{"type":"Feature","geometry":{"type":"Point","coordinates":[131.497978,33.295121]},"properties":{"Name":"南石垣公園","Jusho":"大分県別府市石垣東4-3","kouzui":"○","gake":"○","takashio":"○","jishin":"○","tsunami":"○","kaji":"×","naisui":"○","kazan":"○"}}
,{"type":"Feature","geometry":{"type":"Point","coordinates":[131.497386,33.303337]},"properties":{"Name":"北石垣公園","Jusho":"大分県別府市石垣東9-3","kouzui":"○","gake":"○","takashio":"○","jishin":"○","tsunami":"○","kaji":"×","naisui":"○","kazan":"○"}}
,{"type":"Feature","geometry":{"type":"Point","coordinates":[131.493317885357,33.2944851171418]},"properties":{"Name":"南原児童公園","Jusho":"大分県別府市石垣西4-4","kouzui":"○","gake":"○","takashio":"○","jishin":"○","tsunami":"○","kaji":"×","naisui":"○","kazan":"○"}}
,{"type":"Feature","geometry":{"type":"Point","coordinates":[131.492132,33.298779]},"properties":{"Name":"吉弘公園","Jusho":"大分県別府市石垣西6-6","kouzui":"○","gake":"○","takashio":"○","jishin":"○","tsunami":"○","kaji":"×","naisui":"○","kazan":"○"}}
,{"type":"Feature","geometry":{"type":"Point","coordinates":[131.492703,33.302565]},"properties":{"Name":"桐ノ木児童公園","Jusho":"大分県別府市石垣西9-2729","kouzui":"○","gake":"○","takashio":"○","jishin":"○","tsunami":"○","kaji":"×","naisui":"○","kazan":"○"}}
,{"type":"Feature","geometry":{"type":"Point","coordinates":[131.490505,33.310514]},"properties":{"Name":"桜ヶ丘公民館","Jusho":"大分県別府市桜ケ丘5組","kouzui":"○","gake":"○","takashio":"○","jishin":"○","tsunami":"○","kaji":"×","naisui":"○","kazan":"○"}}
,{"type":"Feature","geometry":{"type":"Point","coordinates":[131.493108,33.309031]},"properties":{"Name":"中須賀元町・本町公民館集会室","Jusho":"大分県別府市中須賀本町9組","kouzui":"○","gake":"○","takashio":"○","jishin":"○","tsunami":"○","kaji":"×","naisui":"○","kazan":"○"}}
,{"type":"Feature","geometry":{"type":"Point","coordinates":[131.489832,33.309452]},"properties":{"Name":"中須賀児童公園","Jusho":"大分県別府市中須賀元町9組","kouzui":"○","gake":"○","takashio":"○","jishin":"○","tsunami":"○","kaji":"×","naisui":"○","kazan":"×"}}
,{"type":"Feature","geometry":{"type":"Point","coordinates":[131.497006,33.314919]},"properties":{"Name":"上人本町・上人仲町公民館大広間、会議室1・2","Jusho":"大分県別府市上人本町8-2","kouzui":"○","gake":"○","takashio":"○","jishin":"○","tsunami":"○","kaji":"×","naisui":"○","kazan":"○"}}
,{"type":"Feature","geometry":{"type":"Point","coordinates":[131.494088,33.321534]},"properties":{"Name":"亀川四の湯町２区公民館大広間、和室","Jusho":"大分県別府市亀川四の湯町2028","kouzui":"○","gake":"○","takashio":"○","jishin":"○","tsunami":"×","kaji":"×","naisui":"○","kazan":"○"}}
,{"type":"Feature","geometry":{"type":"Point","coordinates":[131.502138,33.309503]},"properties":{"Name":"上人ヶ浜公園","Jusho":"大分県別府市上人ヶ浜町504-1","kouzui":"○","gake":"○","takashio":"×","jishin":"○","tsunami":"×","kaji":"×","naisui":"○","kazan":"○"}}
,{"type":"Feature","geometry":{"type":"Point","coordinates":[131.493321,33.322437]},"properties":{"Name":"四の湯温泉前広場","Jusho":"大分県別府市亀川四の湯町20","kouzui":"○","gake":"○","takashio":"○","jishin":"○","tsunami":"×","kaji":"×","naisui":"○","kazan":"○"}}
,{"type":"Feature","geometry":{"type":"Point","coordinates":[131.49385709326,33.323846954321]},"properties":{"Name":"亀川四の湯町１区公民館集会室","Jusho":"大分県別府市亀川四の湯町907-1","kouzui":"○","gake":"○","takashio":"○","jishin":"×","tsunami":"×","kaji":"×","naisui":"○","kazan":"○"}}
,{"type":"Feature","geometry":{"type":"Point","coordinates":[131.49437044907,33.326922538206]},"properties":{"Name":"亀川中央町２区公民館集会室","Jusho":"大分県別府市亀川中央町12-16","kouzui":"○","gake":"○","takashio":"○","jishin":"×","tsunami":"×","kaji":"×","naisui":"○","kazan":"○"}}
,{"type":"Feature","geometry":{"type":"Point","coordinates":[131.480961,33.324907]},"properties":{"Name":"野田公民館（集会室）","Jusho":"大分県別府市大字野田字千引257","kouzui":"○","gake":"○","takashio":"○","jishin":"×","tsunami":"○","kaji":"×","naisui":"○","kazan":"○"}}
,{"type":"Feature","geometry":{"type":"Point","coordinates":[131.489576,33.34282]},"properties":{"Name":"関の江新町公民館集会室、会議室","Jusho":"大分県別府市大字内竈字前田3533-176","kouzui":"○","gake":"○","takashio":"○","jishin":"○","tsunami":"○","kaji":"×","naisui":"○","kazan":"○"}}
,{"type":"Feature","geometry":{"type":"Point","coordinates":[131.49536212486,33.347881396493]},"properties":{"Name":"小坂公民館集会室1・2","Jusho":"大分県別府市小坂7組","kouzui":"○","gake":"○","takashio":"○","jishin":"○","tsunami":"○","kaji":"×","naisui":"○","kazan":"○"}}
,{"type":"Feature","geometry":{"type":"Point","coordinates":[131.464942,33.350703]},"properties":{"Name":"大所公民館集会室","Jusho":"大分県別府市大所2組","kouzui":"○","gake":"×","takashio":"○","jishin":"○","tsunami":"○","kaji":"×","naisui":"○","kazan":"○"}}
,{"type":"Feature","geometry":{"type":"Point","coordinates":[131.484429,33.331091]},"properties":{"Name":"内竈公民館多目的ホール、研修室","Jusho":"大分県別府市内竈15組1","kouzui":"○","gake":"×","takashio":"○","jishin":"○","tsunami":"×","kaji":"×","naisui":"○","kazan":"×"}}
,{"type":"Feature","geometry":{"type":"Point","coordinates":[131.486635,33.340651]},"properties":{"Name":"スパランド豊海公民館集会室","Jusho":"大分県別府市スパランド豊海21-7","kouzui":"○","gake":"○","takashio":"○","jishin":"○","tsunami":"○","kaji":"×","naisui":"○","kazan":"○"}}
,{"type":"Feature","geometry":{"type":"Point","coordinates":[131.493735,33.33271]},"properties":{"Name":"浜田公園","Jusho":"大分県別府市亀川浜田町12","kouzui":"○","gake":"○","takashio":"○","jishin":"○","tsunami":"×","kaji":"×","naisui":"○","kazan":"×"}}
,{"type":"Feature","geometry":{"type":"Point","coordinates":[131.494081,33.34505]},"properties":{"Name":"北新田公園","Jusho":"大分県別府市大字内竈字北新田5-6","kouzui":"○","gake":"○","takashio":"○","jishin":"○","tsunami":"×","kaji":"×","naisui":"○","kazan":"×"}}
,{"type":"Feature","geometry":{"type":"Point","coordinates":[131.495159,33.337537]},"properties":{"Name":"古市工業団地多目的グラウンド","Jusho":"大分県別府市古市町881-153","kouzui":"○","gake":"○","takashio":"○","jishin":"○","tsunami":"×","kaji":"×","naisui":"○","kazan":"○"}}
,{"type":"Feature","geometry":{"type":"Point","coordinates":[131.487343,33.338704]},"properties":{"Name":"スパランド豊海第一幼児公園","Jusho":"大分県別府市大字内竈笹川3020-215","kouzui":"○","gake":"○","takashio":"○","jishin":"○","tsunami":"○","kaji":"×","naisui":"○","kazan":"○"}}
,{"type":"Feature","geometry":{"type":"Point","coordinates":[131.485872,33.337329]},"properties":{"Name":"内竈第三幼児公園","Jusho":"大分県別府市大字内竈釿ノ掛前3150-92","kouzui":"○","gake":"○","takashio":"○","jishin":"○","tsunami":"○","kaji":"×","naisui":"○","kazan":"○"}}
,{"type":"Feature","geometry":{"type":"Point","coordinates":[131.481491,33.273044]},"properties":{"Name":"乙原公民館和室1・2、洋室","Jusho":"大分県別府市乙原2組","kouzui":"○","gake":"×","takashio":"○","jishin":"×","tsunami":"○","kaji":"×","naisui":"○","kazan":"×"}}
,{"type":"Feature","geometry":{"type":"Point","coordinates":[131.494230816024,33.3260582398888]},"properties":{"Name":"亀陽泉多目的ホール","Jusho":"大分県別府市亀川中央町10-26","kouzui":"○","gake":"○","takashio":"○","jishin":"○","tsunami":"×","kaji":"×","naisui":"○","kazan":"○"}}
,{"type":"Feature","geometry":{"type":"Point","coordinates":[131.499138,33.271469]},"properties":{"Name":"山田(桃太郎)公園","Jusho":"大分県別府市朝見1-13","kouzui":"○","gake":"○","takashio":"○","jishin":"○","tsunami":"×","kaji":"×","naisui":"○","kazan":"○"}}
,{"type":"Feature","geometry":{"type":"Point","coordinates":[131.486619,33.275339]},"properties":{"Name":"温泉プ-ル跡地","Jusho":"大分県別府市原町15","kouzui":"○","gake":"×","takashio":"○","jishin":"○","tsunami":"○","kaji":"×","naisui":"○","kazan":"×"}}
,{"type":"Feature","geometry":{"type":"Point","coordinates":[131.498554,33.273575]},"properties":{"Name":"光町西広場","Jusho":"大分県別府市光町7-14","kouzui":"○","gake":"○","takashio":"○","jishin":"○","tsunami":"○","kaji":"×","naisui":"○","kazan":"○"}}
,{"type":"Feature","geometry":{"type":"Point","coordinates":[131.491151,33.282005]},"properties":{"Name":"別府公園","Jusho":"大分県別府市野口原3018-1","kouzui":"○","gake":"○","takashio":"○","jishin":"○","tsunami":"○","kaji":"×","naisui":"○","kazan":"×"}}
,{"type":"Feature","geometry":{"type":"Point","coordinates":[131.497824,33.286259]},"properties":{"Name":"幸町公民館サークル室","Jusho":"大分県別府市幸町5-15","kouzui":"○","gake":"○","takashio":"○","jishin":"○","tsunami":"○","kaji":"×","naisui":"○","kazan":"○"}}
,{"type":"Feature","geometry":{"type":"Point","coordinates":[131.487664,33.28697]},"properties":{"Name":"野口原総合運動場","Jusho":"大分県別府市野口原3088-9","kouzui":"○","gake":"○","takashio":"○","jishin":"○","tsunami":"○","kaji":"×","naisui":"○","kazan":"○"}}
,{"type":"Feature","geometry":{"type":"Point","coordinates":[131.48618,33.291902]},"properties":{"Name":"鶴見ヶ丘児童公園","Jusho":"大分県別府市東荘園3-1組","kouzui":"○","gake":"○","takashio":"○","jishin":"○","tsunami":"○","kaji":"×","naisui":"○","kazan":"×"}}
,{"type":"Feature","geometry":{"type":"Point","coordinates":[131.495743,33.288047]},"properties":{"Name":"野口公園","Jusho":"大分県別府市天満町17","kouzui":"○","gake":"○","takashio":"○","jishin":"○","tsunami":"○","kaji":"×","naisui":"○","kazan":"○"}}
,{"type":"Feature","geometry":{"type":"Point","coordinates":[131.49804,33.291439]},"properties":{"Name":"石垣児童公園","Jusho":"大分県別府市石垣東2-3","kouzui":"○","gake":"○","takashio":"○","jishin":"○","tsunami":"○","kaji":"×","naisui":"○","kazan":"○"}}
,{"type":"Feature","geometry":{"type":"Point","coordinates":[131.486457,33.293115]},"properties":{"Name":"東荘園公民館集会室、会議室、控室","Jusho":"大分県別府市東荘園4-2組","kouzui":"○","gake":"○","takashio":"○","jishin":"×","tsunami":"○","kaji":"×","naisui":"○","kazan":"×"}}
,{"type":"Feature","geometry":{"type":"Point","coordinates":[131.481843,33.295434]},"properties":{"Name":"市営光の園住宅集会所集会室","Jusho":"大分県別府市荘園北町","kouzui":"○","gake":"○","takashio":"○","jishin":"○","tsunami":"○","kaji":"×","naisui":"○","kazan":"×"}}
,{"type":"Feature","geometry":{"type":"Point","coordinates":[131.488392,33.298212]},"properties":{"Name":"実相寺中央公園集会所集会室、和室","Jusho":"大分県別府市大字鶴見下馬松","kouzui":"○","gake":"○","takashio":"○","jishin":"○","tsunami":"○","kaji":"×","naisui":"○","kazan":"○"}}
,{"type":"Feature","geometry":{"type":"Point","coordinates":[131.48700858583,33.299075061797]},"properties":{"Name":"実相寺中央公園","Jusho":"大分県別府市大字鶴見字実相寺山","kouzui":"○","gake":"○","takashio":"○","jishin":"○","tsunami":"○","kaji":"×","naisui":"○","kazan":"○"}}
,{"type":"Feature","geometry":{"type":"Point","coordinates":[131.479753,33.282719]},"properties":{"Name":"南立石1区公民館（中津留公民館）大広間","Jusho":"大分県別府市大字南立石字丸尾2239-1","kouzui":"○","gake":"○","takashio":"○","jishin":"×","tsunami":"○","kaji":"×","naisui":"○","kazan":"×"}}
,{"type":"Feature","geometry":{"type":"Point","coordinates":[131.476777,33.285793]},"properties":{"Name":"鶴見園町公民館ホール、和室1・2","Jusho":"大分県別府市大字南立石字中津留道北2141-1","kouzui":"○","gake":"○","takashio":"○","jishin":"○","tsunami":"○","kaji":"×","naisui":"○","kazan":"×"}}
,{"type":"Feature","geometry":{"type":"Point","coordinates":[131.463161,33.288071]},"properties":{"Name":"堀田公民館集会室","Jusho":"大分県別府市大字南立石字ソコバタ943-1","kouzui":"○","gake":"○","takashio":"○","jishin":"○","tsunami":"○","kaji":"×","naisui":"○","kazan":"×"}}
,{"type":"Feature","geometry":{"type":"Point","coordinates":[131.461079,33.288533]},"properties":{"Name":"堀田温泉休憩室","Jusho":"大分県別府市堀田2組","kouzui":"○","gake":"○","takashio":"○","jishin":"○","tsunami":"○","kaji":"×","naisui":"○","kazan":"×"}}
,{"type":"Feature","geometry":{"type":"Point","coordinates":[131.465022,33.291384356575]},"properties":{"Name":"南立石生目町公民館集会室、和室1・2、柔剣道場","Jusho":"大分県別府市大字南立石字上向原1079-95","kouzui":"○","gake":"○","takashio":"○","jishin":"○","tsunami":"○","kaji":"×","naisui":"○","kazan":"×"}}
,{"type":"Feature","geometry":{"type":"Point","coordinates":[131.482574,33.290124]},"properties":{"Name":"荘園・南荘園町公民館集会室、会議室","Jusho":"大分県別府市南荘園町1組","kouzui":"○","gake":"×","takashio":"○","jishin":"○","tsunami":"○","kaji":"×","naisui":"○","kazan":"×"}}
,{"type":"Feature","geometry":{"type":"Point","coordinates":[131.474127,33.291082]},"properties":{"Name":"南立石公園","Jusho":"大分県別府市大字南立石1884-1","kouzui":"○","gake":"○","takashio":"○","jishin":"○","tsunami":"○","kaji":"×","naisui":"○","kazan":"×"}}
,{"type":"Feature","geometry":{"type":"Point","coordinates":[131.467595,33.295131]},"properties":{"Name":"扇山公民館大ホール、和室1・2","Jusho":"大分県別府市大字鶴見字鶴見原4548-201","kouzui":"○","gake":"○","takashio":"○","jishin":"×","tsunami":"○","kaji":"×","naisui":"○","kazan":"×"}}
,{"type":"Feature","geometry":{"type":"Point","coordinates":[131.477843,33.300302]},"properties":{"Name":"鶴見公民館ホール、和室1・2","Jusho":"大分県別府市鶴見8組1","kouzui":"○","gake":"○","takashio":"○","jishin":"○","tsunami":"○","kaji":"×","naisui":"○","kazan":"×"}}
,{"type":"Feature","geometry":{"type":"Point","coordinates":[131.475424,33.303493]},"properties":{"Name":"大畑公民館大会議室、会議室1・2","Jusho":"大分県別府市大畑4組2","kouzui":"○","gake":"○","takashio":"○","jishin":"○","tsunami":"○","kaji":"×","naisui":"○","kazan":"×"}}
,{"type":"Feature","geometry":{"type":"Point","coordinates":[131.465247,33.304747]},"properties":{"Name":"竹の内公民館集会室、和室、会議室","Jusho":"大分県別府市竹の内5組2","kouzui":"○","gake":"○","takashio":"○","jishin":"○","tsunami":"○","kaji":"×","naisui":"○","kazan":"×"}}
,{"type":"Feature","geometry":{"type":"Point","coordinates":[131.47098,33.300396]},"properties":{"Name":"大畑公園（古賀の口チビッコ広場）","Jusho":"大分県別府市大畑18組","kouzui":"○","gake":"○","takashio":"○","jishin":"○","tsunami":"○","kaji":"×","naisui":"○","kazan":"×"}}
,{"type":"Feature","geometry":{"type":"Point","coordinates":[131.484264,33.308847]},"properties":{"Name":"新別府公民館集会室","Jusho":"大分県別府市新別府5組4-1","kouzui":"○","gake":"○","takashio":"○","jishin":"○","tsunami":"○","kaji":"×","naisui":"○","kazan":"○"}}
,{"type":"Feature","geometry":{"type":"Point","coordinates":[131.47851666154,33.307044748134]},"properties":{"Name":"馬場公民館会議室、和室1・2、集会室","Jusho":"大分県別府市馬場3組1","kouzui":"○","gake":"○","takashio":"○","jishin":"×","tsunami":"○","kaji":"×","naisui":"○","kazan":"×"}}
,{"type":"Feature","geometry":{"type":"Point","coordinates":[131.477689,33.312114]},"properties":{"Name":"北中公民館ホール、洋室","Jusho":"大分県別府市北中4組","kouzui":"○","gake":"○","takashio":"○","jishin":"×","tsunami":"○","kaji":"×","naisui":"○","kazan":"×"}}
,{"type":"Feature","geometry":{"type":"Point","coordinates":[131.479947,33.315761]},"properties":{"Name":"鉄輪東公民館会議室、和室","Jusho":"大分県別府市鉄輪東4組2","kouzui":"○","gake":"×","takashio":"○","jishin":"×","tsunami":"○","kaji":"×","naisui":"○","kazan":"○"}}
,{"type":"Feature","geometry":{"type":"Point","coordinates":[131.477121,33.320942]},"properties":{"Name":"北鉄輪公民館大広間","Jusho":"大分県別府市大字鉄輪1346-3","kouzui":"○","gake":"○","takashio":"○","jishin":"×","tsunami":"○","kaji":"×","naisui":"○","kazan":"○"}}
,{"type":"Feature","geometry":{"type":"Point","coordinates":[131.454397,33.325106]},"properties":{"Name":"湯山コミュニティ-センタ-休憩室、研修室","Jusho":"大分県別府市湯山4組","kouzui":"○","gake":"○","takashio":"○","jishin":"○","tsunami":"○","kaji":"×","naisui":"○","kazan":"×"}}
,{"type":"Feature","geometry":{"type":"Point","coordinates":[131.404816,33.336952]},"properties":{"Name":"天間公民館広間","Jusho":"大分県別府市大字ミクミ168","kouzui":"○","gake":"○","takashio":"○","jishin":"×","tsunami":"○","kaji":"×","naisui":"○","kazan":"×"}}
,{"type":"Feature","geometry":{"type":"Point","coordinates":[131.484081,33.314524]},"properties":{"Name":"鉄輪東公園","Jusho":"大分県別府市鉄輪東1組","kouzui":"○","gake":"×","takashio":"○","jishin":"○","tsunami":"○","kaji":"×","naisui":"○","kazan":"○"}}
,{"type":"Feature","geometry":{"type":"Point","coordinates":[131.475886,33.314908]},"properties":{"Name":"大谷公園","Jusho":"大分県別府市御幸2組","kouzui":"○","gake":"×","takashio":"○","jishin":"○","tsunami":"○","kaji":"×","naisui":"○","kazan":"×"}}
,{"type":"Feature","geometry":{"type":"Point","coordinates":[131.452761,33.31532]},"properties":{"Name":"明礬グラウンド","Jusho":"大分県別府市明礬","kouzui":"○","gake":"○","takashio":"○","jishin":"○","tsunami":"○","kaji":"×","naisui":"○","kazan":"×"}}
,{"type":"Feature","geometry":{"type":"Point","coordinates":[131.465582,33.311814]},"properties":{"Name":"鉄輪地獄地帯公園","Jusho":"大分県別府市大字鉄輪字フロムシ","kouzui":"○","gake":"○","takashio":"○","jishin":"○","tsunami":"○","kaji":"×","naisui":"○","kazan":"×"}}
,{"type":"Feature","geometry":{"type":"Point","coordinates":[131.47757,33.308012]},"properties":{"Name":"馬場公園","Jusho":"大分県別府市大字鶴見字馬場2706-1","kouzui":"○","gake":"○","takashio":"○","jishin":"○","tsunami":"○","kaji":"×","naisui":"○","kazan":"×"}}
,{"type":"Feature","geometry":{"type":"Point","coordinates":[131.186856,33.604621]},"properties":{"Name":"南部公民館","Jusho":"大分県中津市1468（京町）","kouzui":"○","gake":"○","takashio":"○","jishin":"○","tsunami":"○","kaji":"○","naisui":"○","kazan":"○"}}
,{"type":"Feature","geometry":{"type":"Point","coordinates":[131.188864,33.612841]},"properties":{"Name":"城北中学校","Jusho":"大分県中津市字小祝525-11","kouzui":"○","gake":"○","takashio":"○","jishin":"○","tsunami":"○","kaji":"○","naisui":"○","kazan":"○"}}
,{"type":"Feature","geometry":{"type":"Point","coordinates":[131.18578808739,33.605945057329]},"properties":{"Name":"中津城公園","Jusho":"大分県中津市1278-1（二ノ丁）","kouzui":"○","gake":"○","takashio":"○","jishin":"○","tsunami":"○","kaji":"○","naisui":"○","kazan":"○"}}
,{"type":"Feature","geometry":{"type":"Point","coordinates":[131.19337,33.610039]},"properties":{"Name":"北部公民館","Jusho":"大分県中津市大字角木494-1","kouzui":"○","gake":"○","takashio":"○","jishin":"○","tsunami":"○","kaji":"○","naisui":"○","kazan":"○"}}
,{"type":"Feature","geometry":{"type":"Point","coordinates":[131.209936,33.60879]},"properties":{"Name":"米山公園","Jusho":"大分県中津市大字蛎瀬1351-13","kouzui":"○","gake":"○","takashio":"○","jishin":"○","tsunami":"○","kaji":"○","naisui":"○","kazan":"○"}}
,{"type":"Feature","geometry":{"type":"Point","coordinates":[131.185727,33.592612]},"properties":{"Name":"豊田公民館","Jusho":"大分県中津市大字上宮永29-1","kouzui":"○","gake":"○","takashio":"○","jishin":"○","tsunami":"○","kaji":"○","naisui":"○","kazan":"○"}}
,{"type":"Feature","geometry":{"type":"Point","coordinates":[131.187789,33.597458]},"properties":{"Name":"中央公園","Jusho":"大分県中津市豊田町14-39","kouzui":"○","gake":"○","takashio":"○","jishin":"○","tsunami":"○","kaji":"○","naisui":"○","kazan":"○"}}
,{"type":"Feature","geometry":{"type":"Point","coordinates":[131.18864,33.596877]},"properties":{"Name":"島田公園","Jusho":"大分県中津市豊田町5-4","kouzui":"○","gake":"○","takashio":"○","jishin":"○","tsunami":"○","kaji":"○","naisui":"○","kazan":"○"}}
,{"type":"Feature","geometry":{"type":"Point","coordinates":[131.197385,33.587696]},"properties":{"Name":"沖代公民館","Jusho":"大分県中津市沖代町1-6-52","kouzui":"○","gake":"○","takashio":"○","jishin":"○","tsunami":"○","kaji":"○","naisui":"○","kazan":"○"}}
,{"type":"Feature","geometry":{"type":"Point","coordinates":[131.190497,33.594655]},"properties":{"Name":"豊陽公園","Jusho":"大分県中津市中央町1-946-2","kouzui":"○","gake":"○","takashio":"○","jishin":"○","tsunami":"○","kaji":"○","naisui":"○","kazan":"○"}}
,{"type":"Feature","geometry":{"type":"Point","coordinates":[131.206596,33.593214]},"properties":{"Name":"小楠コミュニティーセンター","Jusho":"大分県中津市大字一ツ松251","kouzui":"○","gake":"○","takashio":"○","jishin":"○","tsunami":"○","kaji":"○","naisui":"○","kazan":"○"}}
,{"type":"Feature","geometry":{"type":"Point","coordinates":[131.192358,33.574537]},"properties":{"Name":"鶴居コミュニティーセンター","Jusho":"大分県中津市大字相原3740-1","kouzui":"○","gake":"○","takashio":"○","jishin":"○","tsunami":"○","kaji":"○","naisui":"○","kazan":"○"}}
,{"type":"Feature","geometry":{"type":"Point","coordinates":[131.177667,33.585983]},"properties":{"Name":"鶴居文化センター","Jusho":"大分県中津市大字高瀬1042","kouzui":"○","gake":"○","takashio":"○","jishin":"○","tsunami":"○","kaji":"○","naisui":"○","kazan":"○"}}
,{"type":"Feature","geometry":{"type":"Point","coordinates":[131.197386,33.569742]},"properties":{"Name":"松尾児童公園","Jusho":"大分県中津市大字永添1771","kouzui":"○","gake":"○","takashio":"○","jishin":"○","tsunami":"○","kaji":"○","naisui":"○","kazan":"○"}}
,{"type":"Feature","geometry":{"type":"Point","coordinates":[131.197317,33.56413]},"properties":{"Name":"永添運動公園","Jusho":"大分県中津市大字永添2065-1","kouzui":"○","gake":"○","takashio":"○","jishin":"○","tsunami":"○","kaji":"○","naisui":"○","kazan":"○"}}
,{"type":"Feature","geometry":{"type":"Point","coordinates":[131.223673,33.586628]},"properties":{"Name":"如水コミュニーティセンター","Jusho":"大分県中津市大字合馬479-1","kouzui":"○","gake":"○","takashio":"○","jishin":"○","tsunami":"○","kaji":"○","naisui":"○","kazan":"○"}}
,{"type":"Feature","geometry":{"type":"Point","coordinates":[131.212641,33.566337]},"properties":{"Name":"大幡コミュニティーセンター","Jusho":"大分県中津市大字大貞371-403","kouzui":"○","gake":"○","takashio":"○","jishin":"○","tsunami":"○","kaji":"○","naisui":"○","kazan":"○"}}
,{"type":"Feature","geometry":{"type":"Point","coordinates":[131.208073,33.561103]},"properties":{"Name":"大貞総合運動公園","Jusho":"大分県中津市大字加来2282-27","kouzui":"○","gake":"○","takashio":"○","jishin":"○","tsunami":"○","kaji":"○","naisui":"○","kazan":"○"}}
,{"type":"Feature","geometry":{"type":"Point","coordinates":[131.235965,33.564753]},"properties":{"Name":"三保交流センター","Jusho":"大分県中津市大字福島1902","kouzui":"○","gake":"○","takashio":"○","jishin":"○","tsunami":"○","kaji":"○","naisui":"○","kazan":"○"}}
,{"type":"Feature","geometry":{"type":"Point","coordinates":[131.247,33.586967]},"properties":{"Name":"和田公民館","Jusho":"大分県中津市大字定留1776-1","kouzui":"○","gake":"○","takashio":"○","jishin":"○","tsunami":"○","kaji":"○","naisui":"○","kazan":"○"}}
,{"type":"Feature","geometry":{"type":"Point","coordinates":[131.244987,33.608629]},"properties":{"Name":"田尻ファミリー公園","Jusho":"大分県中津市大字田尻崎2-2","kouzui":"○","gake":"○","takashio":"○","jishin":"○","tsunami":"○","kaji":"○","naisui":"○","kazan":"○"}}
,{"type":"Feature","geometry":{"type":"Point","coordinates":[131.26513,33.569491]},"properties":{"Name":"今津コミュニティセンター","Jusho":"大分県中津市大字植野1972-1","kouzui":"○","gake":"○","takashio":"○","jishin":"○","tsunami":"○","kaji":"○","naisui":"○","kazan":"○"}}
,{"type":"Feature","geometry":{"type":"Point","coordinates":[131.270676,33.584103]},"properties":{"Name":"鍋島公園","Jusho":"大分県中津市大字鍋島697-43","kouzui":"○","gake":"○","takashio":"○","jishin":"○","tsunami":"○","kaji":"○","naisui":"○","kazan":"○"}}
,{"type":"Feature","geometry":{"type":"Point","coordinates":[131.20953,33.538116]},"properties":{"Name":"三光福祉保健センター","Jusho":"大分県中津市三光成恒421-1","kouzui":"○","gake":"○","takashio":"○","jishin":"○","tsunami":"○","kaji":"○","naisui":"○","kazan":"○"}}
,{"type":"Feature","geometry":{"type":"Point","coordinates":[131.240215,33.531477]},"properties":{"Name":"秣小学校","Jusho":"大分県中津市三光西秣1204","kouzui":"○","gake":"○","takashio":"○","jishin":"○","tsunami":"○","kaji":"○","naisui":"○","kazan":"○"}}
,{"type":"Feature","geometry":{"type":"Point","coordinates":[131.182803,33.537157]},"properties":{"Name":"真坂小学校","Jusho":"大分県中津市三光臼木432","kouzui":"○","gake":"○","takashio":"○","jishin":"○","tsunami":"○","kaji":"○","naisui":"○","kazan":"○"}}
,{"type":"Feature","geometry":{"type":"Point","coordinates":[131.261812,33.504186]},"properties":{"Name":"深水小学校","Jusho":"大分県中津市三光上深水75","kouzui":"○","gake":"○","takashio":"○","jishin":"○","tsunami":"○","kaji":"○","naisui":"○","kazan":"○"}}
,{"type":"Feature","geometry":{"type":"Point","coordinates":[131.172635,33.50405]},"properties":{"Name":"樋田地区公民館","Jusho":"大分県中津市本耶馬渓町樋田277-2","kouzui":"○","gake":"○","takashio":"×","jishin":"×","tsunami":"×","kaji":"○","naisui":"○","kazan":"○"}}
,{"type":"Feature","geometry":{"type":"Point","coordinates":[131.16949,33.495619]},"properties":{"Name":"本耶馬渓公民館","Jusho":"大分県中津市本耶馬渓町曽木1800","kouzui":"○","gake":"○","takashio":"×","jishin":"○","tsunami":"×","kaji":"○","naisui":"○","kazan":"○"}}
,{"type":"Feature","geometry":{"type":"Point","coordinates":[131.215460768031,33.4809048035307]},"properties":{"Name":"やかた田舎の学校","Jusho":"大分県中津市本耶馬渓町東屋形510","kouzui":"○","gake":"○","takashio":"×","jishin":"○","tsunami":"×","kaji":"○","naisui":"○","kazan":"○"}}
,{"type":"Feature","geometry":{"type":"Point","coordinates":[131.160821,33.47959]},"properties":{"Name":"多志田・冠石野地区集会所","Jusho":"大分県中津市本耶馬渓町多志田241","kouzui":"○","gake":"○","takashio":"×","jishin":"○","tsunami":"×","kaji":"○","naisui":"○","kazan":"○"}}
,{"type":"Feature","geometry":{"type":"Point","coordinates":[131.185542,33.456576]},"properties":{"Name":"上津地区公民館","Jusho":"大分県中津市本耶馬渓町折元1233-3","kouzui":"○","gake":"○","takashio":"×","jishin":"○","tsunami":"×","kaji":"○","naisui":"○","kazan":"○"}}
,{"type":"Feature","geometry":{"type":"Point","coordinates":[131.214843,33.444443]},"properties":{"Name":"東谷地区公民館","Jusho":"大分県中津市本耶馬渓町東谷2319","kouzui":"○","gake":"○","takashio":"×","jishin":"○","tsunami":"×","kaji":"○","naisui":"○","kazan":"○"}}
,{"type":"Feature","geometry":{"type":"Point","coordinates":[131.181204,33.423489]},"properties":{"Name":"西谷地区公民館","Jusho":"大分県中津市本耶馬渓町西谷2810-2","kouzui":"○","gake":"○","takashio":"×","jishin":"×","tsunami":"×","kaji":"○","naisui":"○","kazan":"○"}}
,{"type":"Feature","geometry":{"type":"Point","coordinates":[131.141096,33.469929]},"properties":{"Name":"城井地区公民館","Jusho":"大分県中津市耶馬溪町大字平田1418-1","kouzui":"○","gake":"○","takashio":"×","jishin":"○","tsunami":"×","kaji":"○","naisui":"○","kazan":"○"}}
,{"type":"Feature","geometry":{"type":"Point","coordinates":[131.11373,33.453474]},"properties":{"Name":"耶馬溪地区公民館サニーホール","Jusho":"大分県中津市耶馬溪町大字柿坂520","kouzui":"○","gake":"×","takashio":"×","jishin":"×","tsunami":"×","kaji":"○","naisui":"○","kazan":"○"}}
,{"type":"Feature","geometry":{"type":"Point","coordinates":[131.083774,33.476987]},"properties":{"Name":"津民地区公民館","Jusho":"大分県中津市耶馬溪町大字大野1083","kouzui":"○","gake":"○","takashio":"×","jishin":"○","tsunami":"×","kaji":"○","naisui":"○","kazan":"○"}}
,{"type":"Feature","geometry":{"type":"Point","coordinates":[131.156505,33.41354]},"properties":{"Name":"山移地区公民館","Jusho":"大分県中津市耶馬溪町大字山移3326-1","kouzui":"○","gake":"×","takashio":"×","jishin":"×","tsunami":"×","kaji":"○","naisui":"○","kazan":"○"}}
,{"type":"Feature","geometry":{"type":"Point","coordinates":[131.16686,33.385763]},"properties":{"Name":"深耶馬地区公民館","Jusho":"大分県中津市耶馬溪町大字深耶馬2952","kouzui":"○","gake":"×","takashio":"×","jishin":"×","tsunami":"×","kaji":"○","naisui":"○","kazan":"○"}}
,{"type":"Feature","geometry":{"type":"Point","coordinates":[131.099073,33.429392]},"properties":{"Name":"下郷小学校体育館","Jusho":"大分県中津市耶馬溪町大字大島190-2","kouzui":"○","gake":"○","takashio":"×","jishin":"○","tsunami":"×","kaji":"○","naisui":"○","kazan":"○"}}
,{"type":"Feature","geometry":{"type":"Point","coordinates":[131.053351,33.403023]},"properties":{"Name":"三郷小学校体育館","Jusho":"大分県中津市山国町宇曽727","kouzui":"○","gake":"○","takashio":"×","jishin":"○","tsunami":"×","kaji":"○","naisui":"○","kazan":"○"}}
,{"type":"Feature","geometry":{"type":"Point","coordinates":[131.042051,33.402259]},"properties":{"Name":"コアやまくに","Jusho":"大分県中津市山国町守実130","kouzui":"○","gake":"○","takashio":"×","jishin":"○","tsunami":"×","kaji":"○","naisui":"○","kazan":"○"}}
,{"type":"Feature","geometry":{"type":"Point","coordinates":[131.038654,33.4043]},"properties":{"Name":"山国中学校体育館","Jusho":"大分県中津市山国町守実281","kouzui":"○","gake":"○","takashio":"×","jishin":"○","tsunami":"×","kaji":"○","naisui":"○","kazan":"○"}}
,{"type":"Feature","geometry":{"type":"Point","coordinates":[131.03362,33.410472]},"properties":{"Name":"コロナ体育館","Jusho":"大分県中津市山国町平小野167-2","kouzui":"○","gake":"○","takashio":"×","jishin":"○","tsunami":"×","kaji":"○","naisui":"○","kazan":"○"}}
,{"type":"Feature","geometry":{"type":"Point","coordinates":[130.988317,33.453382]},"properties":{"Name":"槻木交流センター","Jusho":"大分県中津市山国町槻木1075","kouzui":"○","gake":"○","takashio":"×","jishin":"○","tsunami":"×","kaji":"○","naisui":"○","kazan":"○"}}
,{"type":"Feature","geometry":{"type":"Point","coordinates":[130.92852261817,33.314478439505]},"properties":{"Name":"亀山公園","Jusho":"大分県日田市中ノ島町559","kouzui":"×","gake":"×","takashio":"×","jishin":"○","tsunami":"×","kaji":"×","naisui":"×","kazan":"×"}}
,{"type":"Feature","geometry":{"type":"Point","coordinates":[130.92613545215,33.312488019974]},"properties":{"Name":"三隈川公園","Jusho":"大分県日田市中ノ島町608-3","kouzui":"×","gake":"×","takashio":"×","jishin":"○","tsunami":"×","kaji":"×","naisui":"×","kazan":"×"}}
,{"type":"Feature","geometry":{"type":"Point","coordinates":[130.91849920308,33.311566763117]},"properties":{"Name":"老人福祉センター延寿グラウンド","Jusho":"大分県日田市中ノ島町685-13","kouzui":"×","gake":"×","takashio":"×","jishin":"○","tsunami":"×","kaji":"×","naisui":"×","kazan":"×"}}
,{"type":"Feature","geometry":{"type":"Point","coordinates":[130.9358911,33.31643017]},"properties":{"Name":"本町第一児童公園","Jusho":"大分県日田市本町19","kouzui":"×","gake":"×","takashio":"×","jishin":"○","tsunami":"×","kaji":"×","naisui":"×","kazan":"×"}}
,{"type":"Feature","geometry":{"type":"Point","coordinates":[130.9372751,33.31526465]},"properties":{"Name":"本町第二児童公園","Jusho":"大分県日田市本町56","kouzui":"×","gake":"×","takashio":"×","jishin":"○","tsunami":"×","kaji":"×","naisui":"×","kazan":"×"}}
,{"type":"Feature","geometry":{"type":"Point","coordinates":[130.9351079,33.31205488]},"properties":{"Name":"東町児童公園","Jusho":"大分県日田市東町716-3","kouzui":"×","gake":"×","takashio":"×","jishin":"○","tsunami":"×","kaji":"×","naisui":"×","kazan":"×"}}
,{"type":"Feature","geometry":{"type":"Point","coordinates":[130.93918096035,33.308532945267]},"properties":{"Name":"竹田公園","Jusho":"大分県日田市若宮町1233","kouzui":"×","gake":"×","takashio":"×","jishin":"○","tsunami":"×","kaji":"×","naisui":"×","kazan":"×"}}
,{"type":"Feature","geometry":{"type":"Point","coordinates":[130.94004999609,33.31357189556]},"properties":{"Name":"南元町児童公園","Jusho":"大分県日田市南元町42","kouzui":"×","gake":"×","takashio":"×","jishin":"○","tsunami":"×","kaji":"×","naisui":"×","kazan":"×"}}
,{"type":"Feature","geometry":{"type":"Point","coordinates":[130.9361703,33.32529776]},"properties":{"Name":"港町児童公園","Jusho":"大分県日田市港町398-5","kouzui":"×","gake":"×","takashio":"×","jishin":"○","tsunami":"×","kaji":"×","naisui":"×","kazan":"×"}}
,{"type":"Feature","geometry":{"type":"Point","coordinates":[130.94057481795,33.325145438829]},"properties":{"Name":"中城グラウンド","Jusho":"大分県日田市中城町224-1","kouzui":"×","gake":"×","takashio":"×","jishin":"○","tsunami":"×","kaji":"×","naisui":"×","kazan":"×"}}
,{"type":"Feature","geometry":{"type":"Point","coordinates":[130.93899710159,33.327250077208]},"properties":{"Name":"桂林荘（城町第一児童）公園","Jusho":"大分県日田市城町1-305-1","kouzui":"×","gake":"×","takashio":"×","jishin":"○","tsunami":"×","kaji":"×","naisui":"×","kazan":"×"}}
,{"type":"Feature","geometry":{"type":"Point","coordinates":[130.9363153,33.33166167]},"properties":{"Name":"月隈公園","Jusho":"大分県日田市丸山2-2-1","kouzui":"×","gake":"×","takashio":"×","jishin":"○","tsunami":"×","kaji":"×","naisui":"×","kazan":"×"}}
,{"type":"Feature","geometry":{"type":"Point","coordinates":[130.9413552,33.31743682]},"properties":{"Name":"田島第一児童公園","Jusho":"大分県日田市田島1-143","kouzui":"×","gake":"×","takashio":"×","jishin":"○","tsunami":"×","kaji":"×","naisui":"×","kazan":"×"}}
,{"type":"Feature","geometry":{"type":"Point","coordinates":[130.94189826714,33.319765297745]},"properties":{"Name":"田島第二児童公園","Jusho":"大分県日田市田島2-286","kouzui":"×","gake":"×","takashio":"×","jishin":"○","tsunami":"×","kaji":"×","naisui":"×","kazan":"×"}}
,{"type":"Feature","geometry":{"type":"Point","coordinates":[130.94240265526,33.315023601091]},"properties":{"Name":"田島第三児童公園","Jusho":"大分県日田市田島1-617","kouzui":"×","gake":"×","takashio":"×","jishin":"○","tsunami":"×","kaji":"×","naisui":"×","kazan":"×"}}
,{"type":"Feature","geometry":{"type":"Point","coordinates":[130.9392213,33.3192415]},"properties":{"Name":"田島本町児童公園","Jusho":"大分県日田市田島本町175","kouzui":"×","gake":"×","takashio":"×","jishin":"○","tsunami":"×","kaji":"×","naisui":"×","kazan":"×"}}
,{"type":"Feature","geometry":{"type":"Point","coordinates":[130.9483786,33.30604691]},"properties":{"Name":"三芳児童公園","Jusho":"大分県日田市下井手町20","kouzui":"×","gake":"×","takashio":"×","jishin":"○","tsunami":"×","kaji":"×","naisui":"×","kazan":"×"}}
,{"type":"Feature","geometry":{"type":"Point","coordinates":[130.948424,33.30451651]},"properties":{"Name":"小渕児童公園","Jusho":"大分県日田市三芳小渕町73","kouzui":"×","gake":"×","takashio":"×","jishin":"○","tsunami":"×","kaji":"×","naisui":"×","kazan":"×"}}
,{"type":"Feature","geometry":{"type":"Point","coordinates":[130.928533347,33.310147874026]},"properties":{"Name":"京町公園","Jusho":"大分県日田市京町27-1","kouzui":"×","gake":"×","takashio":"×","jishin":"○","tsunami":"×","kaji":"×","naisui":"×","kazan":"×"}}
,{"type":"Feature","geometry":{"type":"Point","coordinates":[130.92388083169,33.309547704269]},"properties":{"Name":"鏡坂公園","Jusho":"大分県日田市上野町393-1","kouzui":"×","gake":"×","takashio":"×","jishin":"○","tsunami":"×","kaji":"×","naisui":"×","kazan":"×"}}
,{"type":"Feature","geometry":{"type":"Point","coordinates":[130.90755690763,33.294868703847]},"properties":{"Name":"平野球場","Jusho":"大分県日田市小山町","kouzui":"×","gake":"×","takashio":"×","jishin":"○","tsunami":"×","kaji":"×","naisui":"×","kazan":"×"}}
,{"type":"Feature","geometry":{"type":"Point","coordinates":[130.90555754648,33.325335256075]},"properties":{"Name":"星隈公園","Jusho":"大分県日田市北友田2-1950-1","kouzui":"×","gake":"×","takashio":"×","jishin":"○","tsunami":"×","kaji":"×","naisui":"×","kazan":"×"}}
,{"type":"Feature","geometry":{"type":"Point","coordinates":[130.90072956837,33.322878943757]},"properties":{"Name":"北友田三丁目児童公園","Jusho":"大分県日田市北友田3-2531-37","kouzui":"×","gake":"×","takashio":"×","jishin":"○","tsunami":"×","kaji":"×","naisui":"×","kazan":"×"}}
,{"type":"Feature","geometry":{"type":"Point","coordinates":[130.89586484783,33.328340765824]},"properties":{"Name":"光岡スポーツ広場","Jusho":"大分県日田市大字友田2483-3","kouzui":"×","gake":"×","takashio":"×","jishin":"○","tsunami":"×","kaji":"×","naisui":"×","kazan":"×"}}
,{"type":"Feature","geometry":{"type":"Point","coordinates":[130.88752237115,33.33074079529]},"properties":{"Name":"萩尾公園","Jusho":"大分県日田市君迫町1335-1","kouzui":"×","gake":"×","takashio":"×","jishin":"○","tsunami":"×","kaji":"×","naisui":"×","kazan":"×"}}
,{"type":"Feature","geometry":{"type":"Point","coordinates":[130.91625955855,33.331063501519]},"properties":{"Name":"朝日ヶ丘球場","Jusho":"大分県日田市朝日ヶ丘155-2","kouzui":"×","gake":"×","takashio":"×","jishin":"○","tsunami":"×","kaji":"×","naisui":"×","kazan":"×"}}
,{"type":"Feature","geometry":{"type":"Point","coordinates":[130.93719688215,33.351382621956]},"properties":{"Name":"三和スポーツ広場","Jusho":"大分県日田市清水町1823-1","kouzui":"×","gake":"×","takashio":"×","jishin":"○","tsunami":"×","kaji":"×","naisui":"×","kazan":"×"}}
,{"type":"Feature","geometry":{"type":"Point","coordinates":[130.9543665,33.35354344]},"properties":{"Name":"財津町スポーツ広場","Jusho":"大分県日田市財津町2688-2","kouzui":"×","gake":"×","takashio":"×","jishin":"○","tsunami":"×","kaji":"×","naisui":"×","kazan":"×"}}
,{"type":"Feature","geometry":{"type":"Point","coordinates":[130.9370432,33.40443267]},"properties":{"Name":"旧北小野小学校","Jusho":"大分県日田市殿町3850-3","kouzui":"×","gake":"×","takashio":"×","jishin":"○","tsunami":"×","kaji":"×","naisui":"×","kazan":"×"}}
,{"type":"Feature","geometry":{"type":"Point","coordinates":[130.980215,33.33107758]},"properties":{"Name":"東有田スポーツ広場","Jusho":"大分県日田市諸留町51","kouzui":"×","gake":"×","takashio":"×","jishin":"○","tsunami":"×","kaji":"×","naisui":"×","kazan":"×"}}
,{"type":"Feature","geometry":{"type":"Point","coordinates":[130.8909651,33.37076564]},"properties":{"Name":"大鶴スポーツ広場","Jusho":"大分県日田市大鶴本町884-1","kouzui":"×","gake":"×","takashio":"×","jishin":"○","tsunami":"×","kaji":"×","naisui":"×","kazan":"×"}}
,{"type":"Feature","geometry":{"type":"Point","coordinates":[130.916209526324,33.2109265387831]},"properties":{"Name":"旧大野小学校","Jusho":"大分県日田市前津江町大野2230-2","kouzui":"×","gake":"×","takashio":"×","jishin":"○","tsunami":"×","kaji":"×","naisui":"×","kazan":"×"}}
,{"type":"Feature","geometry":{"type":"Point","coordinates":[130.9863236,33.08864321]},"properties":{"Name":"上野田多目的スポーツ広場","Jusho":"大分県日田市上津江町上野田68-2","kouzui":"×","gake":"×","takashio":"×","jishin":"○","tsunami":"×","kaji":"×","naisui":"×","kazan":"×"}}
,{"type":"Feature","geometry":{"type":"Point","coordinates":[130.99122542927,33.198791967671]},"properties":{"Name":"旧松原小学校","Jusho":"大分県日田市大山町西大山8344-2","kouzui":"×","gake":"×","takashio":"×","jishin":"○","tsunami":"×","kaji":"×","naisui":"×","kazan":"×"}}
,{"type":"Feature","geometry":{"type":"Point","coordinates":[130.96924385639,33.257094282866]},"properties":{"Name":"大山小中学校","Jusho":"大分県日田市大山町西大山3615-1","kouzui":"×","gake":"×","takashio":"×","jishin":"○","tsunami":"×","kaji":"×","naisui":"×","kazan":"×"}}
,{"type":"Feature","geometry":{"type":"Point","coordinates":[131.898744,32.952496]},"properties":{"Name":"佐伯地区公民館","Jusho":"大分県佐伯市中の島2-20-26","kouzui":"○","gake":"○","takashio":"×","jishin":"×","tsunami":"×","kaji":"×","naisui":"○","kazan":"×"}}
,{"type":"Feature","geometry":{"type":"Point","coordinates":[131.923187,32.947368]},"properties":{"Name":"旧灘小学校体育館","Jusho":"大分県佐伯市9731","kouzui":"○","gake":"○","takashio":"×","jishin":"×","tsunami":"×","kaji":"×","naisui":"○","kazan":"×"}}
,{"type":"Feature","geometry":{"type":"Point","coordinates":[131.889036,32.95357]},"properties":{"Name":"城南町公民館","Jusho":"大分県佐伯市城南町18-35","kouzui":"○","gake":"○","takashio":"×","jishin":"×","tsunami":"×","kaji":"×","naisui":"○","kazan":"×"}}
,{"type":"Feature","geometry":{"type":"Point","coordinates":[131.895578,32.956506]},"properties":{"Name":"内町クラブ","Jusho":"大分県佐伯市大手町2-1-31","kouzui":"○","gake":"○","takashio":"×","jishin":"×","tsunami":"×","kaji":"×","naisui":"○","kazan":"×"}}
,{"type":"Feature","geometry":{"type":"Point","coordinates":[131.897044,32.955406]},"properties":{"Name":"向島地区老人の家","Jusho":"大分県佐伯市向島2-4-11","kouzui":"○","gake":"○","takashio":"×","jishin":"×","tsunami":"×","kaji":"×","naisui":"○","kazan":"×"}}
,{"type":"Feature","geometry":{"type":"Point","coordinates":[131.909726,32.967839]},"properties":{"Name":"渡町台地区公民館","Jusho":"大分県佐伯市野岡町2-12-14","kouzui":"○","gake":"○","takashio":"×","jishin":"×","tsunami":"×","kaji":"×","naisui":"○","kazan":"×"}}
,{"type":"Feature","geometry":{"type":"Point","coordinates":[131.908554,32.958445]},"properties":{"Name":"渡町台小学校校舎・体育館","Jusho":"大分県佐伯市長島町3-16-1","kouzui":"○","gake":"○","takashio":"×","jishin":"○","tsunami":"○","kaji":"×","naisui":"○","kazan":"×"}}
,{"type":"Feature","geometry":{"type":"Point","coordinates":[131.908554,32.958445]},"properties":{"Name":"渡町台小学校屋上、１～３階通路及び部屋","Jusho":"大分県佐伯市長島町3-16-1","kouzui":"×","gake":"×","takashio":"×","jishin":"×","tsunami":"○","kaji":"×","naisui":"×","kazan":"×"}}
,{"type":"Feature","geometry":{"type":"Point","coordinates":[131.908505,32.954716]},"properties":{"Name":"新女島区民会館","Jusho":"大分県佐伯市10468-75","kouzui":"○","gake":"○","takashio":"×","jishin":"×","tsunami":"×","kaji":"×","naisui":"○","kazan":"×"}}
,{"type":"Feature","geometry":{"type":"Point","coordinates":[131.90711,32.95862]},"properties":{"Name":"長島区公民館","Jusho":"大分県佐伯市長島町3-7-30","kouzui":"○","gake":"○","takashio":"×","jishin":"×","tsunami":"×","kaji":"×","naisui":"○","kazan":"×"}}
,{"type":"Feature","geometry":{"type":"Point","coordinates":[131.903987,32.967675]},"properties":{"Name":"佐伯東地区公民館","Jusho":"大分県佐伯市蟹田7-10","kouzui":"○","gake":"○","takashio":"×","jishin":"×","tsunami":"×","kaji":"×","naisui":"○","kazan":"×"}}
,{"type":"Feature","geometry":{"type":"Point","coordinates":[131.898856,32.961386]},"properties":{"Name":"中村クラブ","Jusho":"大分県佐伯市中村北町1496-3","kouzui":"○","gake":"○","takashio":"×","jishin":"×","tsunami":"×","kaji":"×","naisui":"○","kazan":"×"}}
,{"type":"Feature","geometry":{"type":"Point","coordinates":[131.901052,32.964206]},"properties":{"Name":"常盤公民館","Jusho":"大分県佐伯市常盤南町7-19","kouzui":"○","gake":"○","takashio":"×","jishin":"×","tsunami":"×","kaji":"×","naisui":"○","kazan":"×"}}
,{"type":"Feature","geometry":{"type":"Point","coordinates":[131.904846,32.972849]},"properties":{"Name":"駅前区民会館","Jusho":"大分県佐伯市駅前2-1-18","kouzui":"○","gake":"○","takashio":"×","jishin":"×","tsunami":"×","kaji":"×","naisui":"○","kazan":"×"}}
,{"type":"Feature","geometry":{"type":"Point","coordinates":[131.900726,32.975631]},"properties":{"Name":"田の浦区民会館","Jusho":"大分県佐伯市田の浦町4-29","kouzui":"○","gake":"○","takashio":"×","jishin":"×","tsunami":"×","kaji":"×","naisui":"○","kazan":"×"}}
,{"type":"Feature","geometry":{"type":"Point","coordinates":[131.903388,32.977095]},"properties":{"Name":"葛港公民館","Jusho":"大分県佐伯市葛港3-15","kouzui":"○","gake":"○","takashio":"×","jishin":"×","tsunami":"×","kaji":"×","naisui":"○","kazan":"×"}}
,{"type":"Feature","geometry":{"type":"Point","coordinates":[131.904757,32.974974]},"properties":{"Name":"日の出クラブ","Jusho":"大分県佐伯市日の出町5-10","kouzui":"○","gake":"○","takashio":"×","jishin":"×","tsunami":"×","kaji":"×","naisui":"○","kazan":"×"}}
,{"type":"Feature","geometry":{"type":"Point","coordinates":[131.874333,32.960665]},"properties":{"Name":"鶴岡小学校体育館","Jusho":"大分県佐伯市鶴岡町3-7-1","kouzui":"○","gake":"○","takashio":"×","jishin":"×","tsunami":"×","kaji":"×","naisui":"○","kazan":"×"}}
,{"type":"Feature","geometry":{"type":"Point","coordinates":[131.875025,32.960642]},"properties":{"Name":"鶴岡小学校屋上","Jusho":"大分県佐伯市鶴岡町3-7-1","kouzui":"×","gake":"×","takashio":"×","jishin":"×","tsunami":"○","kaji":"×","naisui":"×","kazan":"×"}}
,{"type":"Feature","geometry":{"type":"Point","coordinates":[131.881921,32.938152]},"properties":{"Name":"上堅田地区公民館","Jusho":"大分県佐伯市大字長谷9682-11","kouzui":"○","gake":"○","takashio":"×","jishin":"×","tsunami":"×","kaji":"×","naisui":"○","kazan":"×"}}
,{"type":"Feature","geometry":{"type":"Point","coordinates":[131.83464,32.890989]},"properties":{"Name":"グリーンピア大越","Jusho":"大分県佐伯市大字長谷484ほか","kouzui":"○","gake":"○","takashio":"×","jishin":"○","tsunami":"○","kaji":"×","naisui":"○","kazan":"×"}}
,{"type":"Feature","geometry":{"type":"Point","coordinates":[131.900361,32.946558]},"properties":{"Name":"蛇崎公民館","Jusho":"大分県佐伯市大字池田1943-2","kouzui":"○","gake":"○","takashio":"×","jishin":"×","tsunami":"×","kaji":"×","naisui":"○","kazan":"×"}}
,{"type":"Feature","geometry":{"type":"Point","coordinates":[131.889099,33.000611]},"properties":{"Name":"八幡地区公民館","Jusho":"大分県佐伯市大字戸穴646","kouzui":"○","gake":"○","takashio":"×","jishin":"×","tsunami":"×","kaji":"×","naisui":"○","kazan":"×"}}
,{"type":"Feature","geometry":{"type":"Point","coordinates":[131.887697,32.988143]},"properties":{"Name":"片山公民館","Jusho":"大分県佐伯市大字海崎1021-1","kouzui":"○","gake":"○","takashio":"×","jishin":"×","tsunami":"×","kaji":"×","naisui":"○","kazan":"×"}}
,{"type":"Feature","geometry":{"type":"Point","coordinates":[131.888223,32.996465]},"properties":{"Name":"海崎駅前地区公民館","Jusho":"大分県佐伯市大字海崎3526-4","kouzui":"○","gake":"○","takashio":"×","jishin":"×","tsunami":"×","kaji":"×","naisui":"○","kazan":"×"}}
,{"type":"Feature","geometry":{"type":"Point","coordinates":[131.883123,32.998691]},"properties":{"Name":"中野公民館","Jusho":"大分県佐伯市大字海崎2651-1","kouzui":"○","gake":"○","takashio":"×","jishin":"×","tsunami":"×","kaji":"×","naisui":"○","kazan":"×"}}
,{"type":"Feature","geometry":{"type":"Point","coordinates":[131.889003,33.008944]},"properties":{"Name":"中の内公民館","Jusho":"大分県佐伯市大字戸穴2009-2","kouzui":"○","gake":"○","takashio":"×","jishin":"×","tsunami":"×","kaji":"×","naisui":"○","kazan":"×"}}
,{"type":"Feature","geometry":{"type":"Point","coordinates":[131.887361,33.00411]},"properties":{"Name":"河内区公民館","Jusho":"大分県佐伯市大字戸穴831-2","kouzui":"○","gake":"○","takashio":"×","jishin":"×","tsunami":"×","kaji":"×","naisui":"○","kazan":"×"}}
,{"type":"Feature","geometry":{"type":"Point","coordinates":[131.892712,33.008169]},"properties":{"Name":"新越公民館","Jusho":"大分県佐伯市大字戸穴2062-1","kouzui":"○","gake":"○","takashio":"×","jishin":"×","tsunami":"×","kaji":"×","naisui":"○","kazan":"×"}}
,{"type":"Feature","geometry":{"type":"Point","coordinates":[131.891014,33.011743]},"properties":{"Name":"宇戸区公民館","Jusho":"大分県佐伯市大字戸穴2155-1","kouzui":"○","gake":"○","takashio":"×","jishin":"×","tsunami":"×","kaji":"×","naisui":"○","kazan":"×"}}
,{"type":"Feature","geometry":{"type":"Point","coordinates":[131.890487,33.003285]},"properties":{"Name":"年の神公民館","Jusho":"大分県佐伯市大字戸穴1525","kouzui":"○","gake":"○","takashio":"×","jishin":"×","tsunami":"×","kaji":"×","naisui":"○","kazan":"×"}}
,{"type":"Feature","geometry":{"type":"Point","coordinates":[131.891901,33.002185]},"properties":{"Name":"折戸区公民館","Jusho":"大分県佐伯市大字戸穴184-8","kouzui":"○","gake":"○","takashio":"×","jishin":"×","tsunami":"×","kaji":"×","naisui":"○","kazan":"×"}}
,{"type":"Feature","geometry":{"type":"Point","coordinates":[131.89368,32.997982]},"properties":{"Name":"大宮公民館","Jusho":"大分県佐伯市大字戸穴249-4","kouzui":"○","gake":"○","takashio":"×","jishin":"×","tsunami":"×","kaji":"×","naisui":"○","kazan":"×"}}
,{"type":"Feature","geometry":{"type":"Point","coordinates":[131.90446,33.013801]},"properties":{"Name":"西上浦地区公民館","Jusho":"大分県佐伯市大字狩生1557-3","kouzui":"○","gake":"○","takashio":"×","jishin":"×","tsunami":"×","kaji":"×","naisui":"○","kazan":"×"}}
,{"type":"Feature","geometry":{"type":"Point","coordinates":[131.901665,33.015494]},"properties":{"Name":"旧西上浦小学校体育館","Jusho":"大分県佐伯市大字狩生389","kouzui":"○","gake":"○","takashio":"×","jishin":"×","tsunami":"×","kaji":"×","naisui":"○","kazan":"×"}}
,{"type":"Feature","geometry":{"type":"Point","coordinates":[131.902218,33.008216]},"properties":{"Name":"指夫公民館","Jusho":"大分県佐伯市大字護江348","kouzui":"○","gake":"○","takashio":"×","jishin":"×","tsunami":"×","kaji":"×","naisui":"○","kazan":"×"}}
,{"type":"Feature","geometry":{"type":"Point","coordinates":[131.900885,33.010265]},"properties":{"Name":"宮の内公民館","Jusho":"大分県佐伯市大字護江588-11","kouzui":"○","gake":"○","takashio":"×","jishin":"×","tsunami":"×","kaji":"×","naisui":"○","kazan":"×"}}
,{"type":"Feature","geometry":{"type":"Point","coordinates":[131.901408,33.017206]},"properties":{"Name":"狩生区公民館","Jusho":"大分県佐伯市大字狩生465-1","kouzui":"○","gake":"○","takashio":"×","jishin":"×","tsunami":"×","kaji":"×","naisui":"○","kazan":"×"}}
,{"type":"Feature","geometry":{"type":"Point","coordinates":[131.905187,33.017343]},"properties":{"Name":"車区公民館","Jusho":"大分県佐伯市大字狩生2039-2","kouzui":"○","gake":"○","takashio":"×","jishin":"×","tsunami":"×","kaji":"×","naisui":"○","kazan":"×"}}
,{"type":"Feature","geometry":{"type":"Point","coordinates":[131.90866,33.016511]},"properties":{"Name":"風無区公民館","Jusho":"大分県佐伯市大字護江912-6","kouzui":"○","gake":"○","takashio":"×","jishin":"×","tsunami":"×","kaji":"×","naisui":"○","kazan":"×"}}
,{"type":"Feature","geometry":{"type":"Point","coordinates":[131.912018,33.021085]},"properties":{"Name":"古江公民館","Jusho":"大分県佐伯市大字二栄1172-1","kouzui":"○","gake":"○","takashio":"×","jishin":"×","tsunami":"×","kaji":"×","naisui":"○","kazan":"×"}}
,{"type":"Feature","geometry":{"type":"Point","coordinates":[131.92301,32.998128]},"properties":{"Name":"マリンハウス海人夏館","Jusho":"大分県佐伯市大字久保浦1059-13","kouzui":"○","gake":"○","takashio":"×","jishin":"×","tsunami":"×","kaji":"×","naisui":"○","kazan":"×"}}
,{"type":"Feature","geometry":{"type":"Point","coordinates":[131.939318,32.993682]},"properties":{"Name":"荒綱代地区漁村センター","Jusho":"大分県佐伯市大字荒綱代浦1003","kouzui":"○","gake":"○","takashio":"×","jishin":"×","tsunami":"×","kaji":"×","naisui":"○","kazan":"×"}}
,{"type":"Feature","geometry":{"type":"Point","coordinates":[131.931625,32.920117]},"properties":{"Name":"木立小学校体育館","Jusho":"大分県佐伯市大字木立4480","kouzui":"○","gake":"○","takashio":"×","jishin":"×","tsunami":"×","kaji":"×","naisui":"○","kazan":"×"}}
,{"type":"Feature","geometry":{"type":"Point","coordinates":[131.930945904698,32.9200383491349]},"properties":{"Name":"木立小学校管理・教室・特別教室棟","Jusho":"大分県佐伯市大字木立4480","kouzui":"○","gake":"○","takashio":"×","jishin":"○","tsunami":"○","kaji":"×","naisui":"○","kazan":"×"}}
,{"type":"Feature","geometry":{"type":"Point","coordinates":[131.929242,32.923992]},"properties":{"Name":"木立地区公民館","Jusho":"大分県佐伯市大字木立890","kouzui":"○","gake":"○","takashio":"×","jishin":"×","tsunami":"×","kaji":"×","naisui":"○","kazan":"×"}}
,{"type":"Feature","geometry":{"type":"Point","coordinates":[131.926105,32.919514]},"properties":{"Name":"西の平生活改善センター","Jusho":"大分県佐伯市大字木立1390-3","kouzui":"○","gake":"○","takashio":"×","jishin":"×","tsunami":"×","kaji":"×","naisui":"○","kazan":"×"}}
,{"type":"Feature","geometry":{"type":"Point","coordinates":[131.926599,32.916834]},"properties":{"Name":"桟敷中区センター","Jusho":"大分県佐伯市大字木立1547-1","kouzui":"○","gake":"○","takashio":"×","jishin":"×","tsunami":"×","kaji":"×","naisui":"○","kazan":"×"}}
,{"type":"Feature","geometry":{"type":"Point","coordinates":[131.928637,32.911626]},"properties":{"Name":"永野地区林業集会センター","Jusho":"大分県佐伯市大字木立1929-3","kouzui":"○","gake":"○","takashio":"×","jishin":"×","tsunami":"×","kaji":"×","naisui":"○","kazan":"×"}}
,{"type":"Feature","geometry":{"type":"Point","coordinates":[131.933253,32.901918]},"properties":{"Name":"大中尾公民館","Jusho":"大分県佐伯市大字木立2269-1","kouzui":"○","gake":"○","takashio":"×","jishin":"×","tsunami":"×","kaji":"×","naisui":"○","kazan":"×"}}
,{"type":"Feature","geometry":{"type":"Point","coordinates":[131.934852,32.91776]},"properties":{"Name":"中野河内生活改善センター","Jusho":"大分県佐伯市大字木立3584-5","kouzui":"○","gake":"○","takashio":"×","jishin":"×","tsunami":"×","kaji":"×","naisui":"○","kazan":"×"}}
,{"type":"Feature","geometry":{"type":"Point","coordinates":[131.875463,32.926047]},"properties":{"Name":"下堅田地区公民館","Jusho":"大分県佐伯市大字堅田5975-1","kouzui":"×","gake":"○","takashio":"×","jishin":"×","tsunami":"×","kaji":"×","naisui":"×","kazan":"×"}}
,{"type":"Feature","geometry":{"type":"Point","coordinates":[131.875783,32.925115]},"properties":{"Name":"下堅田小学校管理・教室・特別教室棟","Jusho":"大分県佐伯市大字堅田5521","kouzui":"○","gake":"○","takashio":"×","jishin":"○","tsunami":"○","kaji":"×","naisui":"○","kazan":"×"}}
,{"type":"Feature","geometry":{"type":"Point","coordinates":[131.867223,32.927581]},"properties":{"Name":"佐伯市総合運動公園弓道場","Jusho":"大分県佐伯市大字長谷2614","kouzui":"○","gake":"○","takashio":"×","jishin":"×","tsunami":"×","kaji":"×","naisui":"○","kazan":"×"}}
,{"type":"Feature","geometry":{"type":"Point","coordinates":[131.8745825,32.929774]},"properties":{"Name":"汐月公民館","Jusho":"大分県佐伯市大字長良564","kouzui":"○","gake":"○","takashio":"×","jishin":"×","tsunami":"×","kaji":"×","naisui":"○","kazan":"×"}}
,{"type":"Feature","geometry":{"type":"Point","coordinates":[131.902928,32.930298]},"properties":{"Name":"津志河内公民館","Jusho":"大分県佐伯市大字長良3808-3","kouzui":"○","gake":"○","takashio":"×","jishin":"×","tsunami":"×","kaji":"×","naisui":"○","kazan":"×"}}
,{"type":"Feature","geometry":{"type":"Point","coordinates":[131.873115,32.883655]},"properties":{"Name":"青山小学校管理・教室・特別教室棟","Jusho":"大分県佐伯市大字青山2691-1","kouzui":"○","gake":"○","takashio":"×","jishin":"○","tsunami":"○","kaji":"×","naisui":"○","kazan":"×"}}
,{"type":"Feature","geometry":{"type":"Point","coordinates":[131.871912,32.883408]},"properties":{"Name":"青山地区公民館","Jusho":"大分県佐伯市大字青山5463-1","kouzui":"○","gake":"○","takashio":"×","jishin":"×","tsunami":"×","kaji":"×","naisui":"○","kazan":"×"}}
,{"type":"Feature","geometry":{"type":"Point","coordinates":[131.87988,32.879601]},"properties":{"Name":"谷川地区林業集会センター","Jusho":"大分県佐伯市大字青山2212","kouzui":"×","gake":"×","takashio":"×","jishin":"○","tsunami":"○","kaji":"×","naisui":"×","kazan":"×"}}
,{"type":"Feature","geometry":{"type":"Point","coordinates":[131.862725,32.86704]},"properties":{"Name":"黒沢生活改善センター","Jusho":"大分県佐伯市大字青山4740-1","kouzui":"○","gake":"○","takashio":"×","jishin":"○","tsunami":"○","kaji":"×","naisui":"○","kazan":"×"}}
,{"type":"Feature","geometry":{"type":"Point","coordinates":[131.993611,33.056499]},"properties":{"Name":"蒲戸地区公民館","Jusho":"大分県佐伯市上浦大字最勝海浦1557","kouzui":"○","gake":"○","takashio":"×","jishin":"×","tsunami":"×","kaji":"×","naisui":"○","kazan":"×"}}
,{"type":"Feature","geometry":{"type":"Point","coordinates":[131.956277,33.051596]},"properties":{"Name":"長田公民館","Jusho":"大分県佐伯市上浦大字最勝海浦3740","kouzui":"○","gake":"○","takashio":"×","jishin":"×","tsunami":"×","kaji":"×","naisui":"○","kazan":"×"}}
,{"type":"Feature","geometry":{"type":"Point","coordinates":[131.944422,33.05355]},"properties":{"Name":"夏井地区コミュニティーセンター","Jusho":"大分県佐伯市上浦大字最勝海浦5388-3","kouzui":"○","gake":"○","takashio":"×","jishin":"×","tsunami":"×","kaji":"×","naisui":"○","kazan":"×"}}
,{"type":"Feature","geometry":{"type":"Point","coordinates":[131.929737,33.052821]},"properties":{"Name":"津井地区公民館","Jusho":"大分県佐伯市上浦大字津井浦1460-6","kouzui":"○","gake":"○","takashio":"×","jishin":"×","tsunami":"×","kaji":"×","naisui":"○","kazan":"×"}}
,{"type":"Feature","geometry":{"type":"Point","coordinates":[131.928235,33.051587]},"properties":{"Name":"佐伯市上浦活性化センター","Jusho":"大分県佐伯市上浦大字津井浦1460-12","kouzui":"○","gake":"○","takashio":"×","jishin":"×","tsunami":"×","kaji":"×","naisui":"○","kazan":"×"}}
,{"type":"Feature","geometry":{"type":"Point","coordinates":[131.924861,33.045966]},"properties":{"Name":"東雲小学校体育館","Jusho":"大分県佐伯市上浦大字浅海井浦3","kouzui":"○","gake":"○","takashio":"×","jishin":"×","tsunami":"×","kaji":"×","naisui":"○","kazan":"×"}}
,{"type":"Feature","geometry":{"type":"Point","coordinates":[131.92566,33.045248]},"properties":{"Name":"東雲中学校体育館","Jusho":"大分県佐伯市上浦大字浅海井浦2","kouzui":"○","gake":"○","takashio":"×","jishin":"×","tsunami":"×","kaji":"×","naisui":"○","kazan":"×"}}
,{"type":"Feature","geometry":{"type":"Point","coordinates":[131.926224891529,33.045166482595]},"properties":{"Name":"東雲中学校管理教室棟","Jusho":"大分県佐伯市上浦大字浅海井浦2","kouzui":"○","gake":"○","takashio":"×","jishin":"×","tsunami":"×","kaji":"×","naisui":"○","kazan":"×"}}
,{"type":"Feature","geometry":{"type":"Point","coordinates":[131.92014,33.04294]},"properties":{"Name":"浅海井公民館","Jusho":"大分県佐伯市上浦大字浅海井浦457-2","kouzui":"○","gake":"○","takashio":"×","jishin":"×","tsunami":"×","kaji":"×","naisui":"○","kazan":"×"}}
,{"type":"Feature","geometry":{"type":"Point","coordinates":[131.92039,33.041596]},"properties":{"Name":"佐伯市上浦地域福祉センター","Jusho":"大分県佐伯市上浦大字浅海井浦489-10","kouzui":"○","gake":"○","takashio":"×","jishin":"×","tsunami":"×","kaji":"×","naisui":"○","kazan":"×"}}
,{"type":"Feature","geometry":{"type":"Point","coordinates":[131.920792,33.042248]},"properties":{"Name":"上浦保健センター","Jusho":"大分県佐伯市上浦大字浅海井浦489-10","kouzui":"○","gake":"○","takashio":"×","jishin":"×","tsunami":"×","kaji":"×","naisui":"○","kazan":"×"}}
,{"type":"Feature","geometry":{"type":"Point","coordinates":[131.919464,33.029321]},"properties":{"Name":"浪太公民館","Jusho":"大分県佐伯市上浦大字浅海井浦3569-2","kouzui":"○","gake":"○","takashio":"×","jishin":"×","tsunami":"×","kaji":"×","naisui":"○","kazan":"×"}}
,{"type":"Feature","geometry":{"type":"Point","coordinates":[131.8613,33.003369]},"properties":{"Name":"床木２地区活動促進施設","Jusho":"大分県佐伯市弥生大字床木2681-1","kouzui":"×","gake":"×","takashio":"×","jishin":"○","tsunami":"○","kaji":"×","naisui":"×","kazan":"×"}}
,{"type":"Feature","geometry":{"type":"Point","coordinates":[131.861325,32.987493]},"properties":{"Name":"床木第４生活改善センター","Jusho":"大分県佐伯市弥生大字床木293-2","kouzui":"×","gake":"×","takashio":"×","jishin":"○","tsunami":"○","kaji":"×","naisui":"×","kazan":"×"}}
,{"type":"Feature","geometry":{"type":"Point","coordinates":[131.849016,32.981875]},"properties":{"Name":"明治小学校体育館","Jusho":"大分県佐伯市弥生大字大坂本1135","kouzui":"○","gake":"○","takashio":"×","jishin":"○","tsunami":"○","kaji":"×","naisui":"○","kazan":"×"}}
,{"type":"Feature","geometry":{"type":"Point","coordinates":[131.853557,32.981063]},"properties":{"Name":"竹峯切水高齢者活動促進センター","Jusho":"大分県佐伯市弥生大字大坂本598-1","kouzui":"×","gake":"×","takashio":"×","jishin":"○","tsunami":"○","kaji":"×","naisui":"×","kazan":"×"}}
,{"type":"Feature","geometry":{"type":"Point","coordinates":[131.849713,32.97936]},"properties":{"Name":"大坂本地区避難施設","Jusho":"大分県佐伯市弥生大字大坂本993-2","kouzui":"○","gake":"○","takashio":"×","jishin":"○","tsunami":"○","kaji":"×","naisui":"○","kazan":"×"}}
,{"type":"Feature","geometry":{"type":"Point","coordinates":[131.829516,32.987817]},"properties":{"Name":"尺間地区体育館","Jusho":"大分県佐伯市弥生大字尺間538","kouzui":"×","gake":"×","takashio":"×","jishin":"○","tsunami":"○","kaji":"×","naisui":"×","kazan":"×"}}
,{"type":"Feature","geometry":{"type":"Point","coordinates":[131.827239,32.989671]},"properties":{"Name":"尺間第１集会施設","Jusho":"大分県佐伯市弥生大字尺間636-1","kouzui":"×","gake":"×","takashio":"×","jishin":"○","tsunami":"○","kaji":"×","naisui":"×","kazan":"×"}}
,{"type":"Feature","geometry":{"type":"Point","coordinates":[131.794257,33.00831]},"properties":{"Name":"宇藤木地区集会施設","Jusho":"大分県佐伯市弥生大字尺間2120-1","kouzui":"×","gake":"×","takashio":"×","jishin":"○","tsunami":"○","kaji":"×","naisui":"×","kazan":"×"}}
,{"type":"Feature","geometry":{"type":"Point","coordinates":[131.848002,32.977958]},"properties":{"Name":"石丸第１区公民館","Jusho":"大分県佐伯市弥生大字井崎1792-3","kouzui":"×","gake":"×","takashio":"×","jishin":"○","tsunami":"○","kaji":"×","naisui":"×","kazan":"×"}}
,{"type":"Feature","geometry":{"type":"Point","coordinates":[131.845387,32.977222]},"properties":{"Name":"石丸第２区公民館","Jusho":"大分県佐伯市弥生大字井崎1579-5","kouzui":"○","gake":"○","takashio":"×","jishin":"○","tsunami":"○","kaji":"×","naisui":"○","kazan":"×"}}
,{"type":"Feature","geometry":{"type":"Point","coordinates":[131.843504,32.975274]},"properties":{"Name":"石丸第３区公民館","Jusho":"大分県佐伯市弥生大字井崎1535-1","kouzui":"○","gake":"○","takashio":"×","jishin":"×","tsunami":"×","kaji":"×","naisui":"○","kazan":"×"}}
,{"type":"Feature","geometry":{"type":"Point","coordinates":[131.842303,32.96934]},"properties":{"Name":"昭和中学校","Jusho":"大分県佐伯市弥生大字井崎781","kouzui":"×","gake":"×","takashio":"×","jishin":"○","tsunami":"○","kaji":"×","naisui":"×","kazan":"×"}}
,{"type":"Feature","geometry":{"type":"Point","coordinates":[131.847844,32.978671]},"properties":{"Name":"木ノ瀬住宅集会施設","Jusho":"大分県佐伯市弥生大字井崎1798-13","kouzui":"○","gake":"○","takashio":"×","jishin":"○","tsunami":"○","kaji":"×","naisui":"○","kazan":"×"}}
,{"type":"Feature","geometry":{"type":"Point","coordinates":[131.841744,32.960602]},"properties":{"Name":"小田公民館","Jusho":"大分県佐伯市弥生大字小田102-2","kouzui":"○","gake":"○","takashio":"×","jishin":"○","tsunami":"○","kaji":"×","naisui":"○","kazan":"×"}}
,{"type":"Feature","geometry":{"type":"Point","coordinates":[131.839937,32.967443]},"properties":{"Name":"弥生文化会館","Jusho":"大分県佐伯市弥生大字上小倉1157-2","kouzui":"×","gake":"×","takashio":"×","jishin":"○","tsunami":"○","kaji":"×","naisui":"×","kazan":"×"}}
,{"type":"Feature","geometry":{"type":"Point","coordinates":[131.84113,32.968998]},"properties":{"Name":"武道場（弥生スポーツ公園）","Jusho":"大分県佐伯市弥生大字上小倉1211","kouzui":"×","gake":"×","takashio":"×","jishin":"○","tsunami":"○","kaji":"×","naisui":"×","kazan":"×"}}
,{"type":"Feature","geometry":{"type":"Point","coordinates":[131.84091,32.968809]},"properties":{"Name":"弥生児童館","Jusho":"大分県佐伯市弥生大字上小倉1211","kouzui":"×","gake":"×","takashio":"×","jishin":"○","tsunami":"○","kaji":"×","naisui":"×","kazan":"×"}}
,{"type":"Feature","geometry":{"type":"Point","coordinates":[131.840733,32.969241]},"properties":{"Name":"弥生老人デイサービスセンター","Jusho":"大分県佐伯市弥生大字上小倉1208","kouzui":"×","gake":"×","takashio":"×","jishin":"○","tsunami":"○","kaji":"×","naisui":"×","kazan":"×"}}
,{"type":"Feature","geometry":{"type":"Point","coordinates":[131.838738,32.964994]},"properties":{"Name":"道の駅やよい","Jusho":"大分県佐伯市弥生大字上小倉898-1","kouzui":"○","gake":"○","takashio":"×","jishin":"○","tsunami":"○","kaji":"×","naisui":"○","kazan":"×"}}
,{"type":"Feature","geometry":{"type":"Point","coordinates":[131.834521,32.970454]},"properties":{"Name":"上野小学校体育館","Jusho":"大分県佐伯市大字上小倉456","kouzui":"○","gake":"○","takashio":"×","jishin":"○","tsunami":"○","kaji":"×","naisui":"○","kazan":"×"}}
,{"type":"Feature","geometry":{"type":"Point","coordinates":[131.826579,32.97042]},"properties":{"Name":"山梨子研修施設","Jusho":"大分県佐伯市弥生大字山梨子1292","kouzui":"×","gake":"×","takashio":"×","jishin":"○","tsunami":"○","kaji":"×","naisui":"×","kazan":"×"}}
,{"type":"Feature","geometry":{"type":"Point","coordinates":[131.838361530457,32.9531985040914]},"properties":{"Name":"切畑小学校体育館","Jusho":"大分県佐伯市弥生大字門田1328","kouzui":"○","gake":"○","takashio":"×","jishin":"○","tsunami":"○","kaji":"×","naisui":"○","kazan":"×"}}
,{"type":"Feature","geometry":{"type":"Point","coordinates":[131.829892,32.958491]},"properties":{"Name":"細田公民館","Jusho":"大分県佐伯市弥生大字細田1158-3","kouzui":"×","gake":"×","takashio":"×","jishin":"○","tsunami":"○","kaji":"×","naisui":"×","kazan":"×"}}
,{"type":"Feature","geometry":{"type":"Point","coordinates":[131.831799,32.942146]},"properties":{"Name":"祇園公民館","Jusho":"大分県佐伯市弥生大字江良2005","kouzui":"○","gake":"○","takashio":"×","jishin":"×","tsunami":"×","kaji":"×","naisui":"○","kazan":"×"}}
,{"type":"Feature","geometry":{"type":"Point","coordinates":[131.828532,32.940797]},"properties":{"Name":"江良公民館","Jusho":"大分県佐伯市弥生大字江良1355-1","kouzui":"○","gake":"○","takashio":"×","jishin":"×","tsunami":"×","kaji":"×","naisui":"○","kazan":"×"}}
,{"type":"Feature","geometry":{"type":"Point","coordinates":[131.827692,32.938911]},"properties":{"Name":"久保公民館","Jusho":"大分県佐伯市弥生大字江良1048-2","kouzui":"○","gake":"○","takashio":"×","jishin":"○","tsunami":"○","kaji":"×","naisui":"○","kazan":"×"}}
,{"type":"Feature","geometry":{"type":"Point","coordinates":[131.806323,32.951662]},"properties":{"Name":"笠掛生活改善センター","Jusho":"大分県佐伯市本匠大字笠掛251","kouzui":"○","gake":"○","takashio":"×","jishin":"×","tsunami":"×","kaji":"×","naisui":"○","kazan":"×"}}
,{"type":"Feature","geometry":{"type":"Point","coordinates":[131.789560463013,32.9518716584772]},"properties":{"Name":"本匠地区公民館","Jusho":"大分県佐伯市本匠大字宇津々2001","kouzui":"○","gake":"○","takashio":"×","jishin":"×","tsunami":"○","kaji":"×","naisui":"○","kazan":"×"}}
,{"type":"Feature","geometry":{"type":"Point","coordinates":[131.785657,32.945385]},"properties":{"Name":"波寄生活改善センター","Jusho":"大分県佐伯市本匠大字波寄2354-10","kouzui":"×","gake":"×","takashio":"×","jishin":"○","tsunami":"○","kaji":"×","naisui":"×","kazan":"×"}}
,{"type":"Feature","geometry":{"type":"Point","coordinates":[131.753226,32.948133]},"properties":{"Name":"小半公民館","Jusho":"大分県佐伯市本匠大字小半1310-1","kouzui":"○","gake":"○","takashio":"×","jishin":"×","tsunami":"×","kaji":"×","naisui":"○","kazan":"×"}}
,{"type":"Feature","geometry":{"type":"Point","coordinates":[131.733979,32.944721]},"properties":{"Name":"井ノ上公民館","Jusho":"大分県佐伯市本匠大字井ノ上378-1","kouzui":"○","gake":"○","takashio":"×","jishin":"×","tsunami":"×","kaji":"×","naisui":"○","kazan":"×"}}
,{"type":"Feature","geometry":{"type":"Point","coordinates":[131.711912,32.930973]},"properties":{"Name":"堂ノ間地区ふれあいセンター","Jusho":"大分県佐伯市本匠大字堂ノ間309-1","kouzui":"○","gake":"○","takashio":"×","jishin":"○","tsunami":"○","kaji":"×","naisui":"○","kazan":"×"}}
,{"type":"Feature","geometry":{"type":"Point","coordinates":[131.712427,32.928029]},"properties":{"Name":"本匠体育館","Jusho":"大分県佐伯市本匠大字堂ノ間1064","kouzui":"○","gake":"○","takashio":"×","jishin":"×","tsunami":"×","kaji":"×","naisui":"○","kazan":"×"}}
,{"type":"Feature","geometry":{"type":"Point","coordinates":[131.71265,32.928355]},"properties":{"Name":"本匠西地区公民館","Jusho":"大分県佐伯市本匠大字堂ノ間1066","kouzui":"○","gake":"○","takashio":"×","jishin":"×","tsunami":"×","kaji":"×","naisui":"○","kazan":"×"}}
,{"type":"Feature","geometry":{"type":"Point","coordinates":[131.67096,32.932961]},"properties":{"Name":"山部地区公民館","Jusho":"大分県佐伯市本匠大字山部598-1","kouzui":"○","gake":"○","takashio":"×","jishin":"×","tsunami":"×","kaji":"×","naisui":"○","kazan":"×"}}
,{"type":"Feature","geometry":{"type":"Point","coordinates":[131.624687,32.910313]},"properties":{"Name":"樫峯地区集会所","Jusho":"大分県佐伯市本匠大字山部1953-2","kouzui":"○","gake":"○","takashio":"×","jishin":"×","tsunami":"×","kaji":"×","naisui":"○","kazan":"×"}}
,{"type":"Feature","geometry":{"type":"Point","coordinates":[131.696208,32.875638]},"properties":{"Name":"神田生活改善センター","Jusho":"大分県佐伯市宇目大字河内1551-1","kouzui":"○","gake":"○","takashio":"×","jishin":"×","tsunami":"×","kaji":"×","naisui":"○","kazan":"×"}}
,{"type":"Feature","geometry":{"type":"Point","coordinates":[131.650326,32.848999]},"properties":{"Name":"河尻集会センター","Jusho":"大分県佐伯市宇目大字千束726-1","kouzui":"○","gake":"○","takashio":"×","jishin":"○","tsunami":"○","kaji":"×","naisui":"○","kazan":"×"}}
,{"type":"Feature","geometry":{"type":"Point","coordinates":[131.680455,32.854673]},"properties":{"Name":"岩崎集会センター","Jusho":"大分県佐伯市宇目大字千束2077","kouzui":"×","gake":"×","takashio":"×","jishin":"○","tsunami":"○","kaji":"×","naisui":"×","kazan":"×"}}
,{"type":"Feature","geometry":{"type":"Point","coordinates":[131.682443,32.858469]},"properties":{"Name":"柿木公民館","Jusho":"大分県佐伯市宇目大字千束2899","kouzui":"×","gake":"×","takashio":"×","jishin":"○","tsunami":"○","kaji":"×","naisui":"×","kazan":"×"}}
,{"type":"Feature","geometry":{"type":"Point","coordinates":[131.690884,32.850754]},"properties":{"Name":"塩見公民館","Jusho":"大分県佐伯市宇目大字塩見園820-2","kouzui":"○","gake":"○","takashio":"×","jishin":"○","tsunami":"○","kaji":"×","naisui":"○","kazan":"×"}}
,{"type":"Feature","geometry":{"type":"Point","coordinates":[131.693287,32.856541]},"properties":{"Name":"花木公民館","Jusho":"大分県佐伯市宇目大字塩見園1752-1","kouzui":"○","gake":"○","takashio":"×","jishin":"×","tsunami":"×","kaji":"×","naisui":"○","kazan":"×"}}
,{"type":"Feature","geometry":{"type":"Point","coordinates":[131.695706,32.859686]},"properties":{"Name":"上爪生活改善センター","Jusho":"大分県佐伯市宇目大字塩見園2163","kouzui":"○","gake":"○","takashio":"×","jishin":"×","tsunami":"×","kaji":"×","naisui":"○","kazan":"×"}}
,{"type":"Feature","geometry":{"type":"Point","coordinates":[131.678272,32.847897]},"properties":{"Name":"宇目Ｂ＆Ｇ海洋センター","Jusho":"大分県佐伯市宇目大字塩見園10","kouzui":"○","gake":"○","takashio":"×","jishin":"○","tsunami":"○","kaji":"×","naisui":"○","kazan":"×"}}
,{"type":"Feature","geometry":{"type":"Point","coordinates":[131.718505,32.845862]},"properties":{"Name":"大原公民館","Jusho":"大分県佐伯市宇目大字大平1666","kouzui":"×","gake":"×","takashio":"×","jishin":"○","tsunami":"○","kaji":"×","naisui":"×","kazan":"×"}}
,{"type":"Feature","geometry":{"type":"Point","coordinates":[131.671175,32.837335]},"properties":{"Name":"重岡集会センター","Jusho":"大分県佐伯市宇目大字重岡319-4","kouzui":"○","gake":"○","takashio":"×","jishin":"○","tsunami":"○","kaji":"×","naisui":"○","kazan":"×"}}
,{"type":"Feature","geometry":{"type":"Point","coordinates":[131.674903,32.843904]},"properties":{"Name":"市園公民館","Jusho":"大分県佐伯市宇目大字重岡713","kouzui":"○","gake":"○","takashio":"×","jishin":"○","tsunami":"○","kaji":"×","naisui":"○","kazan":"×"}}
,{"type":"Feature","geometry":{"type":"Point","coordinates":[131.656911,32.826677]},"properties":{"Name":"小野公民館","Jusho":"大分県佐伯市宇目大字重岡1601-1","kouzui":"○","gake":"○","takashio":"×","jishin":"×","tsunami":"×","kaji":"×","naisui":"○","kazan":"×"}}
,{"type":"Feature","geometry":{"type":"Point","coordinates":[131.64306,32.830792]},"properties":{"Name":"蔵小野公民館","Jusho":"大分県佐伯市宇目大字重岡1953-1","kouzui":"○","gake":"○","takashio":"×","jishin":"○","tsunami":"○","kaji":"×","naisui":"○","kazan":"×"}}
,{"type":"Feature","geometry":{"type":"Point","coordinates":[131.664791,32.827396]},"properties":{"Name":"田野公民館","Jusho":"大分県佐伯市宇目大字重岡2772-3","kouzui":"○","gake":"○","takashio":"×","jishin":"○","tsunami":"○","kaji":"×","naisui":"○","kazan":"×"}}
,{"type":"Feature","geometry":{"type":"Point","coordinates":[131.633509,32.864392]},"properties":{"Name":"釘戸公民館","Jusho":"大分県佐伯市宇目大字小野市2144-2","kouzui":"○","gake":"○","takashio":"×","jishin":"○","tsunami":"○","kaji":"×","naisui":"○","kazan":"×"}}
,{"type":"Feature","geometry":{"type":"Point","coordinates":[131.630751,32.856297]},"properties":{"Name":"小野市集会センター","Jusho":"大分県佐伯市宇目大字小野市2867-1","kouzui":"○","gake":"○","takashio":"×","jishin":"○","tsunami":"○","kaji":"×","naisui":"○","kazan":"×"}}
,{"type":"Feature","geometry":{"type":"Point","coordinates":[131.630295,32.854112]},"properties":{"Name":"楢野木公民館","Jusho":"大分県佐伯市宇目大字小野市3425","kouzui":"○","gake":"○","takashio":"×","jishin":"○","tsunami":"○","kaji":"×","naisui":"○","kazan":"×"}}
,{"type":"Feature","geometry":{"type":"Point","coordinates":[131.630169,32.849578]},"properties":{"Name":"中津留公民館","Jusho":"大分県佐伯市宇目大字小野市4004-2ほか","kouzui":"○","gake":"○","takashio":"×","jishin":"×","tsunami":"×","kaji":"×","naisui":"○","kazan":"×"}}
,{"type":"Feature","geometry":{"type":"Point","coordinates":[131.619446,32.852424]},