var okinawa={"type":"FeatureCollection","name":"okinawa","features":[
{"type":"Feature","geometry":{"type":"Point","coordinates":[127.68622625,26.21232498]},"properties":{"Name":"松尾公園","Jusho":"沖縄県那覇市松尾2-6","kouzui":"○","gake":"○","takashio":"○","jishin":"×","tsunami":"○","kaji":"×","naisui":"×","kazan":"×"}}
,{"type":"Feature","geometry":{"type":"Point","coordinates":[127.68699786,26.20680625]},"properties":{"Name":"中央公園","Jusho":"沖縄県那覇市樋川1-15","kouzui":"○","gake":"○","takashio":"○","jishin":"×","tsunami":"○","kaji":"×","naisui":"×","kazan":"×"}}
,{"type":"Feature","geometry":{"type":"Point","coordinates":[127.677230595568,26.2183698017216]},"properties":{"Name":"松山公演","Jusho":"沖縄県那覇市松山1-17","kouzui":"○","gake":"○","takashio":"○","jishin":"×","tsunami":"○","kaji":"×","naisui":"×","kazan":"×"}}
,{"type":"Feature","geometry":{"type":"Point","coordinates":[127.68503093,26.2171919]},"properties":{"Name":"緑ヶ丘公園","Jusho":"沖縄県那覇市牧志1-4","kouzui":"○","gake":"○","takashio":"○","jishin":"×","tsunami":"○","kaji":"×","naisui":"×","kazan":"×"}}
,{"type":"Feature","geometry":{"type":"Point","coordinates":[127.68853657,26.23179808]},"properties":{"Name":"天久ちゅらまち公園","Jusho":"沖縄県那覇市天久1-3","kouzui":"○","gake":"○","takashio":"○","jishin":"×","tsunami":"○","kaji":"×","naisui":"×","kazan":"×"}}
,{"type":"Feature","geometry":{"type":"Point","coordinates":[127.69579706,26.22895485]},"properties":{"Name":"新都心公園","Jusho":"沖縄県那覇市おもろまち3-2-1","kouzui":"○","gake":"○","takashio":"○","jishin":"×","tsunami":"○","kaji":"×","naisui":"×","kazan":"×"}}
,{"type":"Feature","geometry":{"type":"Point","coordinates":[127.69262235,26.20855994]},"properties":{"Name":"与儀公園","Jusho":"沖縄県那覇市寄宮1-1","kouzui":"○","gake":"○","takashio":"○","jishin":"×","tsunami":"○","kaji":"×","naisui":"×","kazan":"×"}}
,{"type":"Feature","geometry":{"type":"Point","coordinates":[127.70121432626,26.2261735460403]},"properties":{"Name":"真嘉比西公園","Jusho":"沖縄県那覇市真嘉比2-7","kouzui":"○","gake":"○","takashio":"○","jishin":"×","tsunami":"○","kaji":"×","naisui":"×","kazan":"×"}}
,{"type":"Feature","geometry":{"type":"Point","coordinates":[127.701933763803,26.2229372378481]},"properties":{"Name":"真嘉比南公園","Jusho":"沖縄県那覇市真嘉比1-19","kouzui":"○","gake":"○","takashio":"○","jishin":"×","tsunami":"○","kaji":"×","naisui":"×","kazan":"×"}}
,{"type":"Feature","geometry":{"type":"Point","coordinates":[127.704253271,26.2237187775129]},"properties":{"Name":"真嘉比中央公園","Jusho":"沖縄県那覇市真嘉比1-3-1","kouzui":"○","gake":"○","takashio":"○","jishin":"×","tsunami":"○","kaji":"×","naisui":"×","kazan":"×"}}
,{"type":"Feature","geometry":{"type":"Point","coordinates":[127.72250502,26.22306613]},"properties":{"Name":"虎瀬公園","Jusho":"沖縄県那覇市首里赤平町2-68","kouzui":"○","gake":"○","takashio":"○","jishin":"×","tsunami":"○","kaji":"×","naisui":"×","kazan":"×"}}
,{"type":"Feature","geometry":{"type":"Point","coordinates":[127.71565074,26.22848118]},"properties":{"Name":"末吉公園","Jusho":"沖縄県那覇市首里末吉町1-3-1","kouzui":"○","gake":"○","takashio":"○","jishin":"×","tsunami":"○","kaji":"×","naisui":"×","kazan":"×"}}
,{"type":"Feature","geometry":{"type":"Point","coordinates":[127.66422156,26.18551853]},"properties":{"Name":"高前原公園","Jusho":"沖縄県那覇市高良2-5","kouzui":"○","gake":"○","takashio":"○","jishin":"×","tsunami":"○","kaji":"×","naisui":"×","kazan":"×"}}
,{"type":"Feature","geometry":{"type":"Point","coordinates":[127.66573926,26.19921678]},"properties":{"Name":"小禄金城公園","Jusho":"沖縄県那覇市金城3-2-1","kouzui":"○","gake":"○","takashio":"○","jishin":"×","tsunami":"○","kaji":"×","naisui":"×","kazan":"×"}}
,{"type":"Feature","geometry":{"type":"Point","coordinates":[127.669219677168,26.1961717500135]},"properties":{"Name":"田原公園","Jusho":"沖縄県那覇市田原3-4-1","kouzui":"○","gake":"○","takashio":"○","jishin":"×","tsunami":"○","kaji":"×","naisui":"×","kazan":"×"}}
,{"type":"Feature","geometry":{"type":"Point","coordinates":[127.77931726802,26.280099128812]},"properties":{"Name":"あすなろ児童公園","Jusho":"沖縄県宜野湾市野嵩1-12-1","kouzui":"×","gake":"○","takashio":"○","jishin":"○","tsunami":"○","kaji":"×","naisui":"×","kazan":"×"}}
,{"type":"Feature","geometry":{"type":"Point","coordinates":[127.78135302026,26.279054173391]},"properties":{"Name":"まつのおか児童公園","Jusho":"沖縄県宜野湾市野嵩1-6-1","kouzui":"×","gake":"○","takashio":"○","jishin":"○","tsunami":"○","kaji":"×","naisui":"×","kazan":"×"}}
,{"type":"Feature","geometry":{"type":"Point","coordinates":[127.78176803716,26.284397779015]},"properties":{"Name":"きさらぎ児童公園","Jusho":"沖縄県宜野湾市野嵩1-43","kouzui":"×","gake":"○","takashio":"○","jishin":"○","tsunami":"○","kaji":"×","naisui":"×","kazan":"×"}}
,{"type":"Feature","geometry":{"type":"Point","coordinates":[127.78336740363,26.287926261909]},"properties":{"Name":"のだけ公園","Jusho":"沖縄県宜野湾市野嵩3-15-45","kouzui":"×","gake":"○","takashio":"○","jishin":"○","tsunami":"○","kaji":"×","naisui":"×","kazan":"×"}}
,{"type":"Feature","geometry":{"type":"Point","coordinates":[127.78406668675,26.291437291408]},"properties":{"Name":"ひがし児童公園","Jusho":"沖縄県宜野湾市野嵩4-23-17","kouzui":"×","gake":"○","takashio":"○","jishin":"○","tsunami":"○","kaji":"×","naisui":"×","kazan":"×"}}
,{"type":"Feature","geometry":{"type":"Point","coordinates":[127.77999741521,26.292737023766]},"properties":{"Name":"ふてんま公園","Jusho":"沖縄県宜野湾市普天間1-22-22","kouzui":"×","gake":"○","takashio":"○","jishin":"○","tsunami":"○","kaji":"×","naisui":"×","kazan":"×"}}
,{"type":"Feature","geometry":{"type":"Point","coordinates":[127.77480855806,26.286855649045]},"properties":{"Name":"ながつき児童公園","Jusho":"沖縄県宜野湾市新城1-1-16","kouzui":"×","gake":"○","takashio":"○","jishin":"○","tsunami":"○","kaji":"×","naisui":"×","kazan":"×"}}
,{"type":"Feature","geometry":{"type":"Point","coordinates":[127.77191634022,26.285425673616]},"properties":{"Name":"あらしろ児童公園","Jusho":"沖縄県宜野湾市新城2-5-1","kouzui":"×","gake":"○","takashio":"○","jishin":"○","tsunami":"○","kaji":"×","naisui":"×","kazan":"×"}}
,{"type":"Feature","geometry":{"type":"Point","coordinates":[127.7637047898,26.286795379176]},"properties":{"Name":"ちゅんなー公園","Jusho":"沖縄県宜野湾市喜友名1-29-1","kouzui":"×","gake":"○","takashio":"○","jishin":"○","tsunami":"○","kaji":"×","naisui":"×","kazan":"×"}}
,{"type":"Feature","geometry":{"type":"Point","coordinates":[127.75575845423,26.293660072411]},"properties":{"Name":"伊佐児童公園","Jusho":"沖縄県宜野湾市伊佐3-12-2","kouzui":"×","gake":"○","takashio":"×","jishin":"○","tsunami":"×","kaji":"×","naisui":"×","kazan":"×"}}
,{"type":"Feature","geometry":{"type":"Point","coordinates":[127.75338559875,26.287011687317]},"properties":{"Name":"伊佐第二児童公園","Jusho":"沖縄県宜野湾市伊佐2-21-2","kouzui":"×","gake":"○","takashio":"×","jishin":"○","tsunami":"×","kaji":"×","naisui":"×","kazan":"×"}}
,{"type":"Feature","geometry":{"type":"Point","coordinates":[127.73853462153,26.277423969259]},"properties":{"Name":"あだん児童公園","Jusho":"沖縄県宜野湾市大山6-26-1","kouzui":"×","gake":"○","takashio":"×","jishin":"○","tsunami":"×","kaji":"×","naisui":"×","kazan":"×"}}
,{"type":"Feature","geometry":{"type":"Point","coordinates":[127.73847848109,26.278875858504]},"properties":{"Name":"シーサー児童公園","Jusho":"沖縄県宜野湾市大山6-44-8","kouzui":"×","gake":"○","takashio":"×","jishin":"○","tsunami":"×","kaji":"×","naisui":"×","kazan":"×"}}
,{"type":"Feature","geometry":{"type":"Point","coordinates":[127.73631042428,26.281340824377]},"properties":{"Name":"宜野湾海浜公園","Jusho":"沖縄県宜野湾市真志喜4-2-1","kouzui":"×","gake":"○","takashio":"×","jishin":"○","tsunami":"×","kaji":"×","naisui":"×","kazan":"×"}}
,{"type":"Feature","geometry":{"type":"Point","coordinates":[127.73395791005,26.277197425775]},"properties":{"Name":"市立グラウンド","Jusho":"沖縄県宜野湾市真志喜3-25-1","kouzui":"×","gake":"○","takashio":"×","jishin":"○","tsunami":"×","kaji":"×","naisui":"×","kazan":"×"}}
,{"type":"Feature","geometry":{"type":"Point","coordinates":[127.73809324679,26.274820169786]},"properties":{"Name":"わかたけ児童公園","Jusho":"沖縄県宜野湾市真志喜2-10-1","kouzui":"×","gake":"○","takashio":"○","jishin":"○","tsunami":"○","kaji":"×","naisui":"×","kazan":"×"}}
,{"type":"Feature","geometry":{"type":"Point","coordinates":[127.73861090985,26.272657028061]},"properties":{"Name":"いすのき児童公園","Jusho":"沖縄県宜野湾市真志喜2-4-1","kouzui":"×","gake":"○","takashio":"○","jishin":"○","tsunami":"○","kaji":"×","naisui":"×","kazan":"×"}}
,{"type":"Feature","geometry":{"type":"Point","coordinates":[127.73604063247,26.273828249168]},"properties":{"Name":"ましき児童公園","Jusho":"沖縄県宜野湾市真志喜3-12-1","kouzui":"×","gake":"○","takashio":"○","jishin":"○","tsunami":"○","kaji":"×","naisui":"×","kazan":"×"}}
,{"type":"Feature","geometry":{"type":"Point","coordinates":[127.73335149159,26.276103876136]},"properties":{"Name":"ゆうな児童公園","Jusho":"沖縄県宜野湾市真志喜3-23-1","kouzui":"×","gake":"○","takashio":"×","jishin":"○","tsunami":"×","kaji":"×","naisui":"×","kazan":"×"}}
,{"type":"Feature","geometry":{"type":"Point","coordinates":[127.74196267135,26.269734101958]},"properties":{"Name":"森川公園","Jusho":"沖縄県宜野湾市真志喜1-24-1","kouzui":"×","gake":"○","takashio":"○","jishin":"○","tsunami":"○","kaji":"×","naisui":"×","kazan":"×"}}
,{"type":"Feature","geometry":{"type":"Point","coordinates":[127.73090304701,26.274168019172]},"properties":{"Name":"かたばる公園","Jusho":"沖縄県宜野湾市宇地泊751-11","kouzui":"×","gake":"○","takashio":"×","jishin":"○","tsunami":"×","kaji":"×","naisui":"×","kazan":"×"}}
,{"type":"Feature","geometry":{"type":"Point","coordinates":[127.72857949347,26.269256034057]},"properties":{"Name":"ガジュマル児童公園","Jusho":"沖縄県宜野湾市宇地泊471","kouzui":"×","gake":"○","takashio":"○","jishin":"○","tsunami":"○","kaji":"×","naisui":"×","kazan":"×"}}
,{"type":"Feature","geometry":{"type":"Point","coordinates":[127.72638544648,26.2708338354]},"properties":{"Name":"ゆうひ児童公園","Jusho":"沖縄県宜野湾市宇地泊598","kouzui":"×","gake":"○","takashio":"×","jishin":"○","tsunami":"×","kaji":"×","naisui":"×","kazan":"×"}}
,{"type":"Feature","geometry":{"type":"Point","coordinates":[127.73006866026,26.261946330949]},"properties":{"Name":"青空公園","Jusho":"沖縄県宜野湾市嘉数4-617-2","kouzui":"×","gake":"○","takashio":"○","jishin":"○","tsunami":"○","kaji":"×","naisui":"×","kazan":"×"}}
,{"type":"Feature","geometry":{"type":"Point","coordinates":[127.74026641893,26.258665383448]},"properties":{"Name":"比屋良川公園","Jusho":"沖縄県宜野湾市嘉数4-824-1","kouzui":"×","gake":"○","takashio":"○","jishin":"○","tsunami":"○","kaji":"×","naisui":"×","kazan":"×"}}
,{"type":"Feature","geometry":{"type":"Point","coordinates":[127.73591945263,26.25859803165]},"properties":{"Name":"嘉数高台公園","Jusho":"沖縄県宜野湾市嘉数1-5","kouzui":"×","gake":"○","takashio":"○","jishin":"○","tsunami":"○","kaji":"×","naisui":"×","kazan":"×"}}
,{"type":"Feature","geometry":{"type":"Point","coordinates":[127.74639549057,26.257245775769]},"properties":{"Name":"まえはら児童公園","Jusho":"沖縄県宜野湾市真栄原1-15-18","kouzui":"×","gake":"○","takashio":"○","jishin":"○","tsunami":"○","kaji":"×","naisui":"×","kazan":"×"}}
,{"type":"Feature","geometry":{"type":"Point","coordinates":[127.74310597153,26.263410367481]},"properties":{"Name":"ぐんばる公園","Jusho":"沖縄県宜野湾市真栄原3-11-1","kouzui":"×","gake":"○","takashio":"○","jishin":"○","tsunami":"○","kaji":"×","naisui":"×","kazan":"×"}}
,{"type":"Feature","geometry":{"type":"Point","coordinates":[127.74536439152,26.263645287115]},"properties":{"Name":"おおぶき公園","Jusho":"沖縄県宜野湾市真栄原3-24-8","kouzui":"×","gake":"○","takashio":"○","jishin":"○","tsunami":"○","kaji":"×","naisui":"×","kazan":"×"}}
,{"type":"Feature","geometry":{"type":"Point","coordinates":[127.74790125073,26.263968212469]},"properties":{"Name":"佐真下公園","Jusho":"沖縄県宜野湾市真栄原3-38","kouzui":"×","gake":"○","takashio":"○","jishin":"○","tsunami":"○","kaji":"×","naisui":"×","kazan":"×"}}
,{"type":"Feature","geometry":{"type":"Point","coordinates":[127.75086773344,26.254312934747]},"properties":{"Name":"がねこ児童公園","Jusho":"沖縄県宜野湾市我如古4-15-40","kouzui":"×","gake":"○","takashio":"○","jishin":"○","tsunami":"○","kaji":"×","naisui":"×","kazan":"×"}}
,{"type":"Feature","geometry":{"type":"Point","coordinates":[127.7610656021,26.256239035138]},"properties":{"Name":"しまし公園","Jusho":"沖縄県宜野湾市志真志3-16-3","kouzui":"×","gake":"○","takashio":"○","jishin":"○","tsunami":"○","kaji":"×","naisui":"×","kazan":"×"}}
,{"type":"Feature","geometry":{"type":"Point","coordinates":[127.76619423875,26.260984873279]},"properties":{"Name":"ながた児童公園","Jusho":"沖縄県宜野湾市長田3-27","kouzui":"×","gake":"○","takashio":"○","jishin":"○","tsunami":"○","kaji":"×","naisui":"×","kazan":"×"}}
,{"type":"Feature","geometry":{"type":"Point","coordinates":[127.76312655588,26.267215263603]},"properties":{"Name":"いこいの市民パーク","Jusho":"沖縄県宜野湾市宜野湾1-14-24","kouzui":"×","gake":"○","takashio":"○","jishin":"○","tsunami":"○","kaji":"×","naisui":"×","kazan":"×"}}
,{"type":"Feature","geometry":{"type":"Point","coordinates":[127.76982208162,26.268625508518]},"properties":{"Name":"まつぼっくり公園","Jusho":"沖縄県宜野湾市愛知2-5","kouzui":"×","gake":"○","takashio":"○","jishin":"○","tsunami":"○","kaji":"×","naisui":"×","kazan":"×"}}
,{"type":"Feature","geometry":{"type":"Point","coordinates":[127.77040846041,26.271875846761]},"properties":{"Name":"あかみち公園","Jusho":"沖縄県宜野湾市赤道1-5-14","kouzui":"×","gake":"○","takashio":"○","jishin":"○","tsunami":"○","kaji":"×","naisui":"×","kazan":"×"}}
,{"type":"Feature","geometry":{"type":"Point","coordinates":[127.77489526141,26.277492673845]},"properties":{"Name":"うえはら児童公園","Jusho":"沖縄県宜野湾市上原1-22","kouzui":"×","gake":"○","takashio":"○","jishin":"○","tsunami":"○","kaji":"×","naisui":"×","kazan":"×"}}
,{"type":"Feature","geometry":{"type":"Point","coordinates":[124.158697790631,24.3453322891656]},"properties":{"Name":"石垣小学校","Jusho":"沖縄県石垣市石垣204","kouzui":"×","gake":"×","takashio":"×","jishin":"×","tsunami":"○","kaji":"×","naisui":"×","kazan":"×"}}
,{"type":"Feature","geometry":{"type":"Point","coordinates":[124.163674846904,24.3423347932713]},"properties":{"Name":"登野城小学校","Jusho":"沖縄県石垣市登野城290","kouzui":"×","gake":"×","takashio":"×","jishin":"×","tsunami":"○","kaji":"×","naisui":"×","kazan":"×"}}
,{"type":"Feature","geometry":{"type":"Point","coordinates":[124.223276671811,24.3557558846106]},"properties":{"Name":"宮良小学校","Jusho":"沖縄県石垣市宮良327","kouzui":"×","gake":"×","takashio":"×","jishin":"×","tsunami":"○","kaji":"×","naisui":"×","kazan":"×"}}
,{"type":"Feature","geometry":{"type":"Point","coordinates":[124.158046423045,24.4477051074999]},"properties":{"Name":"吉原小学校","Jusho":"沖縄県石垣市川平1218-137","kouzui":"×","gake":"×","takashio":"×","jishin":"×","tsunami":"○","kaji":"×","naisui":"×","kazan":"×"}}
,{"type":"Feature","geometry":{"type":"Point","coordinates":[124.15419176277,24.3477663572097]},"properties":{"Name":"石垣中学校","Jusho":"沖縄県石垣市新川307","kouzui":"×","gake":"×","takashio":"×","jishin":"×","tsunami":"○","kaji":"×","naisui":"×","kazan":"×"}}
,{"type":"Feature","geometry":{"type":"Point","coordinates":[124.167574798394,24.3446888156359]},"properties":{"Name":"石垣第二中学校","Jusho":"沖縄県石垣市登野城1078","kouzui":"×","gake":"×","takashio":"×","jishin":"×","tsunami":"○","kaji":"×","naisui":"×","kazan":"×"}}
,{"type":"Feature","geometry":{"type":"Point","coordinates":[124.195170170975,24.346461843917]},"properties":{"Name":"大浜中学校","Jusho":"沖縄県石垣市大浜103","kouzui":"×","gake":"×","takashio":"×","jishin":"×","tsunami":"○","kaji":"×","naisui":"×","kazan":"×"}}
,{"type":"Feature","geometry":{"type":"Point","coordinates":[124.104655894821,24.4408085147819]},"properties":{"Name":"崎枝小中学校","Jusho":"沖縄県石垣市崎枝530-18","kouzui":"×","gake":"×","takashio":"×","jishin":"×","tsunami":"○","kaji":"×","naisui":"×","kazan":"×"}}
,{"type":"Feature","geometry":{"type":"Point","coordinates":[124.143646100975,24.3687671504284]},"properties":{"Name":"石垣青少年の家","Jusho":"沖縄県石垣市新川868","kouzui":"×","gake":"×","takashio":"×","jishin":"×","tsunami":"○","kaji":"×","naisui":"×","kazan":"×"}}
,{"type":"Feature","geometry":{"type":"Point","coordinates":[124.164444709615,24.3451082411551]},"properties":{"Name":"八重山農林高校","Jusho":"沖縄県石垣市大川497","kouzui":"×","gake":"×","takashio":"×","jishin":"×","tsunami":"○","kaji":"×","naisui":"×","kazan":"×"}}
,{"type":"Feature","geometry":{"type":"Point","coordinates":[124.164846042919,24.3417996722446]},"properties":{"Name":"八重山高校","Jusho":"沖縄県石垣市登野城275","kouzui":"×","gake":"×","takashio":"×","jishin":"×","tsunami":"○","kaji":"×","naisui":"×","kazan":"×"}}
,{"type":"Feature","geometry":{"type":"Point","coordinates":[124.173025099008,24.3449232090399]},"properties":{"Name":"石垣市中央運動公園","Jusho":"沖縄県石垣市登野城1408-1","kouzui":"×","gake":"×","takashio":"×","jishin":"○","tsunami":"○","kaji":"○","naisui":"×","kazan":"×"}}
,{"type":"Feature","geometry":{"type":"Point","coordinates":[124.32605314209,24.6009003735569]},"properties":{"Name":"平野公民館","Jusho":"沖縄県石垣市平久保424","kouzui":"×","gake":"×","takashio":"×","jishin":"×","tsunami":"○","kaji":"×","naisui":"×","kazan":"×"}}
,{"type":"Feature","geometry":{"type":"Point","coordinates":[124.314021411272,24.5822099182427]},"properties":{"Name":"石ムルク","Jusho":"沖縄県石垣市平久保226-73付近","kouzui":"×","gake":"×","takashio":"×","jishin":"×","tsunami":"○","kaji":"×","naisui":"×","kazan":"×"}}
,{"type":"Feature","geometry":{"type":"Point","coordinates":[124.289715319502,24.5619409929044]},"properties":{"Name":"久宇良公民館","Jusho":"沖縄県石垣市平久保234-231","kouzui":"×","gake":"×","takashio":"×","jishin":"×","tsunami":"○","kaji":"×","naisui":"×","kazan":"×"}}
,{"type":"Feature","geometry":{"type":"Point","coordinates":[124.300499720639,24.5333635168809]},"properties":{"Name":"トムル岳","Jusho":"沖縄県石垣市伊原間155-2付近","kouzui":"×","gake":"×","takashio":"×","jishin":"×","tsunami":"○","kaji":"×","naisui":"×","kazan":"×"}}
,{"type":"Feature","geometry":{"type":"Point","coordinates":[124.282414260252,24.5157510091794]},"properties":{"Name":"伊原間はんな岳","Jusho":"沖縄県石垣市伊原間155-12付近","kouzui":"×","gake":"×","takashio":"×","jishin":"×","tsunami":"○","kaji":"×","naisui":"×","kazan":"×"}}
,{"type":"Feature","geometry":{"type":"Point","coordinates":[124.23420624262,24.4936086779541]},"properties":{"Name":"多良間公民館","Jusho":"沖縄県石垣市野底1204","kouzui":"×","gake":"×","takashio":"×","jishin":"×","tsunami":"○","kaji":"×","naisui":"×","kazan":"×"}}
,{"type":"Feature","geometry":{"type":"Point","coordinates":[124.244496106774,24.4997300727509]},"properties":{"Name":"兼城公民館","Jusho":"沖縄県石垣市野底932","kouzui":"×","gake":"×","takashio":"×","jishin":"×","tsunami":"○","kaji":"×","naisui":"×","kazan":"×"}}
,{"type":"Feature","geometry":{"type":"Point","coordinates":[124.250896189104,24.5079507486975]},"properties":{"Name":"栄公民館","Jusho":"沖縄県石垣市野底455-1","kouzui":"×","gake":"×","takashio":"×","jishin":"×","tsunami":"○","kaji":"×","naisui":"×","kazan":"×"}}
,{"type":"Feature","geometry":{"type":"Point","coordinates":[124.229392352445,24.4779093453093]},"properties":{"Name":"伊土名集落南方高台","Jusho":"沖縄県石垣市桴海337-77付近","kouzui":"×","gake":"×","takashio":"×","jishin":"×","tsunami":"○","kaji":"×","naisui":"×","kazan":"×"}}
,{"type":"Feature","geometry":{"type":"Point","coordinates":[124.168106912695,24.4474551116197]},"properties":{"Name":"ポーサーおばさん食卓前公園","Jusho":"沖縄県石垣市川平1216-156","kouzui":"×","gake":"×","takashio":"×","jishin":"×","tsunami":"○","kaji":"×","naisui":"×","kazan":"×"}}
,{"type":"Feature","geometry":{"type":"Point","coordinates":[124.194882371563,24.4518548669464]},"properties":{"Name":"米原ヤシ群落駐車場","Jusho":"沖縄県石垣市桴海548付近","kouzui":"×","gake":"×","takashio":"×","jishin":"×","tsunami":"○","kaji":"×","naisui":"×","kazan":"×"}}
,{"type":"Feature","geometry":{"type":"Point","coordinates":[124.203972031369,24.4531235154205]},"properties":{"Name":"富野公民館","Jusho":"沖縄県石垣市桴海148-55","kouzui":"×","gake":"×","takashio":"×","jishin":"×","tsunami":"○","kaji":"×","naisui":"×","kazan":"×"}}
,{"type":"Feature","geometry":{"type":"Point","coordinates":[124.245407706659,24.4684119950776]},"properties":{"Name":"金比羅","Jusho":"沖縄県石垣市桃里200-227付近","kouzui":"×","gake":"×","takashio":"×","jishin":"×","tsunami":"○","kaji":"×","naisui":"×","kazan":"×"}}
,{"type":"Feature","geometry":{"type":"Point","coordinates":[124.241523868008,24.4516683151857]},"properties":{"Name":"番屋","Jusho":"沖縄県石垣市桃里200-16付近","kouzui":"×","gake":"×","takashio":"×","jishin":"×","tsunami":"○","kaji":"×","naisui":"×","kazan":"×"}}
,{"type":"Feature","geometry":{"type":"Point","coordinates":[124.134957187021,24.4389917488694]},"properties":{"Name":"大嵩公民館","Jusho":"沖縄県石垣市川平1218-194","kouzui":"×","gake":"×","takashio":"×","jishin":"×","tsunami":"○","kaji":"×","naisui":"×","kazan":"×"}}
,{"type":"Feature","geometry":{"type":"Point","coordinates":[124.242276798257,24.4394692108397]},"properties":{"Name":"となりき山","Jusho":"沖縄県石垣市桃里165-550付近","kouzui":"×","gake":"×","takashio":"×","jishin":"×","tsunami":"○","kaji":"×","naisui":"×","kazan":"×"}}
,{"type":"Feature","geometry":{"type":"Point","coordinates":[124.245203519981,24.4201561332859]},"properties":{"Name":"大里公民館","Jusho":"沖縄県石垣市桃里165-189","kouzui":"×","gake":"×","takashio":"×","jishin":"×","tsunami":"○","kaji":"×","naisui":"×","kazan":"×"}}
,{"type":"Feature","geometry":{"type":"Point","coordinates":[124.174789522054,24.3840533283114]},"properties":{"Name":"バンナ公園北側広場","Jusho":"沖縄県石垣市登野城2241-72","kouzui":"×","gake":"×","takashio":"×","jishin":"×","tsunami":"○","kaji":"×","naisui":"×","kazan":"×"}}
,{"type":"Feature","geometry":{"type":"Point","coordinates":[124.234436543691,24.3668498068534]},"properties":{"Name":"ゆなむり","Jusho":"沖縄県石垣市白保1057-76","kouzui":"×","gake":"×","takashio":"×","jishin":"×","tsunami":"○","kaji":"×","naisui":"×","kazan":"×"}}
,{"type":"Feature","geometry":{"type":"Point","coordinates":[124.188407762599,24.3514108401514]},"properties":{"Name":"八重山運輸事務所北三又路","Jusho":"沖縄県石垣市真栄里820-1付近","kouzui":"×","gake":"×","takashio":"×","jishin":"×","tsunami":"○","kaji":"×","naisui":"×","kazan":"×"}}
,{"type":"Feature","geometry":{"type":"Point","coordinates":[124.231585963314,24.3558043256057]},"properties":{"Name":"産業廃棄物処理場前付近","Jusho":"沖縄県石垣市宮良422-6付近","kouzui":"×","gake":"×","takashio":"×","jishin":"×","tsunami":"○","kaji":"×","naisui":"×","kazan":"×"}}
,{"type":"Feature","geometry":{"type":"Point","coordinates":[124.297584834425,24.5457985051957]},"properties":{"Name":"明石集落北方携帯基地局付近","Jusho":"沖縄県石垣市平久保234-541付近","kouzui":"×","gake":"×","takashio":"×","jishin":"×","tsunami":"○","kaji":"×","naisui":"×","kazan":"×"}}
,{"type":"Feature","geometry":{"type":"Point","coordinates":[124.137405100625,24.4628512468686]},"properties":{"Name":"川平ロータリー","Jusho":"沖縄県石垣市川平680-2付近","kouzui":"×","gake":"×","takashio":"×","jishin":"×","tsunami":"○","kaji":"×","naisui":"×","kazan":"×"}}
,{"type":"Feature","geometry":{"type":"Point","coordinates":[124.146391267341,24.3515384683064]},"properties":{"Name":"新川公園","Jusho":"沖縄県石垣市新川2395-1","kouzui":"×","gake":"×","takashio":"×","jishin":"○","tsunami":"×","kaji":"○","naisui":"×","kazan":"×"}}
,{"type":"Feature","geometry":{"type":"Point","coordinates":[124.15345510127,24.3407190228211]},"properties":{"Name":"新栄公園","Jusho":"沖縄県石垣市新栄町3-1","kouzui":"×","gake":"×","takashio":"×","jishin":"○","tsunami":"×","kaji":"○","naisui":"×","kazan":"×"}}
,{"type":"Feature","geometry":{"type":"Point","coordinates":[124.168253016741,24.3330061522165]},"properties":{"Name":"真栄里公園","Jusho":"沖縄県石垣市真栄里109-3","kouzui":"×","gake":"×","takashio":"×","jishin":"○","tsunami":"×","kaji":"○","naisui":"×","kazan":"×"}}
,{"type":"Feature","geometry":{"type":"Point","coordinates":[124.151305115169,24.3425264949681]},"properties":{"Name":"ホテルルートイングランティア石垣（5階以上）","Jusho":"沖縄県石垣市新栄町21.","kouzui":"×","gake":"×","takashio":"×","jishin":"×","tsunami":"○","kaji":"×","naisui":"×","kazan":"×"}}
,{"type":"Feature","geometry":{"type":"Point","coordinates":[124.154682199957,24.3397139742391]},"properties":{"Name":"ホテルピースアイランド石垣島（5階以上）","Jusho":"沖縄県石垣市美崎町11-1","kouzui":"×","gake":"×","takashio":"×","jishin":"×","tsunami":"○","kaji":"×","naisui":"×","kazan":"×"}}
,{"type":"Feature","geometry":{"type":"Point","coordinates":[124.155111353403,24.3384725134714]},"properties":{"Name":"南の美ら花ホテル ミヤヒラ（5階以上）","Jusho":"沖縄県石垣市美崎町4-9","kouzui":"×","gake":"×","takashio":"×","jishin":"×","tsunami":"○","kaji":"×","naisui":"×","kazan":"×"}}
,{"type":"Feature","geometry":{"type":"Point","coordinates":[124.156892340187,24.3389954925219]},"properties":{"Name":"石垣島ホテル クルル（5階以上）","Jusho":"沖縄県石垣市美崎町8-1","kouzui":"×","gake":"×","takashio":"×","jishin":"×","tsunami":"○","kaji":"×","naisui":"×","kazan":"×"}}
,{"type":"Feature","geometry":{"type":"Point","coordinates":[124.158275263563,24.3381254810974]},"properties":{"Name":"ホテルグランビュー（5階以上）","Jusho":"沖縄県石垣市登野城１","kouzui":"×","gake":"×","takashio":"×","jishin":"×","tsunami":"○","kaji":"×","naisui":"×","kazan":"×"}}
,{"type":"Feature","geometry":{"type":"Point","coordinates":[124.159171121371,24.3371577171252]},"properties":{"Name":"ホテルハッピーホリデー石垣島（5階以上）","Jusho":"沖縄県石垣市登野城16","kouzui":"×","gake":"×","takashio":"×","jishin":"×","tsunami":"○","kaji":"×","naisui":"×","kazan":"×"}}
,{"type":"Feature","geometry":{"type":"Point","coordinates":[124.15934849641,24.3350429225266]},"properties":{"Name":"アパホテル石垣島（5階以上）","Jusho":"沖縄県石垣市八島町1-2-3","kouzui":"×","gake":"×","takashio":"×","jishin":"×","tsunami":"○","kaji":"×","naisui":"×","kazan":"×"}}
,{"type":"Feature","geometry":{"type":"Point","coordinates":[124.151991604125,24.3411072443166]},"properties":{"Name":"蓬莱閣マンション（5階以上）","Jusho":"沖縄県石垣市浜崎町2-1-7","kouzui":"×","gake":"×","takashio":"×","jishin":"×","tsunami":"○","kaji":"×","naisui":"×","kazan":"×"}}
,{"type":"Feature","geometry":{"type":"Point","coordinates":[124.187800333006,24.340333961152]},"properties":{"Name":"沖縄県八重山合同庁舎（5階会議室・研修室）","Jusho":"沖縄県石垣市真栄里438-1","kouzui":"×","gake":"×","takashio":"×","jishin":"×","tsunami":"○","kaji":"×","naisui":"×","kazan":"×"}}
,{"type":"Feature","geometry":{"type":"Point","coordinates":[124.189370498327,24.3359243091045]},"properties":{"Name":"ANAインターコンチネンタル石垣リゾート（5階以上）","Jusho":"沖縄県石垣市真栄里354-1","kouzui":"×","gake":"×","takashio":"×","jishin":"×","tsunami":"○","kaji":"×","naisui":"×","kazan":"×"}}
,{"type":"Feature","geometry":{"type":"Point","coordinates":[124.148622749611,24.3385607983435]},"properties":{"Name":"東横イン石垣島（5階以上）","Jusho":"沖縄県石垣市浜崎町3-2-12","kouzui":"×","gake":"×","takashio":"×","jishin":"×","tsunami":"○","kaji":"×","naisui":"×","kazan":"×"}}
,{"type":"Feature","geometry":{"type":"Point","coordinates":[124.135970235474,24.3553123930943]},"properties":{"Name":"ホテルロイヤルマリンパレス（5階以上）","Jusho":"沖縄県石垣市新川2459-1","kouzui":"×","gake":"×","takashio":"×","jishin":"×","tsunami":"○","kaji":"×","naisui":"×","kazan":"×"}}
,{"type":"Feature","geometry":{"type":"Point","coordinates":[124.166135734832,24.3346714876821]},"properties":{"Name":"丸栄タイル商会ビル（3階広場）","Jusho":"沖縄県石垣市登野城522-2","kouzui":"×","gake":"×","takashio":"×","jishin":"×","tsunami":"○","kaji":"×","naisui":"×","kazan":"×"}}
,{"type":"Feature","geometry":{"type":"Point","coordinates":[124.170042050158,24.3349124093878]},"properties":{"Name":"県営平真団地（高層1・2号棟5階以上）","Jusho":"沖縄県石垣市真栄里109","kouzui":"×","gake":"×","takashio":"×","jishin":"×","tsunami":"○","kaji":"×","naisui":"×","kazan":"×"}}
,{"type":"Feature","geometry":{"type":"Point","coordinates":[124.168682583025,24.3344417765336]},"properties":{"Name":"コンフォート真栄里（5階以上）","Jusho":"沖縄県石垣市真栄里97-4","kouzui":"×","gake":"×","takashio":"×","jishin":"×","tsunami":"○","kaji":"×","naisui":"×","kazan":"×"}}
,{"type":"Feature","geometry":{"type":"Point","coordinates":[124.177884653271,24.3327317007878]},"properties":{"Name":"ブルーシーナリー真栄里（5階以上）","Jusho":"沖縄県石垣市真栄里204-64","kouzui":"×","gake":"×","takashio":"×","jishin":"×","tsunami":"○","kaji":"×","naisui":"×","kazan":"×"}}
,{"type":"Feature","geometry":{"type":"Point","coordinates":[124.168360717943,24.3354193368188]},"properties":{"Name":"合同宿舎石垣住宅10号棟（5階供用廊下）","Jusho":"沖縄県石垣市登野城589","kouzui":"×","gake":"×","takashio":"×","jishin":"×","tsunami":"○","kaji":"×","naisui":"×","kazan":"×"}}
,{"type":"Feature","geometry":{"type":"Point","coordinates":[124.167942293338,24.3355073168746]},"properties":{"Name":"合同宿舎石垣住宅11号棟（5階供用廊下・エレベーターホール）","Jusho":"沖縄県石垣市登野城589","kouzui":"×","gake":"×","takashio":"×","jishin":"×","tsunami":"○","kaji":"×","naisui":"×","kazan":"×"}}
,{"type":"Feature","geometry":{"type":"Point","coordinates":[124.168022759606,24.3357419300578]},"properties":{"Name":"合同宿舎石垣住宅12号棟（5階供用廊下・エレベーターホール）","Jusho":"沖縄県石垣市登野城589","kouzui":"×","gake":"×","takashio":"×","jishin":"×","tsunami":"○","kaji":"×","naisui":"×","kazan":"×"}}
,{"type":"Feature","geometry":{"type":"Point","coordinates":[124.151583908359,24.3396702926133]},"properties":{"Name":"ベッセイホテル石垣島（5階以上通路、階段及び屋上）","Jusho":"沖縄県石垣市浜崎町1-2-7","kouzui":"×","gake":"×","takashio":"×","jishin":"×","tsunami":"○","kaji":"×","naisui":"×","kazan":"×"}}
,{"type":"Feature","geometry":{"type":"Point","coordinates":[124.154923598771,24.3388879642956]},"properties":{"Name":"ホテルエメナルド石垣島（5階以上の通路、階段及び屋上）","Jusho":"沖縄県石垣市美崎町7-14","kouzui":"×","gake":"×","takashio":"×","jishin":"×","tsunami":"○","kaji":"×","naisui":"×","kazan":"×"}}
,{"type":"Feature","geometry":{"type":"Point","coordinates":[124.147288253281,24.3465828470833]},"properties":{"Name":"海上保安庁新栄宿舎（5階供用廊下、屋上）","Jusho":"沖縄県石垣市新栄町58","kouzui":"×","gake":"×","takashio":"×","jishin":"×","tsunami":"○","kaji":"×","naisui":"×","kazan":"×"}}
,{"type":"Feature","geometry":{"type":"Point","coordinates":[124.15833427216,24.3371626048407]},"properties":{"Name":"ホテルイーストチャイナシー（5階以上の通路及び階段）","Jusho":"沖縄県石垣市美崎町2-8","kouzui":"×","gake":"×","takashio":"×","jishin":"×","tsunami":"○","kaji":"×","naisui":"×","kazan":"×"}}
,{"type":"Feature","geometry":{"type":"Point","coordinates":[124.171070498574,24.3478297243564]},"properties":{"Name":"石垣市健康福祉センター","Jusho":"沖縄県石垣市登野城1357","kouzui":"○","gake":"○","takashio":"○","jishin":"×","tsunami":"×","kaji":"×","naisui":"○","kazan":"×"}}
,{"type":"Feature","geometry":{"type":"Point","coordinates":[124.281516927087,24.5087292358243]},"properties":{"Name":"伊原間中学校","Jusho":"沖縄県石垣市伊原間28","kouzui":"○","gake":"○","takashio":"○","jishin":"×","tsunami":"×","kaji":"×","naisui":"○","kazan":"×"}}
,{"type":"Feature","geometry":{"type":"Point","coordinates":[124.139300121125,24.4590594382726]},"properties":{"Name":"川平小中学校","Jusho":"沖縄県石垣市川平969","kouzui":"○","gake":"○","takashio":"○","jishin":"×","tsunami":"×","kaji":"×","naisui":"○","kazan":"×"}}
,{"type":"Feature","geometry":{"type":"Point","coordinates":[124.189760425883,24.3399034408116]},"properties":{"Name":"石垣島徳洲会病院（5階以上の通路、階段及び屋上）","Jusho":"沖縄県石垣市大浜446-1","kouzui":"×","gake":"×","takashio":"×","jishin":"×","tsunami":"○","kaji":"×","naisui":"×","kazan":"×"}}
,{"type":"Feature","geometry":{"type":"Point","coordinates":[124.159056927442,24.3346279450307]},"properties":{"Name":"ホテルチューリップ石垣島（5階以上の通路、階段及び7階屋上）","Jusho":"沖縄県石垣市八島町1-3-5","kouzui":"×","gake":"×","takashio":"×","jishin":"×","tsunami":"○","kaji":"×","naisui":"×","kazan":"×"}}
,{"type":"Feature","geometry":{"type":"Point","coordinates":[124.182882039596,24.3368358653288]},"properties":{"Name":"ドリームハイツ（5階以上の通路、階段及び6階）","Jusho":"沖縄県石垣市真栄里307-1","kouzui":"×","gake":"×","takashio":"×","jishin":"×","tsunami":"○","kaji":"×","naisui":"×","kazan":"×"}}
,{"type":"Feature","geometry":{"type":"Point","coordinates":[127.72975379242,26.246971466427]},"properties":{"Name":"浦添小学校","Jusho":"沖縄県浦添市仲間2-47-1","kouzui":"○","gake":"○","takashio":"○","jishin":"○","tsunami":"○","kaji":"○","naisui":"○","kazan":"×"}}
,{"type":"Feature","geometry":{"type":"Point","coordinates":[127.70694151305,26.250151436151]},"properties":{"Name":"仲西小学校","Jusho":"沖縄県浦添市屋富祖2-32-1","kouzui":"○","gake":"○","takashio":"○","jishin":"○","tsunami":"○","kaji":"○","naisui":"○","kazan":"×"}}
,{"type":"Feature","geometry":{"type":"Point","coordinates":[127.69968482932,26.241928630678]},"properties":{"Name":"神森小学校","Jusho":"沖縄県浦添市勢理客1-4-1","kouzui":"○","gake":"○","takashio":"○","jishin":"○","tsunami":"○","kaji":"○","naisui":"○","kazan":"×"}}
,{"type":"Feature","geometry":{"type":"Point","coordinates":[127.71716653094,26.25376705971]},"properties":{"Name":"浦城小学校","Jusho":"沖縄県浦添市伊祖2-13-1","kouzui":"○","gake":"○","takashio":"○","jishin":"○","tsunami":"○","kaji":"○","naisui":"○","kazan":"×"}}
,{"type":"Feature","geometry":{"type":"Point","coordinates":[127.72451774776,26.259297772449]},"properties":{"Name":"牧港小学校","Jusho":"沖縄県浦添市牧港2-14-1","kouzui":"○","gake":"○","takashio":"○","jishin":"○","tsunami":"○","kaji":"○","naisui":"○","kazan":"×"}}
,{"type":"Feature","geometry":{"type":"Point","coordinates":[127.7334072437,26.251946410733]},"properties":{"Name":"当山小学校","Jusho":"沖縄県浦添市当山2-34-1","kouzui":"○","gake":"○","takashio":"○","jishin":"○","tsunami":"○","kaji":"○","naisui":"○","kazan":"×"}}
,{"type":"Feature","geometry":{"type":"Point","coordinates":[127.70445041559,26.239070847587]},"properties":{"Name":"内間小学校","Jusho":"沖縄県浦添市内間4-3-1","kouzui":"○","gake":"○","takashio":"○","jishin":"○","tsunami":"○","kaji":"○","naisui":"○","kazan":"×"}}
,{"type":"Feature","geometry":{"type":"Point","coordinates":[127.71601878306,26.260981048684]},"properties":{"Name":"港川小学校","Jusho":"沖縄県浦添市城間4-37-1","kouzui":"○","gake":"○","takashio":"○","jishin":"○","tsunami":"○","kaji":"○","naisui":"○","kazan":"×"}}
,{"type":"Feature","geometry":{"type":"Point","coordinates":[127.70648123611,26.24699308702]},"properties":{"Name":"宮城小学校","Jusho":"沖縄県浦添市宮城3-7-3","kouzui":"○","gake":"○","takashio":"○","jishin":"○","tsunami":"○","kaji":"○","naisui":"○","kazan":"×"}}
,{"type":"Feature","geometry":{"type":"Point","coordinates":[127.716981314,26.236712650101]},"properties":{"Name":"沢岻小学校","Jusho":"沖縄県浦添市沢岻998","kouzui":"○","gake":"○","takashio":"○","jishin":"○","tsunami":"○","kaji":"○","naisui":"○","kazan":"×"}}
,{"type":"Feature","geometry":{"type":"Point","coordinates":[127.73439462795,26.238993754454]},"properties":{"Name":"前田小学校","Jusho":"沖縄県浦添市前田333","kouzui":"○","gake":"○","takashio":"○","jishin":"○","tsunami":"○","kaji":"○","naisui":"○","kazan":"×"}}
,{"type":"Feature","geometry":{"type":"Point","coordinates":[127.7272975029,26.24596563487]},"properties":{"Name":"浦添中学校","Jusho":"沖縄県浦添市仲間2-46-1","kouzui":"○","gake":"○","takashio":"○","jishin":"○","tsunami":"○","kaji":"○","naisui":"○","kazan":"×"}}
,{"type":"Feature","geometry":{"type":"Point","coordinates":[127.70984173215,26.250160612242]},"properties":{"Name":"仲西中学校","Jusho":"沖縄県浦添市屋富祖2-13-1","kouzui":"○","gake":"○","takashio":"○","jishin":"○","tsunami":"○","kaji":"○","naisui":"○","kazan":"×"}}
,{"type":"Feature","geometry":{"type":"Point","coordinates":[127.70708173908,26.239334922262]},"properties":{"Name":"神森中学校","Jusho":"沖縄県浦添市内間1-6-1","kouzui":"○","gake":"○","takashio":"○","jishin":"○","tsunami":"○","kaji":"○","naisui":"○","kazan":"×"}}
,{"type":"Feature","geometry":{"type":"Point","coordinates":[127.71825255811,26.26138027019]},"properties":{"Name":"港川中学校","Jusho":"沖縄県浦添市港川1-1-1","kouzui":"○","gake":"○","takashio":"○","jishin":"○","tsunami":"○","kaji":"○","naisui":"○","kazan":"×"}}
,{"type":"Feature","geometry":{"type":"Point","coordinates":[127.7357638278,26.248499339742]},"properties":{"Name":"浦西中学校","Jusho":"沖縄県浦添市当山3-1-1","kouzui":"○","gake":"○","takashio":"○","jishin":"○","tsunami":"○","kaji":"○","naisui":"○","kazan":"×"}}
,{"type":"Feature","geometry":{"type":"Point","coordinates":[127.70293358946,26.237673495003]},"properties":{"Name":"浦添高等学校","Jusho":"沖縄県浦添市内間3-26-1","kouzui":"○","gake":"○","takashio":"○","jishin":"○","tsunami":"○","kaji":"○","naisui":"○","kazan":"×"}}
,{"type":"Feature","geometry":{"type":"Point","coordinates":[127.72041046944,26.259050459296]},"properties":{"Name":"浦添商業高等学校","Jusho":"沖縄県浦添市伊祖3-11-1","kouzui":"○","gake":"○","takashio":"○","jishin":"○","tsunami":"○","kaji":"○","naisui":"○","kazan":"×"}}
,{"type":"Feature","geometry":{"type":"Point","coordinates":[127.71213303909,26.247970455859]},"properties":{"Name":"沖縄県立大平特別支援学校","Jusho":"沖縄県浦添市大平1-27-1","kouzui":"○","gake":"○","takashio":"○","jishin":"○","tsunami":"○","kaji":"○","naisui":"○","kazan":"×"}}
,{"type":"Feature","geometry":{"type":"Point","coordinates":[127.72118198175,26.259476746983]},"properties":{"Name":"若草児童センター","Jusho":"沖縄県浦添市伊祖3-44-1","kouzui":"○","gake":"○","takashio":"○","jishin":"○","tsunami":"○","kaji":"○","naisui":"○","kazan":"×"}}
,{"type":"Feature","geometry":{"type":"Point","coordinates":[127.70222519428,26.236913987437]},"properties":{"Name":"内間児童センター","Jusho":"沖縄県浦添市内間3-28-12","kouzui":"○","gake":"○","takashio":"○","jishin":"○","tsunami":"○","kaji":"○","naisui":"○","kazan":"×"}}
,{"type":"Feature","geometry":{"type":"Point","coordinates":[127.7440547816,26.250603917074]},"properties":{"Name":"西原児童センター","Jusho":"沖縄県浦添市西原4-9-1","kouzui":"○","gake":"○","takashio":"○","jishin":"○","tsunami":"○","kaji":"○","naisui":"○","kazan":"×"}}
,{"type":"Feature","geometry":{"type":"Point","coordinates":[127.72244779161,26.24025871814]},"properties":{"Name":"経塚ゆいまーるセンター","Jusho":"沖縄県浦添市経塚1-17-1","kouzui":"○","gake":"×","takashio":"○","jishin":"○","tsunami":"○","kaji":"○","naisui":"○","kazan":"×"}}
,{"type":"Feature","geometry":{"type":"Point","coordinates":[127.70706836062,26.249266642713]},"properties":{"Name":"宮城ヶ原児童センター","Jusho":"沖縄県浦添市宮城2-4-1","kouzui":"○","gake":"×","takashio":"○","jishin":"○","tsunami":"○","kaji":"○","naisui":"○","kazan":"×"}}
,{"type":"Feature","geometry":{"type":"Point","coordinates":[127.72456453881,26.263357007245]},"properties":{"Name":"まちなと児童センター","Jusho":"沖縄県浦添市牧港2-38-2","kouzui":"○","gake":"○","takashio":"○","jishin":"○","tsunami":"○","kaji":"○","naisui":"○","kazan":"×"}}
,{"type":"Feature","geometry":{"type":"Point","coordinates":[127.71545902805,26.25395812219]},"properties":{"Name":"城間っ子児童センター","Jusho":"沖縄県浦添市伊祖2-13-2","kouzui":"○","gake":"○","takashio":"○","jishin":"○","tsunami":"○","kaji":"○","naisui":"○","kazan":"×"}}
,{"type":"Feature","geometry":{"type":"Point","coordinates":[127.6997384735,26.242602243555]},"properties":{"Name":"森の子児童センター","Jusho":"沖縄県浦添市勢理客1-4-1","kouzui":"○","gake":"○","takashio":"○","jishin":"○","tsunami":"○","kaji":"○","naisui":"○","kazan":"×"}}
,{"type":"Feature","geometry":{"type":"Point","coordinates":[127.729309436,26.245435692004]},"properties":{"Name":"うらそえぐすく児童センター","Jusho":"沖縄県浦添市仲間2-47-5","kouzui":"○","gake":"○","takashio":"○","jishin":"○","tsunami":"○","kaji":"○","naisui":"○","kazan":"×"}}
,{"type":"Feature","geometry":{"type":"Point","coordinates":[127.70696658103,26.247046948401]},"properties":{"Name":"みやぎ希望の森コミュニティセンター","Jusho":"沖縄県浦添市宮城3丁目7番3-1","kouzui":"○","gake":"○","takashio":"○","jishin":"○","tsunami":"○","kaji":"○","naisui":"○","kazan":"×"}}
,{"type":"Feature","geometry":{"type":"Point","coordinates":[127.73518734109,26.239248146218]},"properties":{"Name":"前田ユブシが丘児童センター","Jusho":"沖縄県浦添市前田323","kouzui":"○","gake":"○","takashio":"○","jishin":"○","tsunami":"○","kaji":"○","naisui":"○","kazan":"×"}}
,{"type":"Feature","geometry":{"type":"Point","coordinates":[127.72038917434,26.250795388163]},"properties":{"Name":"浦添カルチャーパーク","Jusho":"沖縄県浦添市仲間1丁目9番","kouzui":"○","gake":"○","takashio":"○","jishin":"○","tsunami":"○","kaji":"○","naisui":"○","kazan":"×"}}
,{"type":"Feature","geometry":{"type":"Point","coordinates":[127.72298080984,26.251237941943]},"properties":{"Name":"浦添運動公園","Jusho":"沖縄県浦添市仲間1丁目13番1号","kouzui":"○","gake":"○","takashio":"○","jishin":"○","tsunami":"○","kaji":"○","naisui":"○","kazan":"×"}}
,{"type":"Feature","geometry":{"type":"Point","coordinates":[127.74400246429,26.250988962175]},"properties":{"Name":"つなひき公園","Jusho":"沖縄県浦添市西原4丁目9番","kouzui":"○","gake":"○","takashio":"○","jishin":"○","tsunami":"○","kaji":"○","naisui":"○","kazan":"×"}}
,{"type":"Feature","geometry":{"type":"Point","coordinates":[127.74900614837,26.250714089645]},"properties":{"Name":"うがんやま公園","Jusho":"沖縄県浦添市西原4丁目36番","kouzui":"○","gake":"○","takashio":"○","jishin":"○","tsunami":"○","kaji":"○","naisui":"○","kazan":"×"}}
,{"type":"Feature","geometry":{"type":"Point","coordinates":[127.74070267741,26.248282064591]},"properties":{"Name":"にしばる公園","Jusho":"沖縄県浦添市西原5丁目13番","kouzui":"○","gake":"○","takashio":"○","jishin":"○","tsunami":"○","kaji":"○","naisui":"○","kazan":"×"}}
,{"type":"Feature","geometry":{"type":"Point","coordinates":[127.74431955221,26.247528272296]},"properties":{"Name":"浦西さくら公園","Jusho":"沖縄県浦添市西原5丁目25番","kouzui":"○","gake":"○","takashio":"○","jishin":"○","tsunami":"○","kaji":"○","naisui":"○","kazan":"×"}}
,{"type":"Feature","geometry":{"type":"Point","coordinates":[127.74292818203,26.245581305472]},"properties":{"Name":"浦西あじさい公園","Jusho":"沖縄県浦添市西原5丁目27番","kouzui":"○","gake":"○","takashio":"○","jishin":"○","tsunami":"○","kaji":"○","naisui":"○","kazan":"×"}}
,{"type":"Feature","geometry":{"type":"Point","coordinates":[127.74425188592,26.245985180422]},"properties":{"Name":"浦西でいご公園","Jusho":"沖縄県浦添市西原5丁目29番","kouzui":"○","gake":"○","takashio":"○","jishin":"○","tsunami":"○","kaji":"○","naisui":"○","kazan":"×"}}
,{"type":"Feature","geometry":{"type":"Point","coordinates":[127.74584101347,26.248168221503]},"properties":{"Name":"浦西しらゆり公園","Jusho":"沖縄県浦添市西原5丁目42番","kouzui":"○","gake":"○","takashio":"○","jishin":"○","tsunami":"○","kaji":"○","naisui":"○","kazan":"×"}}
,{"type":"Feature","geometry":{"type":"Point","coordinates":[127.74717974949,26.246449768696]},"properties":{"Name":"浦西ひまわり公園","Jusho":"沖縄県浦添市西原6丁目28番","kouzui":"○","gake":"○","takashio":"○","jishin":"○","tsunami":"○","kaji":"○","naisui":"○","kazan":"×"}}
,{"type":"Feature","geometry":{"type":"Point","coordinates":[127.74568747109,26.245281659763]},"properties":{"Name":"浦西カトレア公園","Jusho":"沖縄県浦添市西原6丁目30番","kouzui":"○","gake":"○","takashio":"○","jishin":"○","tsunami":"○","kaji":"○","naisui":"○","kazan":"×"}}
,{"type":"Feature","geometry":{"type":"Point","coordinates":[127.71350208269,26.251547642735]},"properties":{"Name":"城間南公園","Jusho":"沖縄県浦添市城間2丁目1番1号","kouzui":"○","gake":"○","takashio":"○","jishin":"○","tsunami":"○","kaji":"○","naisui":"○","kazan":"×"}}
,{"type":"Feature","geometry":{"type":"Point","coordinates":[127.71321240411,26.253493731033]},"properties":{"Name":"すみれ公園","Jusho":"沖縄県浦添市城間2丁目11番1号","kouzui":"○","gake":"○","takashio":"○","jishin":"○","tsunami":"○","kaji":"○","naisui":"○","kazan":"×"}}
,{"type":"Feature","geometry":{"type":"Point","coordinates":[127.71167013392,26.256616064168]},"properties":{"Name":"あさがお公園","Jusho":"沖縄県浦添市城間3丁目18番1号","kouzui":"○","gake":"○","takashio":"○","jishin":"○","tsunami":"○","kaji":"○","naisui":"○","kazan":"×"}}
,{"type":"Feature","geometry":{"type":"Point","coordinates":[127.71072063193,26.257270348302]},"properties":{"Name":"うしもー公園","Jusho":"沖縄県浦添市城間3丁目21番1号","kouzui":"○","gake":"○","takashio":"○","jishin":"○","tsunami":"○","kaji":"○","naisui":"○","kazan":"×"}}
,{"type":"Feature","geometry":{"type":"Point","coordinates":[127.71396519958,26.256084737514]},"properties":{"Name":"泉小公園","Jusho":"沖縄県浦添市城間4丁目4番","kouzui":"○","gake":"○","takashio":"○","jishin":"○","tsunami":"○","kaji":"○","naisui":"○","kazan":"×"}}
,{"type":"Feature","geometry":{"type":"Point","coordinates":[127.71667587586,26.256735793531]},"properties":{"Name":"ぱんじー公園","Jusho":"沖縄県浦添市城間4丁目25番22号","kouzui":"○","gake":"○","takashio":"○","jishin":"○","tsunami":"○","kaji":"○","naisui":"○","kazan":"×"}}
,{"type":"Feature","geometry":{"type":"Point","coordinates":[127.71466517465,26.260082194228]},"properties":{"Name":"浦城公園","Jusho":"沖縄県浦添市城間4丁目33番","kouzui":"○","gake":"×","takashio":"○","jishin":"○","tsunami":"○","kaji":"○","naisui":"○","kazan":"×"}}
,{"type":"Feature","geometry":{"type":"Point","coordinates":[127.71675240464,26.261166355713]},"properties":{"Name":"まつば公園","Jusho":"沖縄県浦添市城間4丁目38番7号","kouzui":"○","gake":"○","takashio":"○","jishin":"○","tsunami":"○","kaji":"○","naisui":"○","kazan":"×"}}
,{"type":"Feature","geometry":{"type":"Point","coordinates":[127.73723193721,26.23853797116]},"properties":{"Name":"前田東上原公園","Jusho":"沖縄県浦添市前田1丁目46番地","kouzui":"○","gake":"○","takashio":"○","jishin":"○","tsunami":"○","kaji":"○","naisui":"○","kazan":"×"}}
,{"type":"Feature","geometry":{"type":"Point","coordinates":[127.73301989747,26.244818145088]},"properties":{"Name":"前田山川原公園","Jusho":"沖縄県浦添市前田2丁目11番地","kouzui":"○","gake":"○","takashio":"○","jishin":"○","tsunami":"○","kaji":"○","naisui":"○","kazan":"×"}}
,{"type":"Feature","geometry":{"type":"Point","coordinates":[127.73883661994,26.246472042475]},"properties":{"Name":"ドラゴン公園","Jusho":"沖縄県浦添市前田3丁目7番","kouzui":"○","gake":"○","takashio":"○","jishin":"○","tsunami":"○","kaji":"○","naisui":"○","kazan":"×"}}
,{"type":"Feature","geometry":{"type":"Point","coordinates":[127.73624890461,26.236919816505]},"properties":{"Name":"でいご公園","Jusho":"沖縄県浦添市前田4丁目16番","kouzui":"○","gake":"○","takashio":"○","jishin":"○","tsunami":"○","kaji":"○","naisui":"○","kazan":"×"}}
,{"type":"Feature","geometry":{"type":"Point","coordinates":[127.72643073375,26.24082793229]},"properties":{"Name":"グリーンハイツ公園","Jusho":"沖縄県浦添市字前田824-1","kouzui":"○","gake":"○","takashio":"○","jishin":"○","tsunami":"○","kaji":"○","naisui":"○","kazan":"×"}}
,{"type":"Feature","geometry":{"type":"Point","coordinates":[127.72823915628,26.238636256269]},"properties":{"Name":"前田ありあけハイツ公園","Jusho":"沖縄県浦添市字前田990-9","kouzui":"○","gake":"○","takashio":"○","jishin":"○","tsunami":"○","kaji":"○","naisui":"○","kazan":"×"}}
,{"type":"Feature","geometry":{"type":"Point","coordinates":[127.73548380283,26.2382585395]},"properties":{"Name":"前田上原公園","Jusho":"沖縄県浦添市字前田1317-9","kouzui":"○","gake":"○","takashio":"○","jishin":"○","tsunami":"○","kaji":"○","naisui":"○","kazan":"×"}}
,{"type":"Feature","geometry":{"type":"Point","coordinates":[127.7165305398,26.25019179618]},"properties":{"Name":"ひなぎく公園","Jusho":"沖縄県浦添市伊祖1丁目3番1号","kouzui":"○","gake":"○","takashio":"○","jishin":"○","tsunami":"○","kaji":"○","naisui":"○","kazan":"×"}}
,{"type":"Feature","geometry":{"type":"Point","coordinates":[127.71722977213,26.251508528024]},"properties":{"Name":"浅の浦公園","Jusho":"沖縄県浦添市伊祖1丁目13番","kouzui":"○","gake":"○","takashio":"○","jishin":"○","tsunami":"○","kaji":"○","naisui":"○","kazan":"×"}}
,{"type":"Feature","geometry":{"type":"Point","coordinates":[127.71967632193,26.253058623506]},"properties":{"Name":"あさやら公園","Jusho":"沖縄県浦添市伊祖1丁目25番1号","kouzui":"○","gake":"○","takashio":"○","jishin":"○","tsunami":"○","kaji":"○","naisui":"○","kazan":"×"}}
,{"type":"Feature","geometry":{"type":"Point","coordinates":[127.71534187217,26.252919102287]},"properties":{"Name":"かんな公園","Jusho":"沖縄県浦添市伊祖2丁目9番11号","kouzui":"○","gake":"○","takashio":"○","jishin":"○","tsunami":"○","kaji":"○","naisui":"○","kazan":"×"}}
,{"type":"Feature","geometry":{"type":"Point","coordinates":[127.7181842237,26.255190542107]},"properties":{"Name":"ひなしげ公園","Jusho":"沖縄県浦添市伊祖2丁目23番8号","kouzui":"○","gake":"○","takashio":"○","jishin":"○","tsunami":"○","kaji":"○","naisui":"○","kazan":"×"}}
,{"type":"Feature","geometry":{"type":"Point","coordinates":[127.7200378597,26.255751121215]},"properties":{"Name":"すずらん公園","Jusho":"沖縄県浦添市伊祖3丁目3番8号","kouzui":"○","gake":"○","takashio":"○","jishin":"○","tsunami":"○","kaji":"○","naisui":"○","kazan":"×"}}
,{"type":"Feature","geometry":{"type":"Point","coordinates":[127.723113235,26.257874038511]},"properties":{"Name":"伊祖公園","Jusho":"沖縄県浦添市伊祖3丁目48番","kouzui":"○","gake":"×","takashio":"○","jishin":"○","tsunami":"○","kaji":"○","naisui":"○","kazan":"×"}}
,{"type":"Feature","geometry":{"type":"Point","coordinates":[127.72159130176,26.254390618325]},"properties":{"Name":"まえはら公園","Jusho":"沖縄県浦添市伊祖4丁目9番1号","kouzui":"○","gake":"○","takashio":"○","jishin":"○","tsunami":"○","kaji":"○","naisui":"○","kazan":"×"}}
,{"type":"Feature","geometry":{"type":"Point","coordinates":[127.70871134968,26.248327502681]},"properties":{"Name":"宮城公園","Jusho":"沖縄県浦添市宮城2丁目1番","kouzui":"○","gake":"×","takashio":"○","jishin":"○","tsunami":"○","kaji":"○","naisui":"○","kazan":"×"}}
,{"type":"Feature","geometry":{"type":"Point","coordinates":[127.70467965581,26.247965208544]},"properties":{"Name":"ひまわり公園","Jusho":"沖縄県浦添市宮城2丁目22番地1号","kouzui":"○","gake":"×","takashio":"○","jishin":"○","tsunami":"○","kaji":"○","naisui":"○","kazan":"×"}}
,{"type":"Feature","geometry":{"type":"Point","coordinates":[127.70725560231,26.24675948794]},"properties":{"Name":"せせらぎ公園","Jusho":"沖縄県浦添市宮城3丁目1番","kouzui":"○","gake":"○","takashio":"○","jishin":"○","tsunami":"○","kaji":"○","naisui":"○","kazan":"×"}}
,{"type":"Feature","geometry":{"type":"Point","coordinates":[127.70418540351,26.245971786445]},"properties":{"Name":"チョンダ公園","Jusho":"沖縄県浦添市宮城3丁目12番1号","kouzui":"○","gake":"○","takashio":"○","jishin":"○","tsunami":"○","kaji":"○","naisui":"○","kazan":"×"}}
,{"type":"Feature","geometry":{"type":"Point","coordinates":[127.70213199837,26.246827297598]},"properties":{"Name":"宮の浦公園","Jusho":"沖縄県浦添市宮城3丁目15番5号","kouzui":"○","gake":"○","takashio":"○","jishin":"○","tsunami":"○","kaji":"○","naisui":"○","kazan":"×"}}
,{"type":"Feature","geometry":{"type":"Point","coordinates":[127.70588878611,26.243996613682]},"properties":{"Name":"大宮公園","Jusho":"沖縄県浦添市宮城4丁目2番","kouzui":"○","gake":"○","takashio":"○","jishin":"○","tsunami":"○","kaji":"○","naisui":"○","kazan":"×"}}
,{"type":"Feature","geometry":{"type":"Point","coordinates":[127.70139655241,26.245636998682]},"properties":{"Name":"宮仲公園","Jusho":"沖縄県浦添市宮城4丁目21番9号","kouzui":"○","gake":"○","takashio":"○","jishin":"○","tsunami":"○","kaji":"○","naisui":"○","kazan":"×"}}
,{"type":"Feature","geometry":{"type":"Point","coordinates":[127.7245551548,26.263039676474]},"properties":{"Name":"まちなと公園","Jusho":"沖縄県浦添市牧港2丁目38番","kouzui":"○","gake":"○","takashio":"○","jishin":"○","tsunami":"○","kaji":"○","naisui":"○","kazan":"×"}}
,{"type":"Feature","geometry":{"type":"Point","coordinates":[127.73034979002,26.257397306053]},"properties":{"Name":"安川北公園","Jusho":"沖縄県浦添市牧港3丁目30番1号","kouzui":"○","gake":"○","takashio":"○","jishin":"○","tsunami":"○","kaji":"○","naisui":"○","kazan":"×"}}
,{"type":"Feature","geometry":{"type":"Point","coordinates":[127.72971738276,26.256299168562]},"properties":{"Name":"安川南公園","Jusho":"沖縄県浦添市牧港3丁目36番1号","kouzui":"○","gake":"○","takashio":"○","jishin":"○","tsunami":"○","kaji":"○","naisui":"○","kazan":"×"}}
,{"type":"Feature","geometry":{"type":"Point","coordinates":[127.72364101342,26.268643304673]},"properties":{"Name":"うえの公園","Jusho":"沖縄県浦添市牧港5丁目19番","kouzui":"○","gake":"○","takashio":"×","jishin":"○","tsunami":"×","kaji":"○","naisui":"○","kazan":"×"}}
,{"type":"Feature","geometry":{"type":"Point","coordinates":[127.72349874164,26.26885034835]},"properties":{"Name":"うえの北公園","Jusho":"沖縄県浦添市牧港5丁目20番地","kouzui":"○","gake":"○","takashio":"×","jishin":"○","tsunami":"×","kaji":"○","naisui":"○","kazan":"×"}}
,{"type":"Feature","geometry":{"type":"Point","coordinates":[127.71971681342,26.263592428573]},"properties":{"Name":"牧港緑地（ふれあい広場）","Jusho":"沖縄県浦添市牧港1丁目63番1号","kouzui":"○","gake":"×","takashio":"○","jishin":"○","tsunami":"○","kaji":"○","naisui":"○","kazan":"×"}}
,{"type":"Feature","geometry":{"type":"Point","coordinates":[127.709956532,26.236668067684]},"properties":{"Name":"めじろ公園","Jusho":"沖縄県浦添市字沢岻284-36","kouzui":"○","gake":"○","takashio":"○","jishin":"○","tsunami":"○","kaji":"○","naisui":"○","kazan":"×"}}
,{"type":"Feature","geometry":{"type":"Point","coordinates":[127.71129763651,26.234377651051]},"properties":{"Name":"沢岻端川原東公園","Jusho":"沖縄県浦添市字沢岻727-1","kouzui":"○","gake":"○","takashio":"○","jishin":"○","tsunami":"○","kaji":"○","naisui":"○","kazan":"×"}}
,{"type":"Feature","geometry":{"type":"Point","coordinates":[127.7139449768,26.233971049263]},"properties":{"Name":"沢岻前原西公園","Jusho":"沖縄県浦添市字沢岻812-10","kouzui":"○","gake":"○","takashio":"○","jishin":"○","tsunami":"○","kaji":"○","naisui":"○","kazan":"×"}}
,{"type":"Feature","geometry":{"type":"Point","coordinates":[127.71763301419,26.234724103522]},"properties":{"Name":"沢岻前原公園","Jusho":"沖縄県浦添市字沢岻902-13","kouzui":"○","gake":"○","takashio":"○","jishin":"○","tsunami":"○","kaji":"○","naisui":"○","kazan":"×"}}
,{"type":"Feature","geometry":{"type":"Point","coordinates":[127.71825339013,26.236278582442]},"properties":{"Name":"沢岻長田原公園","Jusho":"沖縄県浦添市字沢岻974","kouzui":"○","gake":"○","takashio":"○","jishin":"○","tsunami":"○","kaji":"○","naisui":"○","kazan":"×"}}
,{"type":"Feature","geometry":{"type":"Point","coordinates":[127.7091840558,26.235253403916]},"properties":{"Name":"クニンドーの森公園","Jusho":"沖縄県浦添市字沢岻735-1","kouzui":"○","gake":"×","takashio":"○","jishin":"○","tsunami":"○","kaji":"○","naisui":"○","kazan":"×"}}
,{"type":"Feature","geometry":{"type":"Point","coordinates":[127.71602100658,26.236071408874]},"properties":{"Name":"沢岻緑地","Jusho":"沖縄県浦添市字沢岻391-1","kouzui":"○","gake":"○","takashio":"○","jishin":"○","tsunami":"○","kaji":"○","naisui":"○","kazan":"×"}}
,{"type":"Feature","geometry":{"type":"Point","coordinates":[127.70693636464,26.238987309134]},"properties":{"Name":"内間東原公園","Jusho":"沖縄県浦添市内間1丁目13","kouzui":"○","gake":"○","takashio":"○","jishin":"○","tsunami":"○","kaji":"○","naisui":"○","kazan":"×"}}
,{"type":"Feature","geometry":{"type":"Point","coordinates":[127.70405273354,26.235375577448]},"properties":{"Name":"内間東公園","Jusho":"沖縄県浦添市内間2丁目19番","kouzui":"○","gake":"○","takashio":"○","jishin":"○","tsunami":"○","kaji":"○","naisui":"○","kazan":"×"}}
,{"type":"Feature","geometry":{"type":"Point","coordinates":[127.69874865833,26.23735817698]},"properties":{"Name":"内間西公園","Jusho":"沖縄県浦添市内間3丁目17番","kouzui":"○","gake":"○","takashio":"×","jishin":"○","tsunami":"×","kaji":"○","naisui":"○","kazan":"×"}}
,{"type":"Feature","geometry":{"type":"Point","coordinates":[127.70290169661,26.239882669086]},"properties":{"Name":"内間後原なかよし公園","Jusho":"沖縄県浦添市内間4丁目8番","kouzui":"○","gake":"○","takashio":"○","jishin":"○","tsunami":"○","kaji":"○","naisui":"○","kazan":"×"}}
,{"type":"Feature","geometry":{"type":"Point","coordinates":[127.70508749647,26.240903371337]},"properties":{"Name":"内間後原公園","Jusho":"沖縄県浦添市内間4丁目18番","kouzui":"○","gake":"○","takashio":"○","jishin":"○","tsunami":"○","kaji":"○","naisui":"○","kazan":"×"}}
,{"type":"Feature","geometry":{"type":"Point","coordinates":[127.69753191416,26.239286026777]},"properties":{"Name":"内間西原公園","Jusho":"沖縄県浦添市内間4丁目8番","kouzui":"○","gake":"○","takashio":"○","jishin":"○","tsunami":"○","kaji":"○","naisui":"○","kazan":"×"}}
,{"type":"Feature","geometry":{"type":"Point","coordinates":[127.71905980063,26.24473643237]},"properties":{"Name":"ニュータウン公園","Jusho":"沖縄県浦添市安波茶1丁目13番地","kouzui":"○","gake":"○","takashio":"○","jishin":"○","tsunami":"○","kaji":"○","naisui":"○","kazan":"×"}}
,{"type":"Feature","geometry":{"type":"Point","coordinates":[127.71838969455,26.247725806042]},"properties":{"Name":"和久原公園","Jusho":"沖縄県浦添市安波茶1丁目28番","kouzui":"○","gake":"○","takashio":"○","jishin":"○","tsunami":"○","kaji":"○","naisui":"○","kazan":"×"}}
,{"type":"Feature","geometry":{"type":"Point","coordinates":[127.72080497743,26.242267716299]},"properties":{"Name":"あじさい公園","Jusho":"沖縄県浦添市安波茶3丁目26番","kouzui":"○","gake":"○","takashio":"○","jishin":"○","tsunami":"○","kaji":"○","naisui":"○","kazan":"×"}}
,{"type":"Feature","geometry":{"type":"Point","coordinates":[127.71925885185,26.243554956899]},"properties":{"Name":"老年原公園","Jusho":"沖縄県浦添市安波茶3丁目34番","kouzui":"○","gake":"×","takashio":"○","jishin":"○","tsunami":"○","kaji":"○","naisui":"○","kazan":"×"}}
,{"type":"Feature","geometry":{"type":"Point","coordinates":[127.71043091022,26.246143796802]},"properties":{"Name":"大平小公園","Jusho":"沖縄県浦添市大平2丁目5番","kouzui":"○","gake":"×","takashio":"○","jishin":"○","tsunami":"○","kaji":"○","naisui":"○","kazan":"×"}}
,{"type":"Feature","geometry":{"type":"Point","coordinates":[127.70883348814,26.241894391159]},"properties":{"Name":"沢岻兼元原公園","Jusho":"沖縄県浦添市大平2丁目16番","kouzui":"○","gake":"○","takashio":"○","jishin":"○","tsunami":"○","kaji":"○","naisui":"○","kazan":"×"}}
,{"type":"Feature","geometry":{"type":"Point","coordinates":[127.7113225781,26.24177891424]},"properties":{"Name":"大平瓶ノ原公園","Jusho":"沖縄県浦添市字大平479-1","kouzui":"○","gake":"○","takashio":"○","jishin":"○","tsunami":"○","kaji":"○","naisui":"○","kazan":"×"}}
,{"type":"Feature","geometry":{"type":"Point","coordinates":[127.69551876781,26.241518730497]},"properties":{"Name":"勢理客小公園","Jusho":"沖縄県浦添市勢理客1丁目22","kouzui":"○","gake":"○","takashio":"○","jishin":"○","tsunami":"○","kaji":"○","naisui":"○","kazan":"×"}}
,{"type":"Feature","geometry":{"type":"Point","coordinates":[127.69717083713,26.243587801516]},"properties":{"Name":"ゆうな公園","Jusho":"沖縄県浦添市勢理客2丁目6","kouzui":"○","gake":"○","takashio":"○","jishin":"○","tsunami":"○","kaji":"○","naisui":"○","kazan":"×"}}
,{"type":"Feature","geometry":{"type":"Point","coordinates":[127.69224209787,26.241375009708]},"properties":{"Name":"むつき公園","Jusho":"沖縄県浦添市勢理客3丁目11","kouzui":"○","gake":"○","takashio":"×","jishin":"○","tsunami":"×","kaji":"○","naisui":"○","kazan":"×"}}
,{"type":"Feature","geometry":{"type":"Point","coordinates":[127.68821755603,26.245678013976]},"properties":{"Name":"組踊公園","Jusho":"沖縄県浦添市勢理客4丁目14番","kouzui":"○","gake":"○","takashio":"×","jishin":"○","tsunami":"×","kaji":"○","naisui":"○","kazan":"×"}}
,{"type":"Feature","geometry":{"type":"Point","coordinates":[127.72749102757,26.244572988031]},"properties":{"Name":"茶山第2公園","Jusho":"沖縄県浦添市仲間3丁目4番","kouzui":"○","gake":"○","takashio":"○","jishin":"○","tsunami":"○","kaji":"○","naisui":"○","kazan":"×"}}
,{"type":"Feature","geometry":{"type":"Point","coordinates":[127.72725428198,26.243380759916]},"properties":{"Name":"茶山第1公園","Jusho":"沖縄県浦添市仲間3丁目14番地","kouzui":"○","gake":"○","takashio":"○","jishin":"○","tsunami":"○","kaji":"○","naisui":"○","kazan":"×"}}
,{"type":"Feature","geometry":{"type":"Point","coordinates":[127.72766996783,26.252438842456]},"properties":{"Name":"浦添墓地公園","Jusho":"沖縄県浦添市仲間2丁目54番","kouzui":"○","gake":"○","takashio":"○","jishin":"○","tsunami":"○","kaji":"○","naisui":"○","kazan":"×"}}
,{"type":"Feature","geometry":{"type":"Point","coordinates":[127.71230644687,26.265044368602]},"properties":{"Name":"港川サンハイツ公園","Jusho":"沖縄県浦添市字港川281-49","kouzui":"○","gake":"×","takashio":"○","jishin":"○","tsunami":"○","kaji":"○","naisui":"○","kazan":"×"}}
,{"type":"Feature","geometry":{"type":"Point","coordinates":[127.71176464064,26.265068421486]},"properties":{"Name":"港川原公園","Jusho":"沖縄県浦添市字港川310-23","kouzui":"○","gake":"×","takashio":"○","jishin":"○","tsunami":"○","kaji":"○","naisui":"○","kazan":"×"}}
,{"type":"Feature","geometry":{"type":"Point","coordinates":[127.71905777052,26.26313685115]},"properties":{"Name":"牧港緑地（展望広場）","Jusho":"沖縄県浦添市港川1丁目34番","kouzui":"○","gake":"×","takashio":"○","jishin":"○","tsunami":"○","kaji":"○","naisui":"○","kazan":"×"}}
,{"type":"Feature","geometry":{"type":"Point","coordinates":[127.72202797982,26.239984145912]},"properties":{"Name":"夕陽ヶ丘公園","Jusho":"沖縄県浦添市経塚1丁目17番地","kouzui":"○","gake":"×","takashio":"○","jishin":"○","tsunami":"○","kaji":"○","naisui":"○","kazan":"×"}}
,{"type":"Feature","geometry":{"type":"Point","coordinates":[127.71989873658,26.237624076029]},"properties":{"Name":"経塚洗江原公園","Jusho":"沖縄県浦添市字経塚253-9","kouzui":"○","gake":"○","takashio":"○","jishin":"○","tsunami":"○","kaji":"○","naisui":"○","kazan":"×"}}
,{"type":"Feature","geometry":{"type":"Point","coordinates":[127.72408494221,26.238751200256]},"properties":{"Name":"龍巻松の木公園","Jusho":"沖縄県浦添市経塚916番地","kouzui":"○","gake":"○","takashio":"○","jishin":"○","tsunami":"○","kaji":"○","naisui":"○","kazan":"×"}}
,{"type":"Feature","geometry":{"type":"Point","coordinates":[127.73146555744,26.253895006018]},"properties":{"Name":"当山ハイツ公園","Jusho":"沖縄県浦添市当山1丁目9番","kouzui":"○","gake":"○","takashio":"○","jishin":"○","tsunami":"○","kaji":"○","naisui":"○","kazan":"×"}}
,{"type":"Feature","geometry":{"type":"Point","coordinates":[127.73414771791,26.251063256946]},"properties":{"Name":"当山勢理原公園","Jusho":"沖縄県浦添市当山2丁目23番","kouzui":"○","gake":"○","takashio":"○","jishin":"○","tsunami":"○","kaji":"○","naisui":"○","kazan":"×"}}
,{"type":"Feature","geometry":{"type":"Point","coordinates":[127.73247216648,26.252319211655]},"properties":{"Name":"当山小公園","Jusho":"沖縄県浦添市当山2丁目37番","kouzui":"○","gake":"○","takashio":"○","jishin":"○","tsunami":"○","kaji":"○","naisui":"○","kazan":"×"}}
,{"type":"Feature","geometry":{"type":"Point","coordinates":[127.71231765243,26.250774425325]},"properties":{"Name":"たんぽぽ公園","Jusho":"沖縄県浦添市屋富祖1丁目7番1号","kouzui":"○","gake":"○","takashio":"○","jishin":"○","tsunami":"○","kaji":"○","naisui":"○","kazan":"×"}}
,{"type":"Feature","geometry":{"type":"Point","coordinates":[127.70820654893,26.252471169083]},"properties":{"Name":"なかし公園","Jusho":"沖縄県浦添市屋富祖3丁目1番","kouzui":"○","gake":"○","takashio":"○","jishin":"○","tsunami":"○","kaji":"○","naisui":"○","kazan":"×"}}
,{"type":"Feature","geometry":{"type":"Point","coordinates":[127.70017736928,26.24704674275]},"properties":{"Name":"仲の浦公園","Jusho":"沖縄県浦添市仲西2丁目2番22号","kouzui":"○","gake":"○","takashio":"○","jishin":"○","tsunami":"○","kaji":"○","naisui":"○","kazan":"×"}}
,{"type":"Feature","geometry":{"type":"Point","coordinates":[127.7237568542,26.267990883836]},"properties":{"Name":"沖縄県建設会館","Jusho":"沖縄県浦添市牧港5-6-8","kouzui":"×","gake":"×","takashio":"×","jishin":"×","tsunami":"○","kaji":"×","naisui":"×","kazan":"×"}}
,{"type":"Feature","geometry":{"type":"Point","coordinates":[127.72577387538,26.268279510781]},"properties":{"Name":"牧港ドライビングスクール","Jusho":"沖縄県浦添市牧港5-10-1","kouzui":"×","gake":"×","takashio":"×","jishin":"×","tsunami":"○","kaji":"×","naisui":"×","kazan":"×"}}
,{"type":"Feature","geometry":{"type":"Point","coordinates":[127.69095289125,26.243061732016]},"properties":{"Name":"沖縄トヨタ自動車（株）","Jusho":"沖縄県浦添市勢理客4-18-1","kouzui":"×","gake":"×","takashio":"×","jishin":"×","tsunami":"○","kaji":"×","naisui":"×","kazan":"×"}}
,{"type":"Feature","geometry":{"type":"Point","coordinates":[127.68979745857,26.246075828963]},"properties":{"Name":"市産業振興センター結の街","Jusho":"沖縄県浦添市勢理客4-13-1","kouzui":"×","gake":"×","takashio":"×","jishin":"×","tsunami":"○","kaji":"×","naisui":"×","kazan":"×"}}
,{"type":"Feature","geometry":{"type":"Point","coordinates":[127.66975594929,26.247829491828]},"properties":{"Name":"沖縄県中央卸売市場","Jusho":"沖縄県浦添市伊奈武瀬1-11-1","kouzui":"×","gake":"×","takashio":"×","jishin":"×","tsunami":"○","kaji":"×","naisui":"×","kazan":"×"}}
,{"type":"Feature","geometry":{"type":"Point","coordinates":[127.68658412863,26.249648145283]},"properties":{"Name":"琉球セメント","Jusho":"沖縄県浦添市西洲2-2-2","kouzui":"×","gake":"×","takashio":"×","jishin":"×","tsunami":"○","kaji":"×","naisui":"×","kazan":"×"}}
,{"type":"Feature","geometry":{"type":"Point","coordinates":[127.71468314298,26.266619374586]},"properties":{"Name":"テックランド浦添店","Jusho":"沖縄県浦添市港川241-3","kouzui":"×","gake":"×","takashio":"×","jishin":"×","tsunami":"○","kaji":"×","naisui":"×","kazan":"×"}}
,{"type":"Feature","geometry":{"type":"Point","coordinates":[127.67341759082,26.248955284628]},"properties":{"Name":"いなんせ会館","Jusho":"沖縄県浦添市伊奈武瀬1-7-1","kouzui":"×","gake":"×","takashio":"×","jishin":"×","tsunami":"○","kaji":"×","naisui":"×","kazan":"×"}}
,{"type":"Feature","geometry":{"type":"Point","coordinates":[127.68717438417,26.245338062722]},"properties":{"Name":"シンバネットワーク","Jusho":"沖縄県浦添市勢理客4-15-15","kouzui":"×","gake":"×","takashio":"×","jishin":"×","tsunami":"○","kaji":"×","naisui":"×","kazan":"×"}}
,{"type":"Feature","geometry":{"type":"Point","coordinates":[127.67193667803,26.244538453193]},"properties":{"Name":"ホテルモーリアクラッシック","Jusho":"沖縄県那覇市港町4-3-27","kouzui":"×","gake":"×","takashio":"×","jishin":"×","tsunami":"○","kaji":"×","naisui":"×","kazan":"×"}}
,{"type":"Feature","geometry":{"type":"Point","coordinates":[127.72328020643,26.094945361602]},"properties":{"Name":"平和祈念公園","Jusho":"沖縄県糸満市摩文仁４４４","kouzui":"○","gake":"○","takashio":"○","jishin":"○","tsunami":"○","kaji":"○","naisui":"○","kazan":"×"}}
,{"type":"Feature","geometry":{"type":"Point","coordinates":[127.71736034984,26.103001251672]},"properties":{"Name":"糸満観光農園","Jusho":"沖縄県糸満市摩文仁1018","kouzui":"○","gake":"○","takashio":"○","jishin":"○","tsunami":"○","kaji":"○","naisui":"○","kazan":"×"}}
,{"type":"Feature","geometry":{"type":"Point","coordinates":[127.67410968058,26.118539543221]},"properties":{"Name":"ロンドン杜公園","Jusho":"沖縄県糸満市真栄里1473","kouzui":"○","gake":"○","takashio":"○","jishin":"○","tsunami":"○","kaji":"○","naisui":"○","kazan":"×"}}
,{"type":"Feature","geometry":{"type":"Point","coordinates":[127.6630462243,26.146435616343]},"properties":{"Name":"西崎総合運動公園","Jusho":"沖縄県糸満市西崎町3丁目","kouzui":"×","gake":"○","takashio":"×","jishin":"×","tsunami":"×","kaji":"○","naisui":"×","kazan":"×"}}
,{"type":"Feature","geometry":{"type":"Point","coordinates":[127.67454753656,26.130567527912]},"properties":{"Name":"糸満小学校グラウンド","Jusho":"沖縄県糸満市糸満673番地","kouzui":"○","gake":"○","takashio":"○","jishin":"○","tsunami":"○","kaji":"○","naisui":"○","kazan":"×"}}
,{"type":"Feature","geometry":{"type":"Point","coordinates":[127.67626415033,26.13146332569]},"properties":{"Name":"糸満中学校グラウンド","Jusho":"沖縄県糸満市糸満1880番地","kouzui":"○","gake":"○","takashio":"○","jishin":"○","tsunami":"○","kaji":"○","naisui":"○","kazan":"×"}}
,{"type":"Feature","geometry":{"type":"Point","coordinates":[127.69043240917,26.14517546373]},"properties":{"Name":"兼城小学校グラウンド","Jusho":"沖縄県糸満市賀数1番地","kouzui":"○","gake":"○","takashio":"○","jishin":"○","tsunami":"○","kaji":"○","naisui":"○","kazan":"×"}}
,{"type":"Feature","geometry":{"type":"Point","coordinates":[127.69127998721,26.144722802747]},"properties":{"Name":"兼城中学校グラウンド","Jusho":"沖縄県糸満市座波1271番地","kouzui":"○","gake":"○","takashio":"○","jishin":"○","tsunami":"○","kaji":"○","naisui":"○","kazan":"×"}}
,{"type":"Feature","geometry":{"type":"Point","coordinates":[127.69877244308,26.096552480184]},"properties":{"Name":"米須小学校グラウンド","Jusho":"沖縄県糸満市米須632番地","kouzui":"○","gake":"○","takashio":"○","jishin":"○","tsunami":"○","kaji":"○","naisui":"○","kazan":"×"}}
,{"type":"Feature","geometry":{"type":"Point","coordinates":[127.68870802719,26.103190195474]},"properties":{"Name":"真壁小学校グラウンド","Jusho":"沖縄県糸満市真壁630番地","kouzui":"○","gake":"○","takashio":"○","jishin":"○","tsunami":"○","kaji":"○","naisui":"○","kazan":"×"}}
,{"type":"Feature","geometry":{"type":"Point","coordinates":[127.68963607151,26.102732554507]},"properties":{"Name":"三和中学校グラウンド","Jusho":"沖縄県糸満市真壁519番地","kouzui":"○","gake":"○","takashio":"○","jishin":"○","tsunami":"○","kaji":"○","naisui":"○","kazan":"×"}}
,{"type":"Feature","geometry":{"type":"Point","coordinates":[127.66577810753,26.093933071775]},"properties":{"Name":"喜屋武小学校グラウンド","Jusho":"沖縄県糸満市喜屋武555番地","kouzui":"○","gake":"○","takashio":"○","jishin":"○","tsunami":"○","kaji":"○","naisui":"○","kazan":"×"}}
,{"type":"Feature","geometry":{"type":"Point","coordinates":[127.68945328315,26.127651313744]},"properties":{"Name":"高嶺小学校グラウンド","Jusho":"沖縄県糸満市大里1901番地","kouzui":"○","gake":"○","takashio":"○","jishin":"○","tsunami":"○","kaji":"○","naisui":"○","kazan":"×"}}
,{"type":"Feature","geometry":{"type":"Point","coordinates":[127.68828920444,26.127015566249]},"properties":{"Name":"高嶺中学校グラウンド","Jusho":"沖縄県糸満市大里1902番地","kouzui":"○","gake":"○","takashio":"○","jishin":"○","tsunami":"○","kaji":"○","naisui":"○","kazan":"×"}}
,{"type":"Feature","geometry":{"type":"Point","coordinates":[127.67163150195,26.111961067248]},"properties":{"Name":"社会福祉センターグラウンド","Jusho":"沖縄県糸満市真栄里857番地","kouzui":"○","gake":"○","takashio":"○","jishin":"○","tsunami":"○","kaji":"○","naisui":"○","kazan":"×"}}
,{"type":"Feature","geometry":{"type":"Point","coordinates":[127.66730970588,26.142337825065]},"properties":{"Name":"西崎小学校グラウンド","Jusho":"沖縄県糸満市西崎2丁目4番1号","kouzui":"×","gake":"○","takashio":"×","jishin":"×","tsunami":"×","kaji":"○","naisui":"×","kazan":"×"}}
,{"type":"Feature","geometry":{"type":"Point","coordinates":[127.66645139899,26.141995913407]},"properties":{"Name":"西崎小学校校舎","Jusho":"沖縄県糸満市西崎2丁目4番1号","kouzui":"×","gake":"×","takashio":"×","jishin":"×","tsunami":"○","kaji":"×","naisui":"×","kazan":"×"}}
,{"type":"Feature","geometry":{"type":"Point","coordinates":[127.66951902218,26.146960813337]},"properties":{"Name":"西崎中学校グラウンド","Jusho":"沖縄県糸満市西崎3丁目422番地","kouzui":"×","gake":"○","takashio":"×","jishin":"×","tsunami":"×","kaji":"○","naisui":"×","kazan":"×"}}
,{"type":"Feature","geometry":{"type":"Point","coordinates":[127.6692883522,26.147394203877]},"properties":{"Name":"西崎中学校校舎","Jusho":"沖縄県糸満市西崎3丁目422番地","kouzui":"×","gake":"×","takashio":"×","jishin":"×","tsunami":"○","kaji":"×","naisui":"×","kazan":"×"}}
,{"type":"Feature","geometry":{"type":"Point","coordinates":[127.66357096225,26.149096198435]},"properties":{"Name":"光洋小学校グラウンド","Jusho":"沖縄県糸満市西崎町3丁目7番地の１２","kouzui":"×","gake":"○","takashio":"×","jishin":"×","tsunami":"×","kaji":"○","naisui":"×","kazan":"×"}}
,{"type":"Feature","geometry":{"type":"Point","coordinates":[127.66687651791,26.120185466953]},"properties":{"Name":"糸満南小学校グラウンド","Jusho":"沖縄県糸満市潮崎町3丁目1番地","kouzui":"×","gake":"○","takashio":"×","jishin":"×","tsunami":"×","kaji":"○","naisui":"×","kazan":"×"}}
,{"type":"Feature","geometry":{"type":"Point","coordinates":[127.67431540744,26.145523990577]},"properties":{"Name":"潮平小学校グラウンド","Jusho":"沖縄県糸満市潮平634番地の２","kouzui":"×","gake":"○","takashio":"×","jishin":"×","tsunami":"×","kaji":"○","naisui":"×","kazan":"×"}}
,{"type":"Feature","geometry":{"type":"Point","coordinates":[127.6748679425,26.145398787024]},"properties":{"Name":"潮平小学校校舎","Jusho":"沖縄県糸満市潮平634番地の2","kouzui":"×","gake":"×","takashio":"×","jishin":"×","tsunami":"○","kaji":"×","naisui":"×","kazan":"×"}}
,{"type":"Feature","geometry":{"type":"Point","coordinates":[127.67462654368,26.147609091532]},"properties":{"Name":"潮平中学校グラウンド","Jusho":"沖縄県糸満市阿波根1200番地","kouzui":"×","gake":"○","takashio":"×","jishin":"×","tsunami":"×","kaji":"○","naisui":"×","kazan":"×"}}
,{"type":"Feature","geometry":{"type":"Point","coordinates":[127.67484648482,26.148220649874]},"properties":{"Name":"潮平中学校校舎","Jusho":"沖縄県糸満市阿波根1200番地","kouzui":"×","gake":"×","takashio":"×","jishin":"×","tsunami":"○","kaji":"×","naisui":"×","kazan":"×"}}
,{"type":"Feature","geometry":{"type":"Point","coordinates":[127.6661594476,26.144031428848]},"properties":{"Name":"県営西崎団地","Jusho":"沖縄県糸満市西崎2丁目5番の９","kouzui":"×","gake":"×","takashio":"×","jishin":"×","tsunami":"○","kaji":"×","naisui":"×","kazan":"×"}}
,{"type":"Feature","geometry":{"type":"Point","coordinates":[127.66197956118,26.14919728918]},"properties":{"Name":"県営西崎第２団地","Jusho":"沖縄県糸満市西崎町３丁目7番の9","kouzui":"×","gake":"×","takashio":"×","jishin":"×","tsunami":"○","kaji":"×","naisui":"×","kazan":"×"}}
,{"type":"Feature","geometry":{"type":"Point","coordinates":[127.6706950809,26.150755647709]},"properties":{"Name":"県営潮平高層住宅","Jusho":"沖縄県糸満市潮平791番地","kouzui":"×","gake":"×","takashio":"×","jishin":"×","tsunami":"○","kaji":"×","naisui":"×","kazan":"×"}}
,{"type":"Feature","geometry":{"type":"Point","coordinates":[127.66077048422,26.146820204415]},"properties":{"Name":"スポーツロッジ糸満","Jusho":"沖縄県糸満市西崎町3丁目1番地","kouzui":"×","gake":"×","takashio":"×","jishin":"×","tsunami":"○","kaji":"×","naisui":"×","kazan":"×"}}
,{"type":"Feature","geometry":{"type":"Point","coordinates":[127.67039423195,26.136121755058]},"properties":{"Name":"エンゼルハイム糸満","Jusho":"沖縄県糸満市兼城581番地の１","kouzui":"×","gake":"×","takashio":"×","jishin":"×","tsunami":"○","kaji":"×","naisui":"×","kazan":"×"}}
,{"type":"Feature","geometry":{"type":"Point","coordinates":[127.66629141474,26.135609657227]},"properties":{"Name":"沖縄水産高等学校","Jusho":"沖縄県糸満市西崎1丁目1番地の１","kouzui":"×","gake":"×","takashio":"×","jishin":"×","tsunami":"○","kaji":"×","naisui":"×","kazan":"×"}}
,{"type":"Feature","geometry":{"type":"Point","coordinates":[127.67318951095,26.141669572177]},"properties":{"Name":"県営浜川団地","Jusho":"沖縄県糸満市兼城340番地","kouzui":"×","gake":"×","takashio":"×","jishin":"×","tsunami":"○","kaji":"×","naisui":"×","kazan":"×"}}
,{"type":"Feature","geometry":{"type":"Point","coordinates":[127.66577228388,26.123554193233]},"properties":{"Name":"糸満市役所","Jusho":"沖縄県糸満市潮崎町1丁目1番地","kouzui":"×","gake":"×","takashio":"×","jishin":"×","tsunami":"○","kaji":"×","naisui":"×","kazan":"×"}}
,{"type":"Feature","geometry":{"type":"Point","coordinates":[127.67252735341,26.119475207151]},"properties":{"Name":"糸満市中央図書館","Jusho":"沖縄県糸満市真栄里1448番地","kouzui":"×","gake":"×","takashio":"×","jishin":"×","tsunami":"○","kaji":"×","naisui":"×","kazan":"×"}}
,{"type":"Feature","geometry":{"type":"Point","coordinates":[127.65294503246,26.13199298108]},"properties":{"Name":"サザンビーチホテル","Jusho":"沖縄県糸満市西崎1丁目6番地の１","kouzui":"×","gake":"×","takashio":"×","jishin":"×","tsunami":"○","kaji":"×","naisui":"×","kazan":"×"}}
,{"type":"Feature","geometry":{"type":"Point","coordinates":[127.67608356784,26.128889827772]},"properties":{"Name":"沖縄県立糸満高校","Jusho":"沖縄県糸満市糸満1696番地の１","kouzui":"×","gake":"×","takashio":"×","jishin":"×","tsunami":"○","kaji":"×","naisui":"×","kazan":"×"}}
,{"type":"Feature","geometry":{"type":"Point","coordinates":[127.67038655903,26.142983298534]},"properties":{"Name":"すこやか館","Jusho":"沖縄県糸満市西崎6丁目4番の８","kouzui":"×","gake":"×","takashio":"×","jishin":"×","tsunami":"○","kaji":"×","naisui":"×","kazan":"×"}}
,{"type":"Feature","geometry":{"type":"Point","coordinates":[127.66490720897,26.131042355105]},"properties":{"Name":"国道３３１号糸満高架橋","Jusho":"沖縄県糸満市字糸満・西崎１丁目","kouzui":"×","gake":"×","takashio":"×","jishin":"×","tsunami":"○","kaji":"×","naisui":"×","kazan":"×"}}
,{"type":"Feature","geometry":{"type":"Point","coordinates":[127.67863646265,26.127245144253]},"properties":{"Name":"稲嶺原市営住宅Ａ棟","Jusho":"沖縄県糸満市字糸満1736番地","kouzui":"×","gake":"×","takashio":"×","jishin":"×","tsunami":"○","kaji":"×","naisui":"×","kazan":"×"}}
,{"type":"Feature","geometry":{"type":"Point","coordinates":[127.69469732379,26.18119635852]},"properties":{"Name":"長嶺小学校グラウンド","Jusho":"沖縄県豊見城市字饒波1018","kouzui":"○","gake":"×","takashio":"○","jishin":"○","tsunami":"○","kaji":"○","naisui":"○","kazan":"○"}}
,{"type":"Feature","geometry":{"type":"Point","coordinates":[127.67285710265,26.165678584223]},"properties":{"Name":"座安小学校グラウンド","Jusho":"沖縄県豊見城市字座安230-1","kouzui":"○","gake":"○","takashio":"○","jishin":"○","tsunami":"○","kaji":"○","naisui":"○","kazan":"○"}}
,{"type":"Feature","geometry":{"type":"Point","coordinates":[127.69968091781,26.167463702098]},"properties":{"Name":"豊見城小学校グラウンド","Jusho":"沖縄県豊見城市字高嶺439-2","kouzui":"○","gake":"×","takashio":"○","jishin":"○","tsunami":"○","kaji":"○","naisui":"○","kazan":"○"}}
,{"type":"Feature","geometry":{"type":"Point","coordinates":[127.67259597118,26.173881404795]},"properties":{"Name":"伊良波小学校グラウンド","Jusho":"沖縄県豊見城市字伊良波300","kouzui":"○","gake":"○","takashio":"○","jishin":"○","tsunami":"○","kaji":"○","naisui":"○","kazan":"○"}}
,{"type":"Feature","geometry":{"type":"Point","coordinates":[127.68891291146,26.184873721624]},"properties":{"Name":"とよみ小学校グラウンド","Jusho":"沖縄県豊見城市字高安1132-2","kouzui":"○","gake":"×","takashio":"○","jishin":"○","tsunami":"○","kaji":"○","naisui":"○","kazan":"○"}}
,{"type":"Feature","geometry":{"type":"Point","coordinates":[127.66344197215,26.157596434216]},"properties":{"Name":"豊崎小学校グラウンド","Jusho":"沖縄県豊見城市字豊崎1-406","kouzui":"○","gake":"○","takashio":"×","jishin":"○","tsunami":"×","kaji":"○","naisui":"○","kazan":"○"}}
,{"type":"Feature","geometry":{"type":"Point","coordinates":[127.68187801266,26.180621030512]},"properties":{"Name":"ゆたか小学校グラウンド","Jusho":"沖縄県豊見城市字豊見城601-1","kouzui":"○","gake":"○","takashio":"○","jishin":"○","tsunami":"○","kaji":"○","naisui":"○","kazan":"○"}}
,{"type":"Feature","geometry":{"type":"Point","coordinates":[127.69674245496,26.182839673447]},"properties":{"Name":"長嶺中学校グラウンド","Jusho":"沖縄県豊見城市字饒波1068-2","kouzui":"○","gake":"×","takashio":"○","jishin":"○","tsunami":"○","kaji":"○","naisui":"○","kazan":"○"}}
,{"type":"Feature","geometry":{"type":"Point","coordinates":[127.67238398247,26.172145674037]},"properties":{"Name":"伊良波中学校グラウンド","Jusho":"沖縄県豊見城市字伊良波273","kouzui":"○","gake":"○","takashio":"○","jishin":"○","tsunami":"○","kaji":"○","naisui":"○","kazan":"○"}}
,{"type":"Feature","geometry":{"type":"Point","coordinates":[127.67170170268,26.159595880348]},"properties":{"Name":"豊見城南高等学校グラウンド","Jusho":"沖縄県豊見城市字翁長520","kouzui":"○","gake":"○","takashio":"○","jishin":"○","tsunami":"○","kaji":"○","naisui":"○","kazan":"○"}}
,{"type":"Feature","geometry":{"type":"Point","coordinates":[127.69122438293,26.174729449538]},"properties":{"Name":"豊見城総合公園","Jusho":"沖縄県豊見城市字平良468-3","kouzui":"○","gake":"○","takashio":"○","jishin":"○","tsunami":"○","kaji":"○","naisui":"○","kazan":"○"}}
,{"type":"Feature","geometry":{"type":"Point","coordinates":[127.6964841948,26.169086938026]},"properties":{"Name":"豊見城団地緑地","Jusho":"沖縄県豊見城市字平良、高嶺地内","kouzui":"○","gake":"○","takashio":"○","jishin":"○","tsunami":"○","kaji":"○","naisui":"○","kazan":"○"}}
,{"type":"Feature","geometry":{"type":"Point","coordinates":[127.6758805619,26.182197517489]},"properties":{"Name":"すみれ児童公園","Jusho":"沖縄県豊見城市字豊見城422","kouzui":"○","gake":"○","takashio":"○","jishin":"○","tsunami":"○","kaji":"○","naisui":"○","kazan":"○"}}
,{"type":"Feature","geometry":{"type":"Point","coordinates":[127.69402374296,26.189542756083]},"properties":{"Name":"豊見城ニュータウン第１号公園","Jusho":"沖縄県豊見城市字根差部123-1","kouzui":"○","gake":"○","takashio":"○","jishin":"○","tsunami":"○","kaji":"○","naisui":"○","kazan":"○"}}
,{"type":"Feature","geometry":{"type":"Point","coordinates":[127.64274795322,26.174561555022]},"properties":{"Name":"瀬長島展望広場","Jusho":"沖縄県豊見城市字瀬長地内","kouzui":"○","gake":"○","takashio":"○","jishin":"○","tsunami":"○","kaji":"○","naisui":"○","kazan":"○"}}
,{"type":"Feature","geometry":{"type":"Point","coordinates":[127.6768238637,26.166497403254]},"properties":{"Name":"県営渡橋名団地多目的広場","Jusho":"沖縄県豊見城市字渡橋名160","kouzui":"×","gake":"×","takashio":"×","jishin":"×","tsunami":"○","kaji":"×","naisui":"×","kazan":"×"}}
,{"type":"Feature","geometry":{"type":"Point","coordinates":[127.6515106988,26.165955892635]},"properties":{"Name":"国道３３１号与根高架橋","Jusho":"沖縄県豊見城市字与根584","kouzui":"×","gake":"×","takashio":"×","jishin":"×","tsunami":"○","kaji":"×","naisui":"×","kazan":"×"}}
,{"type":"Feature","geometry":{"type":"Point","coordinates":[127.83326189575,26.357222536294]},"properties":{"Name":"交通安全公園","Jusho":"沖縄県うるま市赤道8-2","kouzui":"×","gake":"×","takashio":"×","jishin":"○","tsunami":"○","kaji":"×","naisui":"×","kazan":"×"}}
,{"type":"Feature","geometry":{"type":"Point","coordinates":[127.82948831945,26.354489243146]},"properties":{"Name":"希望の広場","Jusho":"沖縄県うるま市赤道254-2","kouzui":"×","gake":"×","takashio":"×","jishin":"○","tsunami":"○","kaji":"×","naisui":"×","kazan":"×"}}
,{"type":"Feature","geometry":{"type":"Point","coordinates":[127.82833593218,26.363485551039]},"properties":{"Name":"あだん公園","Jusho":"沖縄県うるま市赤道971-1","kouzui":"×","gake":"×","takashio":"×","jishin":"○","tsunami":"○","kaji":"×","naisui":"×","kazan":"×"}}
,{"type":"Feature","geometry":{"type":"Point","coordinates":[127.82692347815,26.3608828498]},"properties":{"Name":"がじゅまる公園","Jusho":"沖縄県うるま市赤道502-39","kouzui":"×","gake":"×","takashio":"×","jishin":"○","tsunami":"○","kaji":"×","naisui":"×","kazan":"×"}}
,{"type":"Feature","geometry":{"type":"Point","coordinates":[127.82552481877,26.361697913658]},"properties":{"Name":"ひまわり公園","Jusho":"沖縄県うるま市赤道578-80","kouzui":"×","gake":"×","takashio":"×","jishin":"○","tsunami":"○","kaji":"×","naisui":"×","kazan":"×"}}
,{"type":"Feature","geometry":{"type":"Point","coordinates":[127.83048442132,26.353452777155]},"properties":{"Name":"スポーツ広場","Jusho":"沖縄県うるま市赤道175-2","kouzui":"×","gake":"×","takashio":"×","jishin":"○","tsunami":"○","kaji":"×","naisui":"×","kazan":"×"}}
,{"type":"Feature","geometry":{"type":"Point","coordinates":[127.83769242582,26.353928063451]},"properties":{"Name":"宮里児童公園","Jusho":"沖縄県うるま市宮里330","kouzui":"×","gake":"×","takashio":"×","jishin":"○","tsunami":"○","kaji":"×","naisui":"×","kazan":"×"}}
,{"type":"Feature","geometry":{"type":"Point","coordinates":[127.83359624555,26.355053270525]},"properties":{"Name":"さんかく公園","Jusho":"沖縄県うるま市宮里207-1","kouzui":"×","gake":"×","takashio":"×","jishin":"○","tsunami":"○","kaji":"×","naisui":"×","kazan":"×"}}
,{"type":"Feature","geometry":{"type":"Point","coordinates":[127.83534376286,26.355744134426]},"properties":{"Name":"げんき公園","Jusho":"沖縄県うるま市宮里263-2","kouzui":"×","gake":"×","takashio":"×","jishin":"○","tsunami":"○","kaji":"×","naisui":"×","kazan":"×"}}
,{"type":"Feature","geometry":{"type":"Point","coordinates":[127.83061462,26.34484622]},"properties":{"Name":"いーしぬめー公園","Jusho":"沖縄県うるま市江洲177","kouzui":"×","gake":"×","takashio":"×","jishin":"○","tsunami":"○","kaji":"×","naisui":"×","kazan":"×"}}
,{"type":"Feature","geometry":{"type":"Point","coordinates":[127.8305441869,26.346766253984]},"properties":{"Name":"江洲中央公園","Jusho":"沖縄県うるま市江洲232","kouzui":"×","gake":"×","takashio":"×","jishin":"○","tsunami":"○","kaji":"×","naisui":"×","kazan":"×"}}
,{"type":"Feature","geometry":{"type":"Point","coordinates":[127.82816462041,26.348730573829]},"properties":{"Name":"なかばる公園","Jusho":"沖縄県うるま市江洲301-1","kouzui":"×","gake":"×","takashio":"×","jishin":"○","tsunami":"○","kaji":"×","naisui":"×","kazan":"×"}}
,{"type":"Feature","geometry":{"type":"Point","coordinates":[127.85019831,26.35336299]},"properties":{"Name":"喜屋武マーブ公園","Jusho":"沖縄県うるま市喜仲4-1","kouzui":"×","gake":"×","takashio":"×","jishin":"○","tsunami":"○","kaji":"×","naisui":"×","kazan":"×"}}
,{"type":"Feature","geometry":{"type":"Point","coordinates":[127.84353249054,26.355326414633]},"properties":{"Name":"喜仲児童公園","Jusho":"沖縄県うるま市喜仲2-836-3","kouzui":"×","gake":"×","takashio":"×","jishin":"○","tsunami":"○","kaji":"×","naisui":"×","kazan":"×"}}
,{"type":"Feature","geometry":{"type":"Point","coordinates":[127.846209792,26.3593826984]},"properties":{"Name":"上平良川公園","Jusho":"沖縄県うるま市喜屋武627-1","kouzui":"×","gake":"×","takashio":"×","jishin":"○","tsunami":"○","kaji":"×","naisui":"×","kazan":"×"}}
,{"type":"Feature","geometry":{"type":"Point","coordinates":[127.84762989899,26.375795187509]},"properties":{"Name":"西原第一公園","Jusho":"沖縄県うるま市西原126","kouzui":"×","gake":"×","takashio":"×","jishin":"○","tsunami":"○","kaji":"×","naisui":"×","kazan":"×"}}
,{"type":"Feature","geometry":{"type":"Point","coordinates":[127.84977785018,26.372756278797]},"properties":{"Name":"安慶名第一公園","Jusho":"沖縄県うるま市安慶名308","kouzui":"×","gake":"×","takashio":"×","jishin":"○","tsunami":"○","kaji":"×","naisui":"×","kazan":"×"}}
,{"type":"Feature","geometry":{"type":"Point","coordinates":[127.85059275,26.38139601]},"properties":{"Name":"安慶名中央公園（城跡）","Jusho":"沖縄県うるま市安慶名1045","kouzui":"×","gake":"×","takashio":"×","jishin":"○","tsunami":"○","kaji":"×","naisui":"×","kazan":"×"}}
,{"type":"Feature","geometry":{"type":"Point","coordinates":[127.86179577658,26.367759772296]},"properties":{"Name":"田場児童公園","Jusho":"沖縄県うるま市田場829","kouzui":"×","gake":"×","takashio":"×","jishin":"○","tsunami":"○","kaji":"×","naisui":"×","kazan":"×"}}
,{"type":"Feature","geometry":{"type":"Point","coordinates":[127.85604812643,26.377034802655]},"properties":{"Name":"のびのび公園","Jusho":"沖縄県うるま市みどり町4-9-1","kouzui":"×","gake":"×","takashio":"×","jishin":"○","tsunami":"○","kaji":"×","naisui":"×","kazan":"×"}}
,{"type":"Feature","geometry":{"type":"Point","coordinates":[127.85288346963,26.378445569629]},"properties":{"Name":"ビーバー公園","Jusho":"沖縄県うるま市みどり町5-17-1","kouzui":"×","gake":"×","takashio":"×","jishin":"○","tsunami":"○","kaji":"×","naisui":"×","kazan":"×"}}
,{"type":"Feature","geometry":{"type":"Point","coordinates":[127.85536204,26.38213244]},"properties":{"Name":"みどり公園","Jusho":"沖縄県うるま市みどり町6-10-10","kouzui":"×","gake":"×","takashio":"×","jishin":"○","tsunami":"○","kaji":"×","naisui":"×","kazan":"×"}}
,{"type":"Feature","geometry":{"type":"Point","coordinates":[127.85441088596,26.379947349328]},"properties":{"Name":"さくら公園","Jusho":"沖縄県うるま市みどり町6-9-1","kouzui":"×","gake":"×","takashio":"×","jishin":"○","tsunami":"○","kaji":"×","naisui":"×","kazan":"×"}}
,{"type":"Feature","geometry":{"type":"Point","coordinates":[127.84119144245,26.398078144777]},"properties":{"Name":"昆布公園","Jusho":"沖縄県うるま市昆布1832-354","kouzui":"×","gake":"×","takashio":"×","jishin":"○","tsunami":"○","kaji":"×","naisui":"×","kazan":"×"}}
,{"type":"Feature","geometry":{"type":"Point","coordinates":[127.83368990723,26.389309279186]},"properties":{"Name":"栄野比公園","Jusho":"沖縄県うるま市栄野比1006-1","kouzui":"×","gake":"×","takashio":"×","jishin":"○","tsunami":"○","kaji":"×","naisui":"×","kazan":"×"}}
,{"type":"Feature","geometry":{"type":"Point","coordinates":[127.83784704076,26.438275083166]},"properties":{"Name":"東山ふれあい公園","Jusho":"沖縄県うるま市石川東山2-11-1","kouzui":"×","gake":"×","takashio":"×","jishin":"○","tsunami":"○","kaji":"×","naisui":"×","kazan":"×"}}
,{"type":"Feature","geometry":{"type":"Point","coordinates":[127.83250791593,26.447143544286]},"properties":{"Name":"市民の森公園","Jusho":"沖縄県うるま市石川東山3259-262","kouzui":"×","gake":"×","takashio":"×","jishin":"○","tsunami":"○","kaji":"×","naisui":"×","kazan":"×"}}
,{"type":"Feature","geometry":{"type":"Point","coordinates":[127.827051851,26.4194241117]},"properties":{"Name":"あけぼの公園","Jusho":"沖縄県うるま市石川曙2-2838","kouzui":"×","gake":"×","takashio":"×","jishin":"○","tsunami":"○","kaji":"×","naisui":"×","kazan":"×"}}
,{"type":"Feature","geometry":{"type":"Point","coordinates":[127.82756737,26.41665491]},"properties":{"Name":"長佐久公園","Jusho":"沖縄県うるま市石川曙2-2771","kouzui":"×","gake":"×","takashio":"×","jishin":"○","tsunami":"○","kaji":"×","naisui":"×","kazan":"×"}}
,{"type":"Feature","geometry":{"type":"Point","coordinates":[127.81871020478,26.413861760288]},"properties":{"Name":"さくらんぼ公園","Jusho":"沖縄県うるま市石川山城1714","kouzui":"×","gake":"×","takashio":"×","jishin":"○","tsunami":"○","kaji":"×","naisui":"×","kazan":"×"}}
,{"type":"Feature","geometry":{"type":"Point","coordinates":[127.82352977422,26.410851870619]},"properties":{"Name":"前原公園","Jusho":"沖縄県うるま市石川東恩納957-4","kouzui":"×","gake":"×","takashio":"×","jishin":"○","tsunami":"○","kaji":"×","naisui":"×","kazan":"×"}}
,{"type":"Feature","geometry":{"type":"Point","coordinates":[127.82052673,26.41072153]},"properties":{"Name":"前原西公園","Jusho":"沖縄県うるま市石川山城785-1","kouzui":"×","gake":"×","takashio":"×","jishin":"○","tsunami":"○","kaji":"×","naisui":"×","kazan":"×"}}
,{"type":"Feature","geometry":{"type":"Point","coordinates":[127.82371368224,26.408767404062]},"properties":{"Name":"わかば公園","Jusho":"沖縄県うるま市石川東恩納975-2","kouzui":"×","gake":"×","takashio":"×","jishin":"○","tsunami":"○","kaji":"×","naisui":"×","kazan":"×"}}
,{"type":"Feature","geometry":{"type":"Point","coordinates":[127.82941347699,26.409454106065]},"properties":{"Name":"東恩納公園","Jusho":"沖縄県うるま市石川東恩納480-2","kouzui":"×","gake":"×","takashio":"×","jishin":"○","tsunami":"○","kaji":"×","naisui":"×","kazan":"×"}}
,{"type":"Feature","geometry":{"type":"Point","coordinates":[127.8816474816,26.334331680609]},"properties":{"Name":"南風原第二公園","Jusho":"沖縄県うるま市勝連南風原4212","kouzui":"×","gake":"×","takashio":"×","jishin":"○","tsunami":"○","kaji":"×","naisui":"×","kazan":"×"}}
,{"type":"Feature","geometry":{"type":"Point","coordinates":[127.88655526729,26.328153416764]},"properties":{"Name":"西原公園","Jusho":"沖縄県うるま市与那城西原803","kouzui":"×","gake":"×","takashio":"×","jishin":"○","tsunami":"○","kaji":"×","naisui":"×","kazan":"×"}}
,{"type":"Feature","geometry":{"type":"Point","coordinates":[127.89097792187,26.32607129395]},"properties":{"Name":"与那城公園","Jusho":"沖縄県うるま市与那城197","kouzui":"×","gake":"×","takashio":"×","jishin":"○","tsunami":"○","kaji":"×","naisui":"×","kazan":"×"}}
,{"type":"Feature","geometry":{"type":"Point","coordinates":[127.89663311004,26.319421734172]},"properties":{"Name":"平安名公園","Jusho":"沖縄県うるま市勝連平安名529-1","kouzui":"×","gake":"×","takashio":"×","jishin":"○","tsunami":"○","kaji":"×","naisui":"×","kazan":"×"}}
,{"type":"Feature","geometry":{"type":"Point","coordinates":[127.89910074233,26.318618741612]},"properties":{"Name":"平安名第二公園","Jusho":"沖縄県うるま市勝連平安名345-2","kouzui":"×","gake":"×","takashio":"×","jishin":"○","tsunami":"○","kaji":"×","naisui":"×","kazan":"×"}}
,{"type":"Feature","geometry":{"type":"Point","coordinates":[127.90064970434,26.318307916924]},"properties":{"Name":"内間公園","Jusho":"沖縄県うるま市勝連内間937","kouzui":"×","gake":"×","takashio":"×","jishin":"○","tsunami":"○","kaji":"×","naisui":"×","kazan":"×"}}
,{"type":"Feature","geometry":{"type":"Point","coordinates":[127.91124621325,26.305904632186]},"properties":{"Name":"平敷屋公園（タキノー）","Jusho":"沖縄県うるま市勝連平敷屋3472","kouzui":"×","gake":"×","takashio":"×","jishin":"○","tsunami":"○","kaji":"×","naisui":"×","kazan":"×"}}
,{"type":"Feature","geometry":{"type":"Point","coordinates":[127.98500180793,26.371793224548]},"properties":{"Name":"宮城中央公園","Jusho":"沖縄県うるま市与那城宮城170-6","kouzui":"×","gake":"×","takashio":"×","jishin":"○","tsunami":"○","kaji":"×","naisui":"×","kazan":"×"}}
,{"type":"Feature","geometry":{"type":"Point","coordinates":[127.93821129463,26.250169659413]},"properties":{"Name":"津堅公園","Jusho":"沖縄県うるま市勝連津堅1542","kouzui":"×","gake":"×","takashio":"×","jishin":"○","tsunami":"○","kaji":"×","naisui":"×","kazan":"×"}}
,{"type":"Feature","geometry":{"type":"Point","coordinates":[127.95483921286,26.343755191276]},"properties":{"Name":"平安座防災道路","Jusho":"沖縄県うるま市集落背後の高台道路","kouzui":"×","gake":"×","takashio":"×","jishin":"○","tsunami":"○","kaji":"×","naisui":"×","kazan":"×"}}
,{"type":"Feature","geometry":{"type":"Point","coordinates":[127.83541276856,26.445716708007]},"properties":{"Name":"石川青年少年の家","Jusho":"沖縄県うるま市石川3491-2","kouzui":"×","gake":"×","takashio":"×","jishin":"○","tsunami":"○","kaji":"×","naisui":"×","kazan":"×"}}
,{"type":"Feature","geometry":{"type":"Point","coordinates":[128.172024432348,26.7328381833134]},"properties":{"Name":"奥間小学校（体育館）","Jusho":"沖縄県国頭村字奥間1","kouzui":"×","gake":"○","takashio":"×","jishin":"○","tsunami":"×","kaji":"×","naisui":"×","kazan":"×"}}
,{"type":"Feature","geometry":{"type":"Point","coordinates":[128.177059961059,26.7472462942551]},"properties":{"Name":"辺土名小学校","Jusho":"沖縄県国頭村字辺土名181","kouzui":"×","gake":"○","takashio":"×","jishin":"○","tsunami":"×","kaji":"×","naisui":"×","kazan":"×"}}
,{"type":"Feature","geometry":{"type":"Point","coordinates":[128.175120471402,26.7465560188297]},"properties":{"Name":"国頭中学校","Jusho":"沖縄県国頭村字辺土名1463","kouzui":"×","gake":"○","takashio":"×","jishin":"○","tsunami":"×","kaji":"×","naisui":"×","kazan":"×"}}
,{"type":"Feature","geometry":{"type":"Point","coordinates":[128.2219921438,26.7869750913348]},"properties":{"Name":"佐手小学校","Jusho":"沖縄県国頭村字佐手293","kouzui":"×","gake":"○","takashio":"×","jishin":"○","tsunami":"×","kaji":"×","naisui":"×","kazan":"×"}}
,{"type":"Feature","geometry":{"type":"Point","coordinates":[128.23562786557,26.7973235146012]},"properties":{"Name":"旧佐手小学校辺野喜分校","Jusho":"沖縄県国頭村字辺野喜58","kouzui":"×","gake":"×","takashio":"○","jishin":"○","tsunami":"○","kaji":"×","naisui":"×","kazan":"×"}}
,{"type":"Feature","geometry":{"type":"Point","coordinates":[128.248661711527,26.8605823909204]},"properties":{"Name":"北国小学校","Jusho":"沖縄県国頭村字宜名真535","kouzui":"×","gake":"○","takashio":"○","jishin":"○","tsunami":"○","kaji":"×","naisui":"×","kazan":"×"}}
,{"type":"Feature","geometry":{"type":"Point","coordinates":[128.28929623282,26.8411568478838]},"properties":{"Name":"奥小学校","Jusho":"沖縄県国頭村字奥313","kouzui":"×","gake":"×","takashio":"×","jishin":"○","tsunami":"×","kaji":"×","naisui":"×","kazan":"×"}}
,{"type":"Feature","geometry":{"type":"Point","coordinates":[128.314977865907,26.7907530497711]},"properties":{"Name":"楚洲あさひの丘","Jusho":"沖縄県国頭村字楚洲517","kouzui":"×","gake":"×","takashio":"○","jishin":"○","tsunami":"○","kaji":"×","naisui":"×","kazan":"×"}}
,{"type":"Feature","geometry":{"type":"Point","coordinates":[128.318943519396,26.7465060293104]},"properties":{"Name":"安田小学校","Jusho":"沖縄県国頭村字安田279","kouzui":"×","gake":"○","takashio":"×","jishin":"○","tsunami":"×","kaji":"×","naisui":"×","kazan":"×"}}
,{"type":"Feature","geometry":{"type":"Point","coordinates":[128.28313662703,26.7182207580646]},"properties":{"Name":"安波小学校","Jusho":"沖縄県国頭村字安波601","kouzui":"×","gake":"○","takashio":"×","jishin":"○","tsunami":"×","kaji":"×","naisui":"×","kazan":"×"}}
,{"type":"Feature","geometry":{"type":"Point","coordinates":[128.174107282631,26.7396502699931]},"properties":{"Name":"老人福祉センター","Jusho":"沖縄県国頭村字辺土名1709","kouzui":"×","gake":"○","takashio":"○","jishin":"×","tsunami":"×","kaji":"×","naisui":"×","kazan":"×"}}
,{"type":"Feature","geometry":{"type":"Point","coordinates":[128.1746329956,26.7406179970561]},"properties":{"Name":"特別養護老人ホーム北斗園","Jusho":"沖縄県国頭村字辺土名1692","kouzui":"×","gake":"○","takashio":"○","jishin":"×","tsunami":"×","kaji":"×","naisui":"×","kazan":"×"}}
,{"type":"Feature","geometry":{"type":"Point","coordinates":[128.158854091803,26.7187072363488]},"properties":{"Name":"浜公民館","Jusho":"沖縄県国頭村字浜102","kouzui":"×","gake":"×","takashio":"○","jishin":"×","tsunami":"×","kaji":"×","naisui":"×","kazan":"×"}}
,{"type":"Feature","geometry":{"type":"Point","coordinates":[128.165572893692,26.7266092735421]},"properties":{"Name":"半地公民館","Jusho":"沖縄県国頭村字半地248","kouzui":"×","gake":"×","takashio":"×","jishin":"×","tsunami":"×","kaji":"×","naisui":"×","kazan":"×"}}
,{"type":"Feature","geometry":{"type":"Point","coordinates":[128.175923325425,26.7261737657634]},"properties":{"Name":"比地コミュニティ施設","Jusho":"沖縄県国頭村字比地151-2","kouzui":"×","gake":"○","takashio":"○","jishin":"×","tsunami":"×","kaji":"×","naisui":"×","kazan":"×"}}
,{"type":"Feature","geometry":{"type":"Point","coordinates":[128.162970100022,26.7306968605928]},"properties":{"Name":"鏡地公民館","Jusho":"沖縄県国頭村字鏡地172-2","kouzui":"×","gake":"○","takashio":"×","jishin":"×","tsunami":"×","kaji":"×","naisui":"×","kazan":"×"}}
,{"type":"Feature","geometry":{"type":"Point","coordinates":[128.173552239848,26.7352002334691]},"properties":{"Name":"奥間公民館","Jusho":"沖縄県国頭村字奥間64","kouzui":"×","gake":"×","takashio":"○","jishin":"×","tsunami":"○","kaji":"×","naisui":"×","kazan":"×"}}
,{"type":"Feature","geometry":{"type":"Point","coordinates":[128.164938491814,26.740463982869]},"properties":{"Name":"桃原公民館","Jusho":"沖縄県国頭村字桃原49","kouzui":"×","gake":"○","takashio":"×","jishin":"×","tsunami":"×","kaji":"×","naisui":"×","kazan":"×"}}
,{"type":"Feature","geometry":{"type":"Point","coordinates":[128.177949781083,26.7450272731245]},"properties":{"Name":"辺土名公民館","Jusho":"沖縄県国頭村字辺土名791","kouzui":"×","gake":"×","takashio":"○","jishin":"×","tsunami":"×","kaji":"×","naisui":"×","kazan":"×"}}
,{"type":"Feature","geometry":{"type":"Point","coordinates":[128.177813713258,26.7404428463584]},"properties":{"Name":"上島公民館","Jusho":"沖縄県国頭村字辺土名1165","kouzui":"×","gake":"×","takashio":"○","jishin":"×","tsunami":"○","kaji":"×","naisui":"×","kazan":"×"}}
,{"type":"Feature","geometry":{"type":"Point","coordinates":[128.18819450202,26.7543196402457]},"properties":{"Name":"宇良集会所","Jusho":"沖縄県国頭村字宇良47-2","kouzui":"×","gake":"×","takashio":"×","jishin":"×","tsunami":"×","kaji":"×","naisui":"×","kazan":"×"}}
,{"type":"Feature","geometry":{"type":"Point","coordinates":[128.190238303275,26.7569921951281]},"properties":{"Name":"伊地地区体育館","Jusho":"沖縄県国頭村字伊地152-3","kouzui":"×","gake":"×","takashio":"×","jishin":"×","tsunami":"×","kaji":"×","naisui":"×","kazan":"×"}}
,{"type":"Feature","geometry":{"type":"Point","coordinates":[128.204994562357,26.7640687611697]},"properties":{"Name":"与那公民館","Jusho":"沖縄県国頭村字与那70","kouzui":"×","gake":"×","takashio":"○","jishin":"×","tsunami":"○","kaji":"×","naisui":"×","kazan":"×"}}
,{"type":"Feature","geometry":{"type":"Point","coordinates":[128.213876351843,26.7804585535619]},"properties":{"Name":"謝敷公民館","Jusho":"沖縄県国頭村字謝敷213","kouzui":"×","gake":"×","takashio":"×","jishin":"×","tsunami":"×","kaji":"×","naisui":"×","kazan":"×"}}
,{"type":"Feature","geometry":{"type":"Point","coordinates":[128.219473204655,26.785334516644]},"properties":{"Name":"佐手公民館","Jusho":"沖縄県国頭村字佐手135","kouzui":"×","gake":"×","takashio":"×","jishin":"×","tsunami":"×","kaji":"×","naisui":"×","kazan":"×"}}
,{"type":"Feature","geometry":{"type":"Point","coordinates":[128.235600139401,26.7965500609643]},"properties":{"Name":"辺野喜公民館","Jusho":"沖縄県国頭村字辺野喜47","kouzui":"×","gake":"○","takashio":"○","jishin":"×","tsunami":"×","kaji":"×","naisui":"×","kazan":"×"}}
,{"type":"Feature","geometry":{"type":"Point","coordinates":[128.234237740921,26.8083243735785]},"properties":{"Name":"宇嘉公民館","Jusho":"沖縄県国頭村字宇嘉2","kouzui":"×","gake":"×","takashio":"×","jishin":"×","tsunami":"×","kaji":"×","naisui":"×","kazan":"×"}}
,{"type":"Feature","geometry":{"type":"Point","coordinates":[128.254035514557,26.8472266997074]},"properties":{"Name":"宜名真公民館","Jusho":"沖縄県国頭村字宜名真214","kouzui":"×","gake":"×","takashio":"×","jishin":"×","tsunami":"×","kaji":"×","naisui":"×","kazan":"×"}}
,{"type":"Feature","geometry":{"type":"Point","coordinates":[128.260758524532,26.8568904758978]},"properties":{"Name":"辺戸公民館","Jusho":"沖縄県国頭村字辺戸51-3","kouzui":"×","gake":"×","takashio":"○","jishin":"×","tsunami":"○","kaji":"×","naisui":"×","kazan":"×"}}
,{"type":"Feature","geometry":{"type":"Point","coordinates":[128.28785772845,26.8378906520812]},"properties":{"Name":"奥集落センター","Jusho":"沖縄県国頭村字奥133","kouzui":"×","gake":"×","takashio":"×","jishin":"×","tsunami":"×","kaji":"×","naisui":"×","kazan":"×"}}
,{"type":"Feature","geometry":{"type":"Point","coordinates":[128.315242167889,26.7926825343164]},"properties":{"Name":"楚洲公民館","Jusho":"沖縄県国頭村字楚洲325","kouzui":"×","gake":"×","takashio":"×","jishin":"×","tsunami":"×","kaji":"×","naisui":"×","kazan":"×"}}
,{"type":"Feature","geometry":{"type":"Point","coordinates":[128.315284898016,26.7458616777301]},"properties":{"Name":"安田公民館","Jusho":"沖縄県国頭村字安田853","kouzui":"×","gake":"○","takashio":"×","jishin":"×","tsunami":"×","kaji":"×","naisui":"×","kazan":"×"}}
,{"type":"Feature","geometry":{"type":"Point","coordinates":[128.286443540827,26.7162205371457]},"properties":{"Name":"安波公民館","Jusho":"沖縄県国頭村字安波110","kouzui":"×","gake":"×","takashio":"×","jishin":"×","tsunami":"×","kaji":"×","naisui":"×","kazan":"×"}}
,{"type":"Feature","geometry":{"type":"Point","coordinates":[128.161275328839,26.7241106190695]},"properties":{"Name":"くにがみ屋内運動場","Jusho":"沖縄県国頭村字浜500","kouzui":"×","gake":"○","takashio":"×","jishin":"×","tsunami":"×","kaji":"×","naisui":"×","kazan":"×"}}
,{"type":"Feature","geometry":{"type":"Point","coordinates":[128.162377191749,26.7251451819923]},"properties":{"Name":"国頭陸上競技場（くいなエコスポレク公園）","Jusho":"沖縄県国頭村字浜502","kouzui":"×","gake":"○","takashio":"×","jishin":"○","tsunami":"×","kaji":"×","naisui":"×","kazan":"×"}}
,{"type":"Feature","geometry":{"type":"Point","coordinates":[128.17913157976,26.7190840679525]},"properties":{"Name":"比地キャンプ場等施設","Jusho":"沖縄県国頭村字比地781-1","kouzui":"×","gake":"○","takashio":"○","jishin":"×","tsunami":"○","kaji":"×","naisui":"×","kazan":"×"}}
,{"type":"Feature","geometry":{"type":"Point","coordinates":[128.161344521754,26.730116929828]},"properties":{"Name":"くにがみ鏡地パークゴルフ場","Jusho":"沖縄県国頭村字鏡地142-10","kouzui":"×","gake":"○","takashio":"×","jishin":"×","tsunami":"×","kaji":"×","naisui":"×","kazan":"×"}}
,{"type":"Feature","geometry":{"type":"Point","coordinates":[128.169240945091,26.7320142093896]},"properties":{"Name":"観光物産センター（道の駅）","Jusho":"沖縄県国頭村字奥間1605","kouzui":"×","gake":"○","takashio":"×","jishin":"×","tsunami":"×","kaji":"×","naisui":"×","kazan":"×"}}
,{"type":"Feature","geometry":{"type":"Point","coordinates":[128.178233010837,26.7460716661901]},"properties":{"Name":"村民ふれあいセンター","Jusho":"沖縄県国頭村字辺土名112","kouzui":"×","gake":"○","takashio":"×","jishin":"×","tsunami":"×","kaji":"×","naisui":"×","kazan":"×"}}
,{"type":"Feature","geometry":{"type":"Point","coordinates":[128.189330395816,26.7326331601595]},"properties":{"Name":"国頭村森林公園","Jusho":"沖縄県国頭村字辺土名1094","kouzui":"×","gake":"○","takashio":"○","jishin":"×","tsunami":"○","kaji":"×","naisui":"×","kazan":"×"}}
,{"type":"Feature","geometry":{"type":"Point","coordinates":[128.175920822583,26.7452697288253]},"properties":{"Name":"保健センター","Jusho":"沖縄県国頭村字辺土名1437","kouzui":"×","gake":"○","takashio":"×","jishin":"×","tsunami":"×","kaji":"×","naisui":"×","kazan":"×"}}
,{"type":"Feature","geometry":{"type":"Point","coordinates":[128.173515484093,26.7467730456922]},"properties":{"Name":"総合体育館","Jusho":"沖縄県国頭村字辺土名2142","kouzui":"×","gake":"○","takashio":"×","jishin":"×","tsunami":"×","kaji":"×","naisui":"×","kazan":"×"}}
,{"type":"Feature","geometry":{"type":"Point","coordinates":[128.265787342819,26.7228839624968]},"properties":{"Name":"やんばる学びの森","Jusho":"沖縄県国頭村字安波1301-7","kouzui":"×","gake":"○","takashio":"○","jishin":"×","tsunami":"○","kaji":"×","naisui":"×","kazan":"×"}}
,{"type":"Feature","geometry":{"type":"Point","coordinates":[128.11340622298,26.687137349733]},