var tochigi={"type":"FeatureCollection","name":"tochigi","features":[
{"type":"Feature","geometry":{"type":"Point","coordinates":[139.884772257311,36.5592596611549]},"properties":{"Name":"中央小学校","Jusho":"栃木県宇都宮市中央本町１-29","kouzui":"×","gake":"○","takashio":"×","jishin":"○","tsunami":"×","kaji":"×","naisui":"×","kazan":"×"}}
,{"type":"Feature","geometry":{"type":"Point","coordinates":[139.891120115193,36.5652138151477]},"properties":{"Name":"東小学校","Jusho":"栃木県宇都宮市東塙田１-6-14","kouzui":"×","gake":"○","takashio":"×","jishin":"○","tsunami":"×","kaji":"×","naisui":"×","kazan":"×"}}
,{"type":"Feature","geometry":{"type":"Point","coordinates":[139.878273164791,36.5597041510134]},"properties":{"Name":"西小学校","Jusho":"栃木県宇都宮市西1-2-13","kouzui":"×","gake":"×","takashio":"×","jishin":"○","tsunami":"×","kaji":"×","naisui":"×","kazan":"×"}}
,{"type":"Feature","geometry":{"type":"Point","coordinates":[139.893488543077,36.5545809367808]},"properties":{"Name":"簗瀬小学校","Jusho":"栃木県宇都宮市南大通り2-6-6","kouzui":"○","gake":"×","takashio":"×","jishin":"○","tsunami":"×","kaji":"×","naisui":"×","kazan":"×"}}
,{"type":"Feature","geometry":{"type":"Point","coordinates":[139.872789033606,36.5540811043959]},"properties":{"Name":"西原小学校","Jusho":"栃木県宇都宮市西原2-5-42","kouzui":"×","gake":"×","takashio":"×","jishin":"○","tsunami":"×","kaji":"×","naisui":"×","kazan":"×"}}
,{"type":"Feature","geometry":{"type":"Point","coordinates":[139.86700943012,36.5729568838555]},"properties":{"Name":"戸祭小学校","Jusho":"栃木県宇都宮市戸祭1-10-25","kouzui":"×","gake":"×","takashio":"×","jishin":"○","tsunami":"×","kaji":"×","naisui":"×","kazan":"×"}}
,{"type":"Feature","geometry":{"type":"Point","coordinates":[139.903038925579,36.5612526261781]},"properties":{"Name":"今泉小学校","Jusho":"栃木県宇都宮市元今泉1-7-29","kouzui":"×","gake":"×","takashio":"×","jishin":"○","tsunami":"×","kaji":"×","naisui":"×","kazan":"×"}}
,{"type":"Feature","geometry":{"type":"Point","coordinates":[139.882577397047,36.5689774789748]},"properties":{"Name":"昭和小学校","Jusho":"栃木県宇都宮市戸祭元町１-15","kouzui":"×","gake":"○","takashio":"×","jishin":"○","tsunami":"×","kaji":"×","naisui":"×","kazan":"×"}}
,{"type":"Feature","geometry":{"type":"Point","coordinates":[139.863759531361,36.5341114062447]},"properties":{"Name":"陽南小学校","Jusho":"栃木県宇都宮市大和１-10-15","kouzui":"×","gake":"×","takashio":"×","jishin":"○","tsunami":"×","kaji":"×","naisui":"×","kazan":"×"}}
,{"type":"Feature","geometry":{"type":"Point","coordinates":[139.868413326526,36.5632043795706]},"properties":{"Name":"桜小学校","Jusho":"栃木県宇都宮市桜3-2-22","kouzui":"×","gake":"×","takashio":"×","jishin":"○","tsunami":"×","kaji":"×","naisui":"×","kazan":"×"}}
,{"type":"Feature","geometry":{"type":"Point","coordinates":[139.895177288504,36.5721188279178]},"properties":{"Name":"錦小学校","Jusho":"栃木県宇都宮市錦2-7-15","kouzui":"×","gake":"×","takashio":"×","jishin":"○","tsunami":"×","kaji":"×","naisui":"×","kazan":"×"}}
,{"type":"Feature","geometry":{"type":"Point","coordinates":[139.855961075692,36.5904656458053]},"properties":{"Name":"細谷小学校","Jusho":"栃木県宇都宮市細谷1-4-38","kouzui":"×","gake":"×","takashio":"×","jishin":"○","tsunami":"×","kaji":"×","naisui":"×","kazan":"×"}}
,{"type":"Feature","geometry":{"type":"Point","coordinates":[139.919798552583,36.5526545321833]},"properties":{"Name":"峰小学校","Jusho":"栃木県宇都宮市峰3-20-17","kouzui":"×","gake":"×","takashio":"×","jishin":"○","tsunami":"×","kaji":"×","naisui":"×","kazan":"×"}}
,{"type":"Feature","geometry":{"type":"Point","coordinates":[139.929892398872,36.5403611579275]},"properties":{"Name":"石井小学校","Jusho":"栃木県宇都宮市石井町1213","kouzui":"○","gake":"×","takashio":"×","jishin":"×","tsunami":"×","kaji":"×","naisui":"×","kazan":"×"}}
,{"type":"Feature","geometry":{"type":"Point","coordinates":[139.920239936663,36.5670357591011]},"properties":{"Name":"泉が丘小学校","Jusho":"栃木県宇都宮市泉が丘７-12-14","kouzui":"×","gake":"×","takashio":"×","jishin":"○","tsunami":"×","kaji":"×","naisui":"×","kazan":"×"}}
,{"type":"Feature","geometry":{"type":"Point","coordinates":[139.859756430638,36.5222638327077]},"properties":{"Name":"緑が丘小学校","Jusho":"栃木県宇都宮市緑3-3-12","kouzui":"×","gake":"×","takashio":"×","jishin":"○","tsunami":"×","kaji":"×","naisui":"×","kazan":"×"}}
,{"type":"Feature","geometry":{"type":"Point","coordinates":[139.873669944821,36.5427253424848]},"properties":{"Name":"宮の原小学校","Jusho":"栃木県宇都宮市宮原4-1-14","kouzui":"○","gake":"×","takashio":"×","jishin":"○","tsunami":"×","kaji":"×","naisui":"×","kazan":"×"}}
,{"type":"Feature","geometry":{"type":"Point","coordinates":[139.92575222139,36.5761254407815]},"properties":{"Name":"御幸小学校","Jusho":"栃木県宇都宮市御幸本町4638-１","kouzui":"×","gake":"×","takashio":"×","jishin":"○","tsunami":"×","kaji":"×","naisui":"×","kazan":"×"}}
,{"type":"Feature","geometry":{"type":"Point","coordinates":[139.879916958521,36.5533437992209]},"properties":{"Name":"一条中学校","Jusho":"栃木県宇都宮市一条1-4-7","kouzui":"○","gake":"×","takashio":"×","jishin":"○","tsunami":"×","kaji":"×","naisui":"×","kazan":"×"}}
,{"type":"Feature","geometry":{"type":"Point","coordinates":[139.898769717216,36.5717141016161]},"properties":{"Name":"陽北中学校","Jusho":"栃木県宇都宮市今泉町47-2","kouzui":"×","gake":"×","takashio":"×","jishin":"○","tsunami":"×","kaji":"×","naisui":"×","kazan":"×"}}
,{"type":"Feature","geometry":{"type":"Point","coordinates":[139.888667615985,36.5558430742435]},"properties":{"Name":"旭中学校","Jusho":"栃木県宇都宮市天神１-１-42","kouzui":"○","gake":"×","takashio":"×","jishin":"○","tsunami":"×","kaji":"×","naisui":"×","kazan":"×"}}
,{"type":"Feature","geometry":{"type":"Point","coordinates":[139.876122495108,36.5353047192252]},"properties":{"Name":"陽南中学校","Jusho":"栃木県宇都宮市陽南2-4-58","kouzui":"○","gake":"×","takashio":"×","jishin":"○","tsunami":"×","kaji":"×","naisui":"×","kazan":"×"}}
,{"type":"Feature","geometry":{"type":"Point","coordinates":[139.858956808556,36.5734565360163]},"properties":{"Name":"陽西中学校","Jusho":"栃木県宇都宮市陽西町１-16","kouzui":"×","gake":"×","takashio":"×","jishin":"○","tsunami":"×","kaji":"×","naisui":"×","kazan":"×"}}
,{"type":"Feature","geometry":{"type":"Point","coordinates":[139.928866445787,36.5445330660669]},"properties":{"Name":"陽東中学校","Jusho":"栃木県宇都宮市石井町2800-42","kouzui":"○","gake":"×","takashio":"×","jishin":"×","tsunami":"×","kaji":"×","naisui":"×","kazan":"×"}}
,{"type":"Feature","geometry":{"type":"Point","coordinates":[139.874996474174,36.5699304694615]},"properties":{"Name":"星が丘中学校","Jusho":"栃木県宇都宮市星が丘2-3-31","kouzui":"×","gake":"○","takashio":"×","jishin":"○","tsunami":"×","kaji":"×","naisui":"×","kazan":"×"}}
,{"type":"Feature","geometry":{"type":"Point","coordinates":[139.918920244909,36.5670498539369]},"properties":{"Name":"泉が丘中学校","Jusho":"栃木県宇都宮市泉が丘4-11-40","kouzui":"×","gake":"×","takashio":"×","jishin":"○","tsunami":"×","kaji":"×","naisui":"×","kazan":"×"}}
,{"type":"Feature","geometry":{"type":"Point","coordinates":[139.892890857554,36.5545452063794]},"properties":{"Name":"簗瀬地域コミュニティセンター","Jusho":"栃木県宇都宮市南大通り2-6-6","kouzui":"○","gake":"×","takashio":"×","jishin":"×","tsunami":"×","kaji":"×","naisui":"×","kazan":"×"}}
,{"type":"Feature","geometry":{"type":"Point","coordinates":[139.872842747038,36.5420979578366]},"properties":{"Name":"宮の原地域コミュニティセンター","Jusho":"栃木県宇都宮市宮原4-1-14","kouzui":"○","gake":"×","takashio":"×","jishin":"×","tsunami":"×","kaji":"×","naisui":"×","kazan":"×"}}
,{"type":"Feature","geometry":{"type":"Point","coordinates":[139.929034,36.540478]},"properties":{"Name":"石井地域コミュニティセンター","Jusho":"栃木県宇都宮市石井町1213","kouzui":"○","gake":"×","takashio":"×","jishin":"×","tsunami":"×","kaji":"×","naisui":"×","kazan":"×"}}
,{"type":"Feature","geometry":{"type":"Point","coordinates":[139.945694550125,36.5544970490702]},"properties":{"Name":"平石中央小学校","Jusho":"栃木県宇都宮市下平出町479","kouzui":"○","gake":"×","takashio":"×","jishin":"×","tsunami":"×","kaji":"×","naisui":"×","kazan":"×"}}
,{"type":"Feature","geometry":{"type":"Point","coordinates":[139.951620378822,36.5759377972485]},"properties":{"Name":"平石北小学校","Jusho":"栃木県宇都宮市平出町1804-2","kouzui":"○","gake":"×","takashio":"×","jishin":"×","tsunami":"×","kaji":"×","naisui":"×","kazan":"×"}}
,{"type":"Feature","geometry":{"type":"Point","coordinates":[139.939078600396,36.5743997381246]},"properties":{"Name":"鬼怒中学校","Jusho":"栃木県宇都宮市平出町3764-10","kouzui":"×","gake":"○","takashio":"×","jishin":"×","tsunami":"×","kaji":"×","naisui":"×","kazan":"×"}}
,{"type":"Feature","geometry":{"type":"Point","coordinates":[139.945959,36.55899]},"properties":{"Name":"平石地区市民センター","Jusho":"栃木県宇都宮市下平出町158-１","kouzui":"○","gake":"×","takashio":"×","jishin":"×","tsunami":"×","kaji":"×","naisui":"×","kazan":"×"}}
,{"type":"Feature","geometry":{"type":"Point","coordinates":[139.976491796408,36.5627288499033]},"properties":{"Name":"清原中央小学校","Jusho":"栃木県宇都宮市道場宿町848","kouzui":"○","gake":"×","takashio":"×","jishin":"×","tsunami":"×","kaji":"×","naisui":"×","kazan":"×"}}
,{"type":"Feature","geometry":{"type":"Point","coordinates":[139.966556906694,36.5242996357019]},"properties":{"Name":"清原南小学校","Jusho":"栃木県宇都宮市上籠谷町1401","kouzui":"○","gake":"○","takashio":"×","jishin":"×","tsunami":"×","kaji":"×","naisui":"×","kazan":"×"}}
,{"type":"Feature","geometry":{"type":"Point","coordinates":[139.980461825518,36.595646668316]},"properties":{"Name":"清原北小学校","Jusho":"栃木県宇都宮市板戸町1765","kouzui":"○","gake":"×","takashio":"×","jishin":"×","tsunami":"×","kaji":"×","naisui":"×","kazan":"×"}}
,{"type":"Feature","geometry":{"type":"Point","coordinates":[139.972963691687,36.541544216151]},"properties":{"Name":"清原中学校","Jusho":"栃木県宇都宮市鐺山町231","kouzui":"○","gake":"×","takashio":"×","jishin":"×","tsunami":"×","kaji":"×","naisui":"×","kazan":"×"}}
,{"type":"Feature","geometry":{"type":"Point","coordinates":[139.982225828664,36.5466129612962]},"properties":{"Name":"清原地区市民センター","Jusho":"栃木県宇都宮市清原工業団地15-4","kouzui":"○","gake":"○","takashio":"×","jishin":"×","tsunami":"×","kaji":"×","naisui":"×","kazan":"×"}}
,{"type":"Feature","geometry":{"type":"Point","coordinates":[139.89468232413,36.51743706428]},"properties":{"Name":"横川中央小学校","Jusho":"栃木県宇都宮市屋板町1072","kouzui":"○","gake":"×","takashio":"×","jishin":"×","tsunami":"×","kaji":"×","naisui":"×","kazan":"×"}}
,{"type":"Feature","geometry":{"type":"Point","coordinates":[139.906053146508,36.53303137329]},"properties":{"Name":"横川東小学校","Jusho":"栃木県宇都宮市下栗町963","kouzui":"○","gake":"×","takashio":"×","jishin":"×","tsunami":"×","kaji":"×","naisui":"×","kazan":"×"}}
,{"type":"Feature","geometry":{"type":"Point","coordinates":[139.877923700562,36.523127545089]},"properties":{"Name":"横川西小学校","Jusho":"栃木県宇都宮市上横田町850","kouzui":"○","gake":"×","takashio":"×","jishin":"×","tsunami":"×","kaji":"×","naisui":"×","kazan":"×"}}
,{"type":"Feature","geometry":{"type":"Point","coordinates":[139.903658317587,36.5190705432596]},"properties":{"Name":"横川中学校","Jusho":"栃木県宇都宮市屋板町143","kouzui":"○","gake":"×","takashio":"×","jishin":"×","tsunami":"×","kaji":"×","naisui":"×","kazan":"×"}}
,{"type":"Feature","geometry":{"type":"Point","coordinates":[139.898979312084,36.5168543864952]},"properties":{"Name":"横川地区市民センター","Jusho":"栃木県宇都宮市屋板町576-１","kouzui":"○","gake":"×","takashio":"×","jishin":"×","tsunami":"×","kaji":"×","naisui":"×","kazan":"×"}}
,{"type":"Feature","geometry":{"type":"Point","coordinates":[139.89396,36.521583]},"properties":{"Name":"サンアビリティーズ","Jusho":"栃木県宇都宮市 屋板町251-１","kouzui":"○","gake":"×","takashio":"×","jishin":"×","tsunami":"×","kaji":"×","naisui":"×","kazan":"×"}}
,{"type":"Feature","geometry":{"type":"Point","coordinates":[139.922057155,36.5113770985785]},"properties":{"Name":"瑞穂台小学校","Jusho":"栃木県宇都宮市瑞穂１-22","kouzui":"○","gake":"×","takashio":"×","jishin":"×","tsunami":"×","kaji":"×","naisui":"×","kazan":"×"}}
,{"type":"Feature","geometry":{"type":"Point","coordinates":[139.930053189393,36.5071735405015]},"properties":{"Name":"瑞穂野中学校","Jusho":"栃木県宇都宮市下桑島町1078","kouzui":"○","gake":"×","takashio":"×","jishin":"×","tsunami":"×","kaji":"×","naisui":"×","kazan":"×"}}
,{"type":"Feature","geometry":{"type":"Point","coordinates":[139.879403113842,36.618112870761]},"properties":{"Name":"豊郷北小学校","Jusho":"栃木県宇都宮市横山町411-3","kouzui":"×","gake":"○","takashio":"×","jishin":"×","tsunami":"×","kaji":"×","naisui":"×","kazan":"×"}}
,{"type":"Feature","geometry":{"type":"Point","coordinates":[139.897315716871,36.6003564534876]},"properties":{"Name":"豊郷中学校","Jusho":"栃木県宇都宮市関堀町350","kouzui":"×","gake":"○","takashio":"×","jishin":"×","tsunami":"×","kaji":"×","naisui":"×","kazan":"×"}}
,{"type":"Feature","geometry":{"type":"Point","coordinates":[139.902970406,36.5878156989]},"properties":{"Name":"豊郷地区市民センター","Jusho":"栃木県宇都宮市岩曽町825-１","kouzui":"×","gake":"○","takashio":"×","jishin":"×","tsunami":"×","kaji":"×","naisui":"×","kazan":"×"}}
,{"type":"Feature","geometry":{"type":"Point","coordinates":[139.82220240167,36.6255391343013]},"properties":{"Name":"国本西小学校","Jusho":"栃木県宇都宮市新里町丁292","kouzui":"×","gake":"○","takashio":"×","jishin":"×","tsunami":"×","kaji":"×","naisui":"×","kazan":"×"}}
,{"type":"Feature","geometry":{"type":"Point","coordinates":[139.838741193672,36.568709417867]},"properties":{"Name":"明保小学校","Jusho":"栃木県宇都宮市下荒針町3456-2","kouzui":"×","gake":"○","takashio":"×","jishin":"×","tsunami":"×","kaji":"×","naisui":"×","kazan":"×"}}
,{"type":"Feature","geometry":{"type":"Point","coordinates":[139.832189751909,36.5900305196342]},"properties":{"Name":"城山東小学校","Jusho":"栃木県宇都宮市駒生町2360","kouzui":"×","gake":"○","takashio":"×","jishin":"×","tsunami":"×","kaji":"×","naisui":"×","kazan":"×"}}
,{"type":"Feature","geometry":{"type":"Point","coordinates":[139.812729020877,36.5925348567081]},"properties":{"Name":"城山中学校","Jusho":"栃木県宇都宮市大谷町1423","kouzui":"×","gake":"○","takashio":"×","jishin":"×","tsunami":"×","kaji":"×","naisui":"×","kazan":"×"}}
,{"type":"Feature","geometry":{"type":"Point","coordinates":[139.825568,36.58908]},"properties":{"Name":"城山地区市民センター","Jusho":"栃木県宇都宮市大谷町1059-5","kouzui":"×","gake":"○","takashio":"×","jishin":"×","tsunami":"×","kaji":"×","naisui":"×","kazan":"×"}}
,{"type":"Feature","geometry":{"type":"Point","coordinates":[139.848622261625,36.6452842858071]},"properties":{"Name":"富屋小学校","Jusho":"栃木県宇都宮市徳次郎町66-１","kouzui":"×","gake":"○","takashio":"×","jishin":"×","tsunami":"×","kaji":"×","naisui":"×","kazan":"×"}}
,{"type":"Feature","geometry":{"type":"Point","coordinates":[139.839333110483,36.6559932837706]},"properties":{"Name":"晃陽中学校","Jusho":"栃木県宇都宮市徳次郎町1964","kouzui":"×","gake":"○","takashio":"×","jishin":"×","tsunami":"×","kaji":"×","naisui":"×","kazan":"×"}}
,{"type":"Feature","geometry":{"type":"Point","coordinates":[139.847495,36.64472]},"properties":{"Name":"富屋地区市民センター","Jusho":"栃木県宇都宮市徳次郎町80-2","kouzui":"×","gake":"○","takashio":"×","jishin":"×","tsunami":"×","kaji":"×","naisui":"×","kazan":"×"}}
,{"type":"Feature","geometry":{"type":"Point","coordinates":[139.812997832554,36.6818022774002]},"properties":{"Name":"篠井小学校","Jusho":"栃木県宇都宮市下小池町569-37","kouzui":"×","gake":"○","takashio":"×","jishin":"×","tsunami":"×","kaji":"×","naisui":"×","kazan":"×"}}
,{"type":"Feature","geometry":{"type":"Point","coordinates":[139.811079550998,36.6802621855917]},"properties":{"Name":"篠井地区市民センター","Jusho":"栃木県宇都宮市下小池町466-１","kouzui":"×","gake":"○","takashio":"×","jishin":"×","tsunami":"×","kaji":"×","naisui":"×","kazan":"×"}}
,{"type":"Feature","geometry":{"type":"Point","coordinates":[139.841631691344,36.5277171720693]},"properties":{"Name":"姿川中央小学校","Jusho":"栃木県宇都宮市下砥上町121","kouzui":"○","gake":"×","takashio":"×","jishin":"×","tsunami":"×","kaji":"×","naisui":"×","kazan":"×"}}
,{"type":"Feature","geometry":{"type":"Point","coordinates":[139.843062559765,36.5113027864605]},"properties":{"Name":"姿川第一小学校","Jusho":"栃木県宇都宮市西川田本町3-11-15","kouzui":"○","gake":"×","takashio":"×","jishin":"×","tsunami":"×","kaji":"×","naisui":"×","kazan":"×"}}
,{"type":"Feature","geometry":{"type":"Point","coordinates":[139.846855699592,36.5446308353598]},"properties":{"Name":"姿川第二小学校","Jusho":"栃木県宇都宮市砥上町52","kouzui":"○","gake":"×","takashio":"×","jishin":"×","tsunami":"×","kaji":"×","naisui":"×","kazan":"×"}}
,{"type":"Feature","geometry":{"type":"Point","coordinates":[139.856721797551,36.5361165294055]},"properties":{"Name":"姿川中学校","Jusho":"栃木県宇都宮市西川田町1038","kouzui":"○","gake":"×","takashio":"×","jishin":"○","tsunami":"×","kaji":"×","naisui":"×","kazan":"×"}}
,{"type":"Feature","geometry":{"type":"Point","coordinates":[139.854465236421,36.5359483768958]},"properties":{"Name":"姿川地区市民センター","Jusho":"栃木県宇都宮市西川田町1038-１","kouzui":"○","gake":"×","takashio":"×","jishin":"×","tsunami":"×","kaji":"×","naisui":"×","kazan":"×"}}
,{"type":"Feature","geometry":{"type":"Point","coordinates":[139.874239443196,36.4919046600983]},"properties":{"Name":"雀宮中央小学校","Jusho":"栃木県宇都宮市雀の宮3-10-13","kouzui":"○","gake":"×","takashio":"×","jishin":"×","tsunami":"×","kaji":"×","naisui":"×","kazan":"×"}}
,{"type":"Feature","geometry":{"type":"Point","coordinates":[139.887637470903,36.4855263327312]},"properties":{"Name":"雀宮東小学校","Jusho":"栃木県宇都宮市下反町町256-１","kouzui":"○","gake":"×","takashio":"×","jishin":"×","tsunami":"×","kaji":"×","naisui":"×","kazan":"×"}}
,{"type":"Feature","geometry":{"type":"Point","coordinates":[139.865777839246,36.4820360734283]},"properties":{"Name":"雀宮南小学校","Jusho":"栃木県宇都宮市南町3-3","kouzui":"○","gake":"×","takashio":"×","jishin":"×","tsunami":"×","kaji":"×","naisui":"×","kazan":"×"}}
,{"type":"Feature","geometry":{"type":"Point","coordinates":[139.864523281306,36.4958097122629]},"properties":{"Name":"五代小学校","Jusho":"栃木県宇都宮市五代2-22-33","kouzui":"○","gake":"×","takashio":"×","jishin":"×","tsunami":"×","kaji":"×","naisui":"×","kazan":"×"}}
,{"type":"Feature","geometry":{"type":"Point","coordinates":[139.852207751894,36.4943771905664]},"properties":{"Name":"新田小学校","Jusho":"栃木県宇都宮市針ケ谷1-18-21","kouzui":"○","gake":"×","takashio":"×","jishin":"×","tsunami":"×","kaji":"×","naisui":"×","kazan":"×"}}
,{"type":"Feature","geometry":{"type":"Point","coordinates":[139.86292767981,36.4879460948743]},"properties":{"Name":"雀宮中学校","Jusho":"栃木県宇都宮市雀の宮7-28-16","kouzui":"○","gake":"×","takashio":"×","jishin":"×","tsunami":"×","kaji":"×","naisui":"×","kazan":"×"}}
,{"type":"Feature","geometry":{"type":"Point","coordinates":[139.863078094746,36.4997813298344]},"properties":{"Name":"若松原中学校","Jusho":"栃木県宇都宮市若松原3-19-27","kouzui":"○","gake":"×","takashio":"×","jishin":"×","tsunami":"×","kaji":"×","naisui":"×","kazan":"×"}}
,{"type":"Feature","geometry":{"type":"Point","coordinates":[139.873372426653,36.486190975224]},"properties":{"Name":"雀宮地区市民センター","Jusho":"栃木県宇都宮市新富町9-4","kouzui":"○","gake":"×","takashio":"×","jishin":"×","tsunami":"×","kaji":"×","naisui":"×","kazan":"×"}}
,{"type":"Feature","geometry":{"type":"Point","coordinates":[139.864388700076,36.4825026304686]},"properties":{"Name":"雀宮南地区学習等併用施設","Jusho":"栃木県宇都宮市南町6-3","kouzui":"○","gake":"×","takashio":"×","jishin":"×","tsunami":"×","kaji":"×","naisui":"×","kazan":"×"}}
,{"type":"Feature","geometry":{"type":"Point","coordinates":[139.864889,36.48214]},"properties":{"Name":"雀宮体育館","Jusho":"栃木県宇都宮市南町6-3","kouzui":"○","gake":"×","takashio":"×","jishin":"×","tsunami":"×","kaji":"×","naisui":"×","kazan":"×"}}
,{"type":"Feature","geometry":{"type":"Point","coordinates":[139.92480947978,36.6658036383193]},"properties":{"Name":"西芦沼公民館","Jusho":"栃木県宇都宮市芦沼町２７５２","kouzui":"○","gake":"○","takashio":"×","jishin":"×","tsunami":"×","kaji":"×","naisui":"×","kazan":"×"}}
,{"type":"Feature","geometry":{"type":"Point","coordinates":[139.888329669649,36.6838936910748]},"properties":{"Name":"上河内西小学校","Jusho":"栃木県宇都宮市関白町471","kouzui":"○","gake":"○","takashio":"×","jishin":"×","tsunami":"×","kaji":"×","naisui":"×","kazan":"×"}}
,{"type":"Feature","geometry":{"type":"Point","coordinates":[139.89483497208,36.6941340951559]},"properties":{"Name":"今里集落センター","Jusho":"栃木県宇都宮市今里町９０３","kouzui":"○","gake":"○","takashio":"×","jishin":"×","tsunami":"×","kaji":"×","naisui":"×","kazan":"×"}}
,{"type":"Feature","geometry":{"type":"Point","coordinates":[139.902045169677,36.6747345166348]},"properties":{"Name":"中里原利用施設","Jusho":"栃木県宇都宮市中里町３８９","kouzui":"○","gake":"×","takashio":"×","jishin":"×","tsunami":"×","kaji":"×","naisui":"×","kazan":"×"}}
,{"type":"Feature","geometry":{"type":"Point","coordinates":[139.897954468365,36.6656825590627]},"properties":{"Name":"金田多目的集会施設","Jusho":"栃木県宇都宮市金田町","kouzui":"○","gake":"×","takashio":"×","jishin":"×","tsunami":"×","kaji":"×","naisui":"×","kazan":"×"}}
,{"type":"Feature","geometry":{"type":"Point","coordinates":[139.911296988946,36.6754645309773]},"properties":{"Name":"上田公民館","Jusho":"栃木県宇都宮市上田町","kouzui":"○","gake":"×","takashio":"×","jishin":"×","tsunami":"×","kaji":"×","naisui":"×","kazan":"×"}}
,{"type":"Feature","geometry":{"type":"Point","coordinates":[139.877524689799,36.6688625824121]},"properties":{"Name":"高松公民館","Jusho":"栃木県宇都宮市高松町","kouzui":"○","gake":"○","takashio":"×","jishin":"×","tsunami":"×","kaji":"×","naisui":"×","kazan":"×"}}
,{"type":"Feature","geometry":{"type":"Point","coordinates":[139.901990929463,36.6842224657055]},"properties":{"Name":"上河内中学校","Jusho":"栃木県宇都宮市中里町162","kouzui":"○","gake":"×","takashio":"×","jishin":"×","tsunami":"×","kaji":"×","naisui":"×","kazan":"×"}}
,{"type":"Feature","geometry":{"type":"Point","coordinates":[139.902872141893,36.6818277466662]},"properties":{"Name":"上河内中央小学校","Jusho":"栃木県宇都宮市中里町201-1","kouzui":"○","gake":"×","takashio":"×","jishin":"×","tsunami":"×","kaji":"×","naisui":"×","kazan":"×"}}
,{"type":"Feature","geometry":{"type":"Point","coordinates":[139.901618278791,36.6817768805948]},"properties":{"Name":"上河内体育館","Jusho":"栃木県宇都宮市中里町182-1","kouzui":"○","gake":"×","takashio":"×","jishin":"×","tsunami":"×","kaji":"×","naisui":"×","kazan":"×"}}
,{"type":"Feature","geometry":{"type":"Point","coordinates":[139.953068346099,36.6020275495529]},"properties":{"Name":"岡本小学校","Jusho":"栃木県宇都宮市中岡本町2623","kouzui":"○","gake":"○","takashio":"×","jishin":"×","tsunami":"×","kaji":"×","naisui":"×","kazan":"×"}}
,{"type":"Feature","geometry":{"type":"Point","coordinates":[139.93174209384,36.6068058881284]},"properties":{"Name":"岡本西小学校","Jusho":"栃木県宇都宮市中岡本町3709-2","kouzui":"○","gake":"×","takashio":"×","jishin":"×","tsunami":"×","kaji":"×","naisui":"×","kazan":"×"}}
,{"type":"Feature","geometry":{"type":"Point","coordinates":[139.951604660954,36.612420440401]},"properties":{"Name":"岡本北小学校","Jusho":"栃木県宇都宮市中岡本町2481-2","kouzui":"○","gake":"○","takashio":"×","jishin":"×","tsunami":"×","kaji":"×","naisui":"×","kazan":"×"}}
,{"type":"Feature","geometry":{"type":"Point","coordinates":[139.93976875384,36.6368948411077]},"properties":{"Name":"白沢小学校","Jusho":"栃木県宇都宮市白沢町1643","kouzui":"○","gake":"○","takashio":"×","jishin":"×","tsunami":"×","kaji":"×","naisui":"×","kazan":"×"}}
,{"type":"Feature","geometry":{"type":"Point","coordinates":[139.903721566556,36.6405419299305]},"properties":{"Name":"田原小学校","Jusho":"栃木県宇都宮市上田原町355","kouzui":"○","gake":"○","takashio":"×","jishin":"×","tsunami":"×","kaji":"×","naisui":"×","kazan":"×"}}
,{"type":"Feature","geometry":{"type":"Point","coordinates":[139.88625554684,36.6434897948236]},"properties":{"Name":"田原西小学校","Jusho":"栃木県宇都宮市立伏町8-1","kouzui":"○","gake":"○","takashio":"×","jishin":"×","tsunami":"×","kaji":"×","naisui":"×","kazan":"×"}}
,{"type":"Feature","geometry":{"type":"Point","coordinates":[139.944925595925,36.6175432602756]},"properties":{"Name":"古里中学校","Jusho":"栃木県宇都宮市中岡本町3130","kouzui":"○","gake":"×","takashio":"×","jishin":"×","tsunami":"×","kaji":"×","naisui":"×","kazan":"×"}}
,{"type":"Feature","geometry":{"type":"Point","coordinates":[139.931171337914,36.6084801618092]},"properties":{"Name":"河内中学校","Jusho":"栃木県宇都宮市中岡本町3743","kouzui":"○","gake":"×","takashio":"×","jishin":"×","tsunami":"×","kaji":"×","naisui":"×","kazan":"×"}}
,{"type":"Feature","geometry":{"type":"Point","coordinates":[139.904706562007,36.6379975605209]},"properties":{"Name":"田原中学校","Jusho":"栃木県宇都宮市下田原町1722","kouzui":"○","gake":"×","takashio":"×","jishin":"×","tsunami":"×","kaji":"×","naisui":"×","kazan":"×"}}
,{"type":"Feature","geometry":{"type":"Point","coordinates":[139.943054332326,36.6161912705742]},"properties":{"Name":"河内地区市民センター","Jusho":"宇都宮市中岡本町3221-4","kouzui":"○","gake":"×","takashio":"×","jishin":"×","tsunami":"×","kaji":"×","naisui":"×","kazan":"×"}}
,{"type":"Feature","geometry":{"type":"Point","coordinates":[139.943908125218,36.5976972463063]},"properties":{"Name":"岡本コミュニティプラザ","Jusho":"栃木県宇都宮市下岡本町1954-10","kouzui":"○","gake":"×","takashio":"×","jishin":"×","tsunami":"×","kaji":"×","naisui":"×","kazan":"×"}}
,{"type":"Feature","geometry":{"type":"Point","coordinates":[139.90868560457,36.6359735504504]},"properties":{"Name":"田原コミュニティプラザ","Jusho":"栃木県宇都宮市上田原町1","kouzui":"○","gake":"×","takashio":"×","jishin":"×","tsunami":"×","kaji":"×","naisui":"×","kazan":"×"}}
,{"type":"Feature","geometry":{"type":"Point","coordinates":[139.87113342446,36.5677599720298]},"properties":{"Name":"宇都宮大学附属小学校","Jusho":"栃木県宇都宮市松原1-7-38","kouzui":"○","gake":"×","takashio":"×","jishin":"○","tsunami":"×","kaji":"×","naisui":"×","kazan":"×"}}
,{"type":"Feature","geometry":{"type":"Point","coordinates":[139.863135755421,36.541420075888]},"properties":{"Name":"宇都宮高等学校","Jusho":"栃木県宇都宮市滝の原3-5-70","kouzui":"×","gake":"×","takashio":"×","jishin":"○","tsunami":"×","kaji":"×","naisui":"×","kazan":"×"}}
,{"type":"Feature","geometry":{"type":"Point","coordinates":[139.869977521338,36.5579120220015]},"properties":{"Name":"宇都宮女子高等学校","Jusho":"栃木県宇都宮市操町5-19","kouzui":"×","gake":"×","takashio":"×","jishin":"○","tsunami":"×","kaji":"×","naisui":"×","kazan":"×"}}
,{"type":"Feature","geometry":{"type":"Point","coordinates":[139.861024143426,36.5808164187488]},"properties":{"Name":"宇都宮中央女子高等学校","Jusho":"栃木県宇都宮市若草2-2-46","kouzui":"×","gake":"×","takashio":"×","jishin":"○","tsunami":"×","kaji":"×","naisui":"×","kazan":"×"}}
,{"type":"Feature","geometry":{"type":"Point","coordinates":[139.91001221946,36.5640131055263]},"properties":{"Name":"宇都宮白楊高等学校","Jusho":"栃木県宇都宮市今泉町2021","kouzui":"×","gake":"×","takashio":"×","jishin":"○","tsunami":"×","kaji":"×","naisui":"×","kazan":"×"}}
,{"type":"Feature","geometry":{"type":"Point","coordinates":[139.89090527437,36.5717378166485]},"properties":{"Name":"宇都宮商業高等学校","Jusho":"栃木県宇都宮市大曽3-1-46","kouzui":"×","gake":"○","takashio":"×","jishin":"○","tsunami":"×","kaji":"×","naisui":"×","kazan":"×"}}
,{"type":"Feature","geometry":{"type":"Point","coordinates":[139.861736517597,36.5727063851043]},"properties":{"Name":"宇都宮文星女子高等学校","Jusho":"栃木県宇都宮市北一の沢24-35","kouzui":"×","gake":"×","takashio":"×","jishin":"○","tsunami":"×","kaji":"×","naisui":"×","kazan":"×"}}
,{"type":"Feature","geometry":{"type":"Point","coordinates":[139.857715112039,36.5687100502548]},"properties":{"Name":"作新学院","Jusho":"栃木県宇都宮市一の沢1-1-4","kouzui":"×","gake":"○","takashio":"×","jishin":"○","tsunami":"×","kaji":"×","naisui":"×","kazan":"×"}}
,{"type":"Feature","geometry":{"type":"Point","coordinates":[139.864178977234,36.5599996763423]},"properties":{"Name":"文星芸術大学附属高等学校","Jusho":"栃木県宇都宮市睦町1-4","kouzui":"×","gake":"×","takashio":"×","jishin":"○","tsunami":"×","kaji":"×","naisui":"×","kazan":"×"}}
,{"type":"Feature","geometry":{"type":"Point","coordinates":[139.865128479223,36.5604822694408]},"properties":{"Name":"宇都宮短期大学附属高等学校","Jusho":"栃木県宇都宮市睦町1-35","kouzui":"×","gake":"×","takashio":"×","jishin":"○","tsunami":"×","kaji":"×","naisui":"×","kazan":"×"}}
,{"type":"Feature","geometry":{"type":"Point","coordinates":[139.874674733706,36.5625141946287]},"properties":{"Name":"宇都宮地方裁判所","Jusho":"栃木県宇都宮市小幡1-1-38","kouzui":"×","gake":"○","takashio":"×","jishin":"○","tsunami":"×","kaji":"×","naisui":"×","kazan":"×"}}
,{"type":"Feature","geometry":{"type":"Point","coordinates":[139.884097668518,36.5723270367094]},"properties":{"Name":"宇都宮競輪場駐車場","Jusho":"栃木県宇都宮市東戸祭1-2-7","kouzui":"×","gake":"○","takashio":"×","jishin":"○","tsunami":"×","kaji":"×","naisui":"×","kazan":"×"}}
,{"type":"Feature","geometry":{"type":"Point","coordinates":[139.868203832026,36.5470944024549]},"properties":{"Name":"文化会館及び明保野公園","Jusho":"栃木県宇都宮市明保野町7-66","kouzui":"×","gake":"×","takashio":"×","jishin":"○","tsunami":"×","kaji":"×","naisui":"×","kazan":"×"}}
,{"type":"Feature","geometry":{"type":"Point","coordinates":[139.89918755,36.56873612]},"properties":{"Name":"錦中央公園","Jusho":"栃木県宇都宮市今泉町157","kouzui":"×","gake":"×","takashio":"×","jishin":"○","tsunami":"×","kaji":"×","naisui":"×","kazan":"×"}}
,{"type":"Feature","geometry":{"type":"Point","coordinates":[139.883593912288,36.5659763341819]},"properties":{"Name":"栃木県庁","Jusho":"栃木県宇都宮市塙田1-1-20","kouzui":"×","gake":"×","takashio":"×","jishin":"○","tsunami":"×","kaji":"×","naisui":"×","kazan":"×"}}
,{"type":"Feature","geometry":{"type":"Point","coordinates":[139.9302672,36.58335534]},"properties":{"Name":"御幸公園","Jusho":"栃木県宇都宮市平出工業団地12-1","kouzui":"×","gake":"×","takashio":"×","jishin":"○","tsunami":"×","kaji":"×","naisui":"×","kazan":"×"}}
,{"type":"Feature","geometry":{"type":"Point","coordinates":[139.863029,36.584825]},"properties":{"Name":"とちぎ福祉プラザ","Jusho":"栃木県宇都宮市若草1-10-6","kouzui":"×","gake":"×","takashio":"×","jishin":"○","tsunami":"×","kaji":"×","naisui":"×","kazan":"×"}}
,{"type":"Feature","geometry":{"type":"Point","coordinates":[139.896558,36.485114]},"properties":{"Name":"宇都宮南高等学校","Jusho":"栃木県宇都宮市東谷町660-1","kouzui":"○","gake":"×","takashio":"×","jishin":"○","tsunami":"×","kaji":"×","naisui":"×","kazan":"×"}}
,{"type":"Feature","geometry":{"type":"Point","coordinates":[139.882807,36.555115]},"properties":{"Name":"宇都宮市役所","Jusho":"栃木県宇都宮市旭1-1-5","kouzui":"×","gake":"×","takashio":"×","jishin":"○","tsunami":"×","kaji":"×","naisui":"×","kazan":"×"}}
,{"type":"Feature","geometry":{"type":"Point","coordinates":[139.88533221979,36.5544129434501]},"properties":{"Name":"城址公園","Jusho":"栃木県宇都宮市本丸町地内","kouzui":"×","gake":"×","takashio":"×","jishin":"○","tsunami":"×","kaji":"×","naisui":"×","kazan":"×"}}
,{"type":"Feature","geometry":{"type":"Point","coordinates":[139.86241317,36.53541276]},"properties":{"Name":"陽南第１公園","Jusho":"栃木県宇都宮市大塚町1","kouzui":"×","gake":"×","takashio":"×","jishin":"○","tsunami":"×","kaji":"×","naisui":"×","kazan":"×"}}
,{"type":"Feature","geometry":{"type":"Point","coordinates":[139.863090754,36.601317081]},"properties":{"Name":"宇都宮カンツリークラブ","Jusho":"栃木県宇都宮市上戸祭町3200","kouzui":"×","gake":"×","takashio":"×","jishin":"○","tsunami":"×","kaji":"×","naisui":"×","kazan":"×"}}
,{"type":"Feature","geometry":{"type":"Point","coordinates":[139.8851636,36.57060168]},"properties":{"Name":"八幡山公園","Jusho":"栃木県宇都宮市塙田5-2-70","kouzui":"×","gake":"×","takashio":"×","jishin":"×","tsunami":"×","kaji":"○","naisui":"×","kazan":"×"}}
,{"type":"Feature","geometry":{"type":"Point","coordinates":[139.891991935,36.5462134869]},"properties":{"Name":"中央卸売市場","Jusho":"栃木県宇都宮市簗瀬町1493","kouzui":"○","gake":"×","takashio":"×","jishin":"×","tsunami":"×","kaji":"○","naisui":"×","kazan":"×"}}
,{"type":"Feature","geometry":{"type":"Point","coordinates":[139.868352,36.577676]},"properties":{"Name":"栃木県体育館","Jusho":"栃木県宇都宮市中戸祭1-6-3","kouzui":"×","gake":"×","takashio":"×","jishin":"×","tsunami":"×","kaji":"○","naisui":"×","kazan":"×"}}
,{"type":"Feature","geometry":{"type":"Point","coordinates":[139.86844539,36.53818217]},"properties":{"Name":"宮原運動公園","Jusho":"栃木県宇都宮市陽南4-5-6","kouzui":"×","gake":"×","takashio":"×","jishin":"×","tsunami":"×","kaji":"○","naisui":"×","kazan":"×"}}
,{"type":"Feature","geometry":{"type":"Point","coordinates":[139.86276823,36.55849345]},"properties":{"Name":"栃木県中央公園","Jusho":"栃木県宇都宮市睦町地内","kouzui":"×","gake":"○","takashio":"×","jishin":"×","tsunami":"×","kaji":"○","naisui":"×","kazan":"×"}}
,{"type":"Feature","geometry":{"type":"Point","coordinates":[139.913915,36.549136]},"properties":{"Name":"宇都宮大学(峰キャンパス)","Jusho":"栃木県宇都宮市峰町350","kouzui":"×","gake":"×","takashio":"×","jishin":"×","tsunami":"×","kaji":"○","naisui":"×","kazan":"×"}}
,{"type":"Feature","geometry":{"type":"Point","coordinates":[139.929637985311,36.5502052261959]},"properties":{"Name":"宇都宮大学工学部","Jusho":"栃木県宇都宮市陽東7-1-2","kouzui":"×","gake":"×","takashio":"×","jishin":"×","tsunami":"×","kaji":"○","naisui":"×","kazan":"×"}}
,{"type":"Feature","geometry":{"type":"Point","coordinates":[139.910744851898,36.5611088561001]},"properties":{"Name":"市体育館及び駅東公園","Jusho":"栃木県宇都宮市元今泉5-6-18","kouzui":"×","gake":"×","takashio":"×","jishin":"×","tsunami":"×","kaji":"○","naisui":"×","kazan":"×"}}
,{"type":"Feature","geometry":{"type":"Point","coordinates":[139.93517634,36.5703535091]},"properties":{"Name":"平出工業団地公園","Jusho":"栃木県宇都宮市平出工業団地29-1","kouzui":"×","gake":"×","takashio":"×","jishin":"×","tsunami":"×","kaji":"○","naisui":"×","kazan":"×"}}
,{"type":"Feature","geometry":{"type":"Point","coordinates":[139.943976119214,36.6346316349231]},"properties":{"Name":"白沢甲部公民館","Jusho":"栃木県宇都宮市白沢町1931-3","kouzui":"×","gake":"○","takashio":"×","jishin":"×","tsunami":"×","kaji":"×","naisui":"×","kazan":"×"}}
,{"type":"Feature","geometry":{"type":"Point","coordinates":[139.945918038535,36.6311232127156]},"properties":{"Name":"白沢南公民館","Jusho":"栃木県宇都宮市白沢町768","kouzui":"×","gake":"○","takashio":"×","jishin":"×","tsunami":"×","kaji":"×","naisui":"×","kazan":"×"}}
,{"type":"Feature","geometry":{"type":"Point","coordinates":[139.846070085883,36.7178513835613]},"properties":{"Name":"遥辻公民館","Jusho":"栃木県宇都宮市宮山田町993地先","kouzui":"×","gake":"○","takashio":"×","jishin":"×","tsunami":"×","kaji":"×","naisui":"×","kazan":"×"}}
,{"type":"Feature","geometry":{"type":"Point","coordinates":[139.864224827156,36.7201152595633]},"properties":{"Name":"小室公民館","Jusho":"栃木県宇都宮市宮山田町2692","kouzui":"×","gake":"○","takashio":"×","jishin":"×","tsunami":"×","kaji":"×","naisui":"×","kazan":"×"}}
,{"type":"Feature","geometry":{"type":"Point","coordinates":[139.883568576275,36.6381370812542]},"properties":{"Name":"グリーンタウン自治会公民館","Jusho":"栃木県宇都宮市立伏町541-24","kouzui":"×","gake":"○","takashio":"×","jishin":"×","tsunami":"×","kaji":"×","naisui":"×","kazan":"×"}}
,{"type":"Feature","geometry":{"type":"Point","coordinates":[139.900956147636,36.6552238047758]},"properties":{"Name":"逆面公民館","Jusho":"栃木県宇都宮市逆面町291-5","kouzui":"×","gake":"○","takashio":"×","jishin":"×","tsunami":"×","kaji":"×","naisui":"×","kazan":"×"}}
,{"type":"Feature","geometry":{"type":"Point","coordinates":[139.900845243024,36.6435655056727]},"properties":{"Name":"自由ヶ丘公民館","Jusho":"栃木県宇都宮市上田原町1079","kouzui":"×","gake":"○","takashio":"×","jishin":"×","tsunami":"×","kaji":"×","naisui":"×","kazan":"×"}}
,{"type":"Feature","geometry":{"type":"Point","coordinates":[139.886753594438,36.6467749071247]},"properties":{"Name":"叶谷公民館","Jusho":"栃木県宇都宮市叶谷町323-1","kouzui":"×","gake":"○","takashio":"×","jishin":"×","tsunami":"×","kaji":"×","naisui":"×","kazan":"×"}}
,{"type":"Feature","geometry":{"type":"Point","coordinates":[139.87791447967,36.6384039609499]},"properties":{"Name":"立伏公民館","Jusho":"栃木県宇都宮市立伏町462-117","kouzui":"×","gake":"○","takashio":"×","jishin":"×","tsunami":"×","kaji":"×","naisui":"×","kazan":"×"}}
,{"type":"Feature","geometry":{"type":"Point","coordinates":[139.943332542815,36.617206351612]},"properties":{"Name":"河内体育館","Jusho":"栃木県宇都宮市中岡本町3225","kouzui":"×","gake":"○","takashio":"×","jishin":"×","tsunami":"×","kaji":"×","naisui":"×","kazan":"×"}}
,{"type":"Feature","geometry":{"type":"Point","coordinates":[139.950113232123,36.6139683866485]},"properties":{"Name":"台岡本二区公民館","Jusho":"栃木県宇都宮市中岡本町2498","kouzui":"×","gake":"○","takashio":"×","jishin":"×","tsunami":"×","kaji":"×","naisui":"×","kazan":"×"}}
,{"type":"Feature","geometry":{"type":"Point","coordinates":[139.957188359681,36.6139655257129]},"properties":{"Name":"根古屋公民館","Jusho":"栃木県宇都宮市中岡本町4716","kouzui":"×","gake":"○","takashio":"×","jishin":"×","tsunami":"×","kaji":"×","naisui":"×","kazan":"×"}}
,{"type":"Feature","geometry":{"type":"Point","coordinates":[139.955528443743,36.6000061343742]},"properties":{"Name":"北組公民館","Jusho":"栃木県宇都宮市下岡本町941-9","kouzui":"○","gake":"○","takashio":"×","jishin":"×","tsunami":"×","kaji":"×","naisui":"×","kazan":"×"}}
,{"type":"Feature","geometry":{"type":"Point","coordinates":[139.943324639455,36.5972859431874]},"properties":{"Name":"駅前第一区公民館","Jusho":"栃木県宇都宮市下岡本町4150-1","kouzui":"×","gake":"○","takashio":"×","jishin":"×","tsunami":"×","kaji":"×","naisui":"×","kazan":"×"}}
,{"type":"Feature","geometry":{"type":"Point","coordinates":[139.949815585253,36.5945668689414]},"properties":{"Name":"釜根公民館","Jusho":"栃木県宇都宮市下岡本町5312-11595","kouzui":"×","gake":"○","takashio":"×","jishin":"×","tsunami":"×","kaji":"×","naisui":"×","kazan":"×"}}
,{"type":"Feature","geometry":{"type":"Point","coordinates":[139.801720096741,36.7021898843644]},"properties":{"Name":"飯山公民館","Jusho":"栃木県宇都宮市飯山町387-1","kouzui":"×","gake":"○","takashio":"×","jishin":"×","tsunami":"×","kaji":"×","naisui":"×","kazan":"×"}}
,{"type":"Feature","geometry":{"type":"Point","coordinates":[139.819238699558,36.701683599177]},"properties":{"Name":"上篠井自治公民館","Jusho":"栃木県宇都宮市篠井町1382-1","kouzui":"×","gake":"○","takashio":"×","jishin":"×","tsunami":"×","kaji":"×","naisui":"×","kazan":"×"}}
,{"type":"Feature","geometry":{"type":"Point","coordinates":[139.817896805942,36.694039436134]},"properties":{"Name":"中篠井公民館","Jusho":"栃木県宇都宮市篠井町804-2","kouzui":"×","gake":"○","takashio":"×","jishin":"×","tsunami":"×","kaji":"×","naisui":"×","kazan":"×"}}
,{"type":"Feature","geometry":{"type":"Point","coordinates":[139.786746482003,36.6843253173373]},"properties":{"Name":"上小池町公民館","Jusho":"栃木県宇都宮市上小池町500","kouzui":"×","gake":"○","takashio":"×","jishin":"×","tsunami":"×","kaji":"×","naisui":"×","kazan":"×"}}
,{"type":"Feature","geometry":{"type":"Point","coordinates":[139.794941411538,36.6798591335161]},"properties":{"Name":"原坪多目的研修集会施設","Jusho":"栃木県宇都宮市石那田町1788-5","kouzui":"×","gake":"○","takashio":"×","jishin":"×","tsunami":"×","kaji":"×","naisui":"×","kazan":"×"}}
,{"type":"Feature","geometry":{"type":"Point","coordinates":[139.821153805704,36.6737376291469]},"properties":{"Name":"下小池第一多目的研修集会施設","Jusho":"栃木県宇都宮市下小池町133","kouzui":"×","gake":"○","takashio":"×","jishin":"×","tsunami":"×","kaji":"×","naisui":"×","kazan":"×"}}
,{"type":"Feature","geometry":{"type":"Point","coordinates":[139.828990773352,36.6739525759253]},"properties":{"Name":"下篠井公民館","Jusho":"栃木県宇都宮市篠井町1948","kouzui":"×","gake":"○","takashio":"×","jishin":"×","tsunami":"×","kaji":"×","naisui":"×","kazan":"×"}}
,{"type":"Feature","geometry":{"type":"Point","coordinates":[139.831403184702,36.6676175576668]},"properties":{"Name":"六本木公民館","Jusho":"栃木県宇都宮市石那田町130","kouzui":"×","gake":"○","takashio":"×","jishin":"×","tsunami":"×","kaji":"×","naisui":"×","kazan":"×"}}
,{"type":"Feature","geometry":{"type":"Point","coordinates":[139.834501136117,36.6638040437094]},"properties":{"Name":"上町公民館","Jusho":"栃木県宇都宮市徳次郎町3110","kouzui":"×","gake":"○","takashio":"×","jishin":"×","tsunami":"×","kaji":"×","naisui":"×","kazan":"×"}}
,{"type":"Feature","geometry":{"type":"Point","coordinates":[139.841509288943,36.6676295206486]},"properties":{"Name":"大網町公民館","Jusho":"栃木県宇都宮市大網町２６３","kouzui":"×","gake":"○","takashio":"×","jishin":"×","tsunami":"×","kaji":"×","naisui":"×","kazan":"×"}}
,{"type":"Feature","geometry":{"type":"Point","coordinates":[139.790619607526,36.61821680007]},"properties":{"Name":"自然休暇村管理センター","Jusho":"栃木県宇都宮市福岡町1074-1","kouzui":"×","gake":"○","takashio":"×","jishin":"×","tsunami":"×","kaji":"×","naisui":"×","kazan":"×"}}
,{"type":"Feature","geometry":{"type":"Point","coordinates":[139.748893558925,36.6106347429374]},"properties":{"Name":"上古賀志公民館","Jusho":"栃木県宇都宮市古賀志町1615","kouzui":"×","gake":"○","takashio":"×","jishin":"×","tsunami":"×","kaji":"×","naisui":"×","kazan":"×"}}
,{"type":"Feature","geometry":{"type":"Point","coordinates":[139.81193255649,36.6272292232764]},"properties":{"Name":"新里一区北部公民館","Jusho":"栃木県宇都宮市新里町甲786","kouzui":"×","gake":"○","takashio":"×","jishin":"×","tsunami":"×","kaji":"×","naisui":"×","kazan":"×"}}
,{"type":"Feature","geometry":{"type":"Point","coordinates":[139.823547121107,36.6251087949542]},"properties":{"Name":"藤本公民館","Jusho":"栃木県宇都宮市新里町丁296","kouzui":"×","gake":"○","takashio":"×","jishin":"×","tsunami":"×","kaji":"×","naisui":"×","kazan":"×"}}
,{"type":"Feature","geometry":{"type":"Point","coordinates":[139.813944458614,36.6162868662409]},"properties":{"Name":"桜田公民館","Jusho":"栃木県宇都宮市新里町甲164","kouzui":"×","gake":"○","takashio":"×","jishin":"×","tsunami":"×","kaji":"×","naisui":"×","kazan":"×"}}
,{"type":"Feature","geometry":{"type":"Point","coordinates":[139.81600777187,36.6084683119377]},"properties":{"Name":"田下町公民館","Jusho":"栃木県宇都宮市田下町236","kouzui":"×","gake":"○","takashio":"×","jishin":"×","tsunami":"×","kaji":"×","naisui":"×","kazan":"×"}}
,{"type":"Feature","geometry":{"type":"Point","coordinates":[139.814136094049,36.6349257706329]},"properties":{"Name":"沢公民館","Jusho":"栃木県宇都宮市新里町乙624-1","kouzui":"×","gake":"○","takashio":"×","jishin":"×","tsunami":"×","kaji":"×","naisui":"×","kazan":"×"}}
,{"type":"Feature","geometry":{"type":"Point","coordinates":[139.81621212382,36.6322438970515]},"properties":{"Name":"神郷公民館","Jusho":"栃木県宇都宮市新里町乙３３５","kouzui":"×","gake":"○","takashio":"×","jishin":"×","tsunami":"×","kaji":"×","naisui":"×","kazan":"×"}}
,{"type":"Feature","geometry":{"type":"Point","coordinates":[139.821591917266,36.6382995849364]},"properties":{"Name":"新里町公民館","Jusho":"栃木県宇都宮市新里町丙８６４","kouzui":"×","gake":"○","takashio":"×","jishin":"×","tsunami":"×","kaji":"×","naisui":"×","kazan":"×"}}
,{"type":"Feature","geometry":{"type":"Point","coordinates":[139.851669262681,36.6296135683059]},"properties":{"Name":"金井町自治会館","Jusho":"栃木県宇都宮市下金井町485-3","kouzui":"×","gake":"○","takashio":"×","jishin":"×","tsunami":"×","kaji":"×","naisui":"×","kazan":"×"}}
,{"type":"Feature","geometry":{"type":"Point","coordinates":[139.858036826887,36.6276590758573]},"properties":{"Name":"下金井町公民館","Jusho":"栃木県宇都宮市下金井町176-1","kouzui":"×","gake":"○","takashio":"×","jishin":"×","tsunami":"×","kaji":"×","naisui":"×","kazan":"×"}}
,{"type":"Feature","geometry":{"type":"Point","coordinates":[139.866107395954,36.6213497242603]},"properties":{"Name":"横山町上公民館","Jusho":"栃木県宇都宮市横山町1385","kouzui":"×","gake":"○","takashio":"×","jishin":"×","tsunami":"×","kaji":"×","naisui":"×","kazan":"×"}}
,{"type":"Feature","geometry":{"type":"Point","coordinates":[139.876243048498,36.6154012580799]},"properties":{"Name":"瓦谷町上公民館","Jusho":"栃木県宇都宮市瓦谷町631-1","kouzui":"×","gake":"○","takashio":"×","jishin":"×","tsunami":"×","kaji":"×","naisui":"×","kazan":"×"}}
,{"type":"Feature","geometry":{"type":"Point","coordinates":[139.882877146343,36.6209503393409]},"properties":{"Name":"横山町下公民館","Jusho":"栃木県宇都宮市横山町3-26-38","kouzui":"×","gake":"○","takashio":"×","jishin":"×","tsunami":"×","kaji":"×","naisui":"×","kazan":"×"}}
,{"type":"Feature","geometry":{"type":"Point","coordinates":[139.842005106428,36.6509820774206]},"properties":{"Name":"中町公民館","Jusho":"栃木県宇都宮市徳次郎町2143","kouzui":"×","gake":"○","takashio":"×","jishin":"×","tsunami":"×","kaji":"×","naisui":"×","kazan":"×"}}
,{"type":"Feature","geometry":{"type":"Point","coordinates":[139.855775731321,36.6530200467798]},"properties":{"Name":"上横倉町集会所","Jusho":"栃木県宇都宮市上横倉町618","kouzui":"×","gake":"○","takashio":"×","jishin":"×","tsunami":"×","kaji":"×","naisui":"×","kazan":"×"}}
,{"type":"Feature","geometry":{"type":"Point","coordinates":[139.844241570925,36.6463070219693]},"properties":{"Name":"下町生活協同館","Jusho":"栃木県宇都宮市徳次郎町629-1","kouzui":"×","gake":"○","takashio":"×","jishin":"×","tsunami":"×","kaji":"×","naisui":"×","kazan":"×"}}
,{"type":"Feature","geometry":{"type":"Point","coordinates":[139.835957149119,36.6408371556551]},"properties":{"Name":"西根公民館","Jusho":"栃木県宇都宮市徳次郎町1173","kouzui":"×","gake":"○","takashio":"×","jishin":"×","tsunami":"×","kaji":"×","naisui":"×","kazan":"×"}}
,{"type":"Feature","geometry":{"type":"Point","coordinates":[139.85619508094,36.640481649051]},"properties":{"Name":"上金井町公民館","Jusho":"栃木県宇都宮市上金井町416","kouzui":"×","gake":"○","takashio":"×","jishin":"×","tsunami":"×","kaji":"×","naisui":"×","kazan":"×"}}
,{"type":"Feature","geometry":{"type":"Point","coordinates":[139.804392892824,36.6678963474302]},"properties":{"Name":"岡坪公民館","Jusho":"栃木県宇都宮市石那田町1508","kouzui":"×","gake":"○","takashio":"×","jishin":"×","tsunami":"×","kaji":"×","naisui":"×","kazan":"×"}}
,{"type":"Feature","geometry":{"type":"Point","coordinates":[139.805674344356,36.6651969912812]},"properties":{"Name":"仲根公民館","Jusho":"栃木県宇都宮市石那田町1143-2","kouzui":"×","gake":"○","takashio":"×","jishin":"×","tsunami":"×","kaji":"×","naisui":"×","kazan":"×"}}
,{"type":"Feature","geometry":{"type":"Point","coordinates":[139.886530453775,36.5844358357138]},"properties":{"Name":"富士見が丘自治会館","Jusho":"栃木県宇都宮市富士見が丘2-16-7","kouzui":"×","gake":"○","takashio":"×","jishin":"×","tsunami":"×","kaji":"×","naisui":"×","kazan":"×"}}
,{"type":"Feature","geometry":{"type":"Point","coordinates":[139.888587075336,36.5791864182178]},"properties":{"Name":"山本町公民館","Jusho":"栃木県宇都宮市山本1-8-16","kouzui":"×","gake":"○","takashio":"×","jishin":"×","tsunami":"×","kaji":"×","naisui":"×","kazan":"×"}}
,{"type":"Feature","geometry":{"type":"Point","coordinates":[139.88636084186,36.5792395477692]},"properties":{"Name":"八幡台自治会コミュニティセンター","Jusho":"栃木県宇都宮市八幡台19-21","kouzui":"×","gake":"○","takashio":"×","jishin":"×","tsunami":"×","kaji":"×","naisui":"×","kazan":"×"}}
,{"type":"Feature","geometry":{"type":"Point","coordinates":[139.886437487862,36.6226820924175]},"properties":{"Name":"ニュー富士見ローズタウン公民館","Jusho":"栃木県宇都宮市横山三丁目21-24","kouzui":"×","gake":"○","takashio":"×","jishin":"×","tsunami":"×","kaji":"×","naisui":"×","kazan":"×"}}
,{"type":"Feature","geometry":{"type":"Point","coordinates":[139.89015771177,36.6175326835327]},"properties":{"Name":"ニュー富士見ヶ丘団地公民館","Jusho":"栃木県宇都宮市横山一丁目21-18","kouzui":"×","gake":"○","takashio":"×","jishin":"×","tsunami":"×","kaji":"×","naisui":"×","kazan":"×"}}
,{"type":"Feature","geometry":{"type":"Point","coordinates":[139.898998514005,36.6101691000507]},"properties":{"Name":"岩本町公民館","Jusho":"栃木県宇都宮市岩本町478","kouzui":"×","gake":"○","takashio":"×","jishin":"×","tsunami":"×","kaji":"×","naisui":"×","kazan":"×"}}
,{"type":"Feature","geometry":{"type":"Point","coordinates":[139.892740495377,36.6070030288149]},"properties":{"Name":"瓦谷町下公民館","Jusho":"栃木県宇都宮市瓦谷町818-2","kouzui":"×","gake":"○","takashio":"×","jishin":"×","tsunami":"×","kaji":"×","naisui":"×","kazan":"×"}}
,{"type":"Feature","geometry":{"type":"Point","coordinates":[139.893307626502,36.6030514112964]},"properties":{"Name":"豊郷台二丁目自治会館","Jusho":"栃木県宇都宮市豊郷台二丁目39-1","kouzui":"×","gake":"○","takashio":"×","jishin":"×","tsunami":"×","kaji":"×","naisui":"×","kazan":"×"}}
,{"type":"Feature","geometry":{"type":"Point","coordinates":[139.899269337549,36.6029599924759]},"properties":{"Name":"関堀町上公民館","Jusho":"栃木県宇都宮市関堀町760","kouzui":"×","gake":"○","takashio":"×","jishin":"×","tsunami":"×","kaji":"×","naisui":"×","kazan":"×"}}
,{"type":"Feature","geometry":{"type":"Point","coordinates":[139.805644145233,36.5745660730645]},"properties":{"Name":"上飯田公民館","Jusho":"栃木県宇都宮市飯田町914-1","kouzui":"×","gake":"○","takashio":"×","jishin":"×","tsunami":"×","kaji":"×","naisui":"×","kazan":"×"}}
,{"type":"Feature","geometry":{"type":"Point","coordinates":[139.809880236708,36.56407548578]},"properties":{"Name":"下飯田公民館","Jusho":"栃木県宇都宮市飯田町405","kouzui":"×","gake":"○","takashio":"×","jishin":"×","tsunami":"×","kaji":"×","naisui":"×","kazan":"×"}}
,{"type":"Feature","geometry":{"type":"Point","coordinates":[139.974131053459,36.5625544321024]},"properties":{"Name":"道場宿公民館","Jusho":"栃木県宇都宮市道場宿町1208-13","kouzui":"×","gake":"○","takashio":"×","jishin":"×","tsunami":"×","kaji":"×","naisui":"×","kazan":"×"}}
,{"type":"Feature","geometry":{"type":"Point","coordinates":[139.962466919031,36.5334935625445]},"properties":{"Name":"朝日ヶ丘公民館","Jusho":"栃木県宇都宮市鐺山町697-2","kouzui":"×","gake":"○","takashio":"×","jishin":"×","tsunami":"×","kaji":"×","naisui":"×","kazan":"×"}}
,{"type":"Feature","geometry":{"type":"Point","coordinates":[139.958863372535,36.516967412936]},"properties":{"Name":"桑島町公民館","Jusho":"栃木県宇都宮市桑島町812","kouzui":"×","gake":"○","takashio":"×","jishin":"×","tsunami":"×","kaji":"×","naisui":"×","kazan":"×"}}
,{"type":"Feature","geometry":{"type":"Point","coordinates":[139.820939996264,36.5992361082408]},"properties":{"Name":"大谷公民館","Jusho":"栃木県宇都宮市大谷町1225","kouzui":"×","gake":"○","takashio":"×","jishin":"×","tsunami":"×","kaji":"×","naisui":"×","kazan":"×"}}
,{"type":"Feature","geometry":{"type":"Point","coordinates":[139.827255762874,36.6050442298125]},"properties":{"Name":"立岩自治公民館","Jusho":"栃木県宇都宮市大谷町110","kouzui":"×","gake":"○","takashio":"×","jishin":"×","tsunami":"×","kaji":"×","naisui":"×","kazan":"×"}}
,{"type":"Feature","geometry":{"type":"Point","coordinates":[139.831360687858,36.5947069156685]},"properties":{"Name":"瓦作公民館","Jusho":"栃木県宇都宮市大谷町801","kouzui":"×","gake":"○","takashio":"×","jishin":"×","tsunami":"×","kaji":"×","naisui":"×","kazan":"×"}}
,{"type":"Feature","geometry":{"type":"Point","coordinates":[139.794287854488,36.5986520630319]},"properties":{"Name":"中福岡集会所","Jusho":"栃木県宇都宮市福岡町1161-4","kouzui":"×","gake":"○","takashio":"×","jishin":"×","tsunami":"×","kaji":"×","naisui":"×","kazan":"×"}}
,{"type":"Feature","geometry":{"type":"Point","coordinates":[139.801954621942,36.5962001596253]},"properties":{"Name":"田野町公民館","Jusho":"栃木県宇都宮市田野町746-9","kouzui":"×","gake":"○","takashio":"×","jishin":"×","tsunami":"×","kaji":"×","naisui":"×","kazan":"×"}}
,{"type":"Feature","geometry":{"type":"Point","coordinates":[139.821325175191,36.5913560357696]},"properties":{"Name":"荒針公民館","Jusho":"栃木県宇都宮市大谷町1318","kouzui":"×","gake":"○","takashio":"×","jishin":"×","tsunami":"×","kaji":"×","naisui":"×","kazan":"×"}}
,{"type":"Feature","geometry":{"type":"Point","coordinates":[139.974212372345,36.598789472251]},"properties":{"Name":"河岸組集会所","Jusho":"栃木県宇都宮市板戸町498","kouzui":"×","gake":"○","takashio":"×","jishin":"×","tsunami":"×","kaji":"×","naisui":"×","kazan":"×"}}
,{"type":"Feature","geometry":{"type":"Point","coordinates":[139.977946007282,36.5933111348752]},"properties":{"Name":"板戸町集落センター","Jusho":"栃木県宇都宮市板戸町1126-2","kouzui":"×","gake":"○","takashio":"×","jishin":"×","tsunami":"×","kaji":"×","naisui":"×","kazan":"×"}}
,{"type":"Feature","geometry":{"type":"Point","coordinates":[139.979223185869,36.5889946603911]},"properties":{"Name":"板戸町集落センター分館","Jusho":"栃木県宇都宮市板戸町1243","kouzui":"×","gake":"○","takashio":"×","jishin":"×","tsunami":"×","kaji":"×","naisui":"×","kazan":"×"}}
,{"type":"Feature","geometry":{"type":"Point","coordinates":[139.944682919653,36.5787695456771]},"properties":{"Name":"北組公民館","Jusho":"栃木県宇都宮市平出町1505","kouzui":"×","gake":"○","takashio":"×","jishin":"×","tsunami":"×","kaji":"×","naisui":"×","kazan":"×"}}
,{"type":"Feature","geometry":{"type":"Point","coordinates":[139.45139660978,36.340469146913]},"properties":{"Name":"けやき小学校","Jusho":"栃木県足利市柳原町861","kouzui":"○","gake":"○","takashio":"×","jishin":"○","tsunami":"×","kaji":"×","naisui":"○","kazan":"×"}}
,{"type":"Feature","geometry":{"type":"Point","coordinates":[139.454902,36.334598]},"properties":{"Name":"とうこうコミュニティセンター","Jusho":"栃木県足利市伊勢町3-7-5","kouzui":"○","gake":"○","takashio":"×","jishin":"○","tsunami":"×","kaji":"×","naisui":"○","kazan":"×"}}
,{"type":"Feature","geometry":{"type":"Point","coordinates":[139.441715,36.340498]},"properties":{"Name":"さいこうふれあいセンター","Jusho":"栃木県足利市西宮町2838","kouzui":"○","gake":"○","takashio":"×","jishin":"○","tsunami":"×","kaji":"×","naisui":"○","kazan":"×"}}
,{"type":"Feature","geometry":{"type":"Point","coordinates":[139.442038,36.347707]},"properties":{"Name":"第一中学校","Jusho":"栃木県足利市西宮町3045","kouzui":"○","gake":"○","takashio":"×","jishin":"○","tsunami":"×","kaji":"×","naisui":"○","kazan":"×"}}
,{"type":"Feature","geometry":{"type":"Point","coordinates":[139.45680564285,36.348348815292]},"properties":{"Name":"第二中学校","Jusho":"栃木県足利市本城1-1472","kouzui":"○","gake":"○","takashio":"×","jishin":"○","tsunami":"×","kaji":"×","naisui":"○","kazan":"×"}}
,{"type":"Feature","geometry":{"type":"Point","coordinates":[139.46419603439,36.344037432855]},"properties":{"Name":"青葉小学校","Jusho":"栃木県足利市大橋町1-2007-1","kouzui":"○","gake":"○","takashio":"×","jishin":"○","tsunami":"×","kaji":"×","naisui":"○","kazan":"×"}}
,{"type":"Feature","geometry":{"type":"Point","coordinates":[139.459912,36.33481]},"properties":{"Name":"生涯学習センター","Jusho":"栃木県足利市相生町1-1","kouzui":"○","gake":"○","takashio":"×","jishin":"○","tsunami":"×","kaji":"×","naisui":"○","kazan":"×"}}
,{"type":"Feature","geometry":{"type":"Point","coordinates":[139.46660833862,36.334299643136]},"properties":{"Name":"東山小学校","Jusho":"栃木県足利市助戸仲町806","kouzui":"○","gake":"○","takashio":"×","jishin":"○","tsunami":"×","kaji":"×","naisui":"○","kazan":"×"}}
,{"type":"Feature","geometry":{"type":"Point","coordinates":[139.46843605159,36.32683785046]},"properties":{"Name":"第三中学校","Jusho":"栃木県足利市常盤町67","kouzui":"○","gake":"○","takashio":"×","jishin":"○","tsunami":"×","kaji":"×","naisui":"○","kazan":"×"}}
,{"type":"Feature","geometry":{"type":"Point","coordinates":[139.46599332275,36.32645456266]},"properties":{"Name":"桜小学校","Jusho":"栃木県足利市千歳町89","kouzui":"○","gake":"○","takashio":"×","jishin":"○","tsunami":"×","kaji":"×","naisui":"○","kazan":"×"}}
,{"type":"Feature","geometry":{"type":"Point","coordinates":[139.48386981349,36.318333537643]},"properties":{"Name":"毛野南小学校","Jusho":"栃木県足利市常見町1-4","kouzui":"○","gake":"○","takashio":"×","jishin":"○","tsunami":"×","kaji":"×","naisui":"○","kazan":"×"}}
,{"type":"Feature","geometry":{"type":"Point","coordinates":[139.50093510185,36.319851644471]},"properties":{"Name":"毛野中学校","Jusho":"栃木県足利市八椚町27","kouzui":"○","gake":"○","takashio":"×","jishin":"○","tsunami":"×","kaji":"×","naisui":"○","kazan":"×"}}
,{"type":"Feature","geometry":{"type":"Point","coordinates":[139.4996907791,36.318925916066]},"properties":{"Name":"毛野小学校","Jusho":"栃木県足利市大久保町1500","kouzui":"○","gake":"○","takashio":"×","jishin":"○","tsunami":"×","kaji":"×","naisui":"○","kazan":"×"}}
,{"type":"Feature","geometry":{"type":"Point","coordinates":[139.52986908466,36.318314025078]},"properties":{"Name":"富田小学校","Jusho":"栃木県足利市駒場町625","kouzui":"○","gake":"○","takashio":"×","jishin":"○","tsunami":"×","kaji":"×","naisui":"○","kazan":"×"}}
,{"type":"Feature","geometry":{"type":"Point","coordinates":[139.5327190344,36.321608221394]},"properties":{"Name":"富田中学校","Jusho":"栃木県足利市駒場町359","kouzui":"○","gake":"○","takashio":"×","jishin":"○","tsunami":"×","kaji":"×","naisui":"○","kazan":"×"}}
,{"type":"Feature","geometry":{"type":"Point","coordinates":[139.47290964418,36.360215800662]},"properties":{"Name":"北郷小学校","Jusho":"栃木県足利市田島町1","kouzui":"○","gake":"○","takashio":"×","jishin":"○","tsunami":"×","kaji":"×","naisui":"○","kazan":"×"}}
,{"type":"Feature","geometry":{"type":"Point","coordinates":[139.47249972884,36.356864280731]},"properties":{"Name":"北郷公民館体育館","Jusho":"栃木県足利市利保町2-14-1","kouzui":"○","gake":"○","takashio":"×","jishin":"×","tsunami":"×","kaji":"×","naisui":"○","kazan":"×"}}
,{"type":"Feature","geometry":{"type":"Point","coordinates":[139.47220372884,36.356188685342]},"properties":{"Name":"北郷公民館駐車場","Jusho":"栃木県足利市利保町2-14-1","kouzui":"×","gake":"×","takashio":"×","jishin":"○","tsunami":"×","kaji":"×","naisui":"×","kazan":"×"}}
,{"type":"Feature","geometry":{"type":"Point","coordinates":[139.47695925397,36.361411315358]},"properties":{"Name":"北中学校","Jusho":"栃木県足利市菅田町100","kouzui":"○","gake":"○","takashio":"×","jishin":"○","tsunami":"×","kaji":"×","naisui":"○","kazan":"×"}}
,{"type":"Feature","geometry":{"type":"Point","coordinates":[139.48291515212,36.35396971863]},"properties":{"Name":"大月小学校","Jusho":"栃木県足利市大月町1089","kouzui":"○","gake":"○","takashio":"×","jishin":"○","tsunami":"×","kaji":"×","naisui":"○","kazan":"×"}}
,{"type":"Feature","geometry":{"type":"Point","coordinates":[139.45485218651,36.372028638681]},"properties":{"Name":"民俗資料室体育館","Jusho":"栃木県足利市月谷町1105","kouzui":"○","gake":"○","takashio":"×","jishin":"×","tsunami":"×","kaji":"×","naisui":"○","kazan":"×"}}
,{"type":"Feature","geometry":{"type":"Point","coordinates":[139.45533945767,36.371618277455]},"properties":{"Name":"民俗資料室併設グラウンド","Jusho":"栃木県足利市月谷町1105","kouzui":"×","gake":"×","takashio":"×","jishin":"○","tsunami":"×","kaji":"×","naisui":"×","kazan":"×"}}
,{"type":"Feature","geometry":{"type":"Point","coordinates":[139.42727906746,36.348923]},"properties":{"Name":"三重小学校","Jusho":"栃木県足利市五十部町1060","kouzui":"○","gake":"○","takashio":"×","jishin":"○","tsunami":"×","kaji":"×","naisui":"○","kazan":"×"}}
,{"type":"Feature","geometry":{"type":"Point","coordinates":[139.41000637301,36.35279956327]},"properties":{"Name":"山前小学校","Jusho":"栃木県足利市山下町1297","kouzui":"○","gake":"○","takashio":"×","jishin":"○","tsunami":"×","kaji":"×","naisui":"○","kazan":"×"}}
,{"type":"Feature","geometry":{"type":"Point","coordinates":[139.41520910185,36.34676288755]},"properties":{"Name":"西中学校","Jusho":"栃木県足利市山下町2539","kouzui":"○","gake":"○","takashio":"×","jishin":"○","tsunami":"×","kaji":"×","naisui":"○","kazan":"×"}}
,{"type":"Feature","geometry":{"type":"Point","coordinates":[139.38896079629,36.365267952134]},"properties":{"Name":"葉鹿小学校","Jusho":"栃木県足利市葉鹿町1-14-2","kouzui":"○","gake":"○","takashio":"×","jishin":"○","tsunami":"×","kaji":"×","naisui":"○","kazan":"×"}}
,{"type":"Feature","geometry":{"type":"Point","coordinates":[139.39100689814,36.368711]},"properties":{"Name":"坂西中学校","Jusho":"栃木県足利市葉鹿町1498","kouzui":"○","gake":"○","takashio":"×","jishin":"○","tsunami":"×","kaji":"×","naisui":"○","kazan":"×"}}
,{"type":"Feature","geometry":{"type":"Point","coordinates":[139.37722316931,36.375824191308]},"properties":{"Name":"小俣小学校","Jusho":"栃木県足利市小俣町670-1","kouzui":"○","gake":"○","takashio":"×","jishin":"○","tsunami":"×","kaji":"×","naisui":"○","kazan":"×"}}
,{"type":"Feature","geometry":{"type":"Point","coordinates":[139.43719845767,36.323981152136]},"properties":{"Name":"山辺小学校","Jusho":"栃木県足利市八幡町386","kouzui":"○","gake":"○","takashio":"×","jishin":"○","tsunami":"×","kaji":"×","naisui":"○","kazan":"×"}}
,{"type":"Feature","geometry":{"type":"Point","coordinates":[139.43812788095,36.318838668862]},"properties":{"Name":"南小学校","Jusho":"栃木県足利市堀込町2719","kouzui":"○","gake":"○","takashio":"×","jishin":"○","tsunami":"×","kaji":"×","naisui":"○","kazan":"×"}}
,{"type":"Feature","geometry":{"type":"Point","coordinates":[139.43299442328,36.317047158288]},"properties":{"Name":"山辺中学校","Jusho":"栃木県足利市西新井町3157","kouzui":"○","gake":"○","takashio":"×","jishin":"○","tsunami":"×","kaji":"×","naisui":"○","kazan":"×"}}
,{"type":"Feature","geometry":{"type":"Point","coordinates":[139.42483310053,36.309371432451]},"properties":{"Name":"矢場川小学校","Jusho":"栃木県足利市里矢場町1998","kouzui":"○","gake":"○","takashio":"×","jishin":"○","tsunami":"×","kaji":"×","naisui":"○","kazan":"×"}}
,{"type":"Feature","geometry":{"type":"Point","coordinates":[139.47931716931,36.306159875954]},"properties":{"Name":"梁田小学校","Jusho":"栃木県足利市福富町392-2","kouzui":"○","gake":"○","takashio":"×","jishin":"○","tsunami":"×","kaji":"×","naisui":"○","kazan":"×"}}
,{"type":"Feature","geometry":{"type":"Point","coordinates":[139.45729713492,36.303511109173]},"properties":{"Name":"御厨小学校","Jusho":"栃木県足利市福居町19","kouzui":"○","gake":"○","takashio":"×","jishin":"○","tsunami":"×","kaji":"×","naisui":"○","kazan":"×"}}
,{"type":"Feature","geometry":{"type":"Point","coordinates":[139.46196181349,36.293826647357]},"properties":{"Name":"協和中学校","Jusho":"栃木県足利市百頭町160","kouzui":"○","gake":"○","takashio":"×","jishin":"○","tsunami":"×","kaji":"×","naisui":"○","kazan":"×"}}
,{"type":"Feature","geometry":{"type":"Point","coordinates":[139.45509762698,36.30015]},"properties":{"Name":"旧協和中体育館 （コミュ二ティ体育館）","Jusho":"栃木県足利市百頭町2017","kouzui":"×","gake":"○","takashio":"×","jishin":"×","tsunami":"×","kaji":"×","naisui":"○","kazan":"×"}}
,{"type":"Feature","geometry":{"type":"Point","coordinates":[139.454448,36.299486]},"properties":{"Name":"旧協和中グラウンド （コミュ二ティ広場）","Jusho":"栃木県足利市百頭町2017","kouzui":"×","gake":"×","takashio":"×","jishin":"○","tsunami":"×","kaji":"×","naisui":"×","kazan":"×"}}
,{"type":"Feature","geometry":{"type":"Point","coordinates":[139.50521262698,36.290162295528]},"properties":{"Name":"久野小学校","Jusho":"栃木県足利市久保田町216","kouzui":"○","gake":"○","takashio":"×","jishin":"○","tsunami":"×","kaji":"×","naisui":"○","kazan":"×"}}
,{"type":"Feature","geometry":{"type":"Point","coordinates":[139.47508306746,36.277397052472]},"properties":{"Name":"筑波小学校","Jusho":"栃木県足利市小曽根町517","kouzui":"○","gake":"○","takashio":"×","jishin":"○","tsunami":"×","kaji":"×","naisui":"○","kazan":"×"}}
,{"type":"Feature","geometry":{"type":"Point","coordinates":[139.49236660979,36.282341054115]},"properties":{"Name":"愛宕台中学校","Jusho":"栃木県足利市高松町433","kouzui":"○","gake":"○","takashio":"×","jishin":"○","tsunami":"×","kaji":"×","naisui":"○","kazan":"×"}}
,{"type":"Feature","geometry":{"type":"Point","coordinates":[139.46081462831,36.344758192379]},"properties":{"Name":"足利市総合運動場","Jusho":"栃木県足利市田所町・西砂原後町地内","kouzui":"×","gake":"×","takashio":"×","jishin":"○","tsunami":"×","kaji":"○","naisui":"×","kazan":"×"}}
,{"type":"Feature","geometry":{"type":"Point","coordinates":[139.45222008465,36.337662995029]},"properties":{"Name":"鑁阿寺境内","Jusho":"栃木県足利市家富町地内","kouzui":"×","gake":"×","takashio":"×","jishin":"○","tsunami":"×","kaji":"○","naisui":"×","kazan":"×"}}
,{"type":"Feature","geometry":{"type":"Point","coordinates":[139.43479333862,36.337011646702]},"properties":{"Name":"足利公園","Jusho":"栃木県足利市緑町地内","kouzui":"×","gake":"×","takashio":"×","jishin":"○","tsunami":"×","kaji":"○","naisui":"×","kazan":"×"}}
,{"type":"Feature","geometry":{"type":"Point","coordinates":[139.456572,36.327805356412]},"properties":{"Name":"渡良瀬運動場","Jusho":"栃木県足利市伊勢町地内","kouzui":"×","gake":"×","takashio":"×","jishin":"○","tsunami":"×","kaji":"○","naisui":"×","kazan":"×"}}
,{"type":"Feature","geometry":{"type":"Point","coordinates":[139.447309,36.33147]},"properties":{"Name":"中橋緑地","Jusho":"栃木県足利市南町地内","kouzui":"×","gake":"×","takashio":"×","jishin":"○","tsunami":"×","kaji":"○","naisui":"×","kazan":"×"}}
,{"type":"Feature","geometry":{"type":"Point","coordinates":[139.42543530025,36.338120439157]},"properties":{"Name":"五十部運動公園","Jusho":"栃木県足利市五十部町地内","kouzui":"×","gake":"×","takashio":"×","jishin":"○","tsunami":"×","kaji":"○","naisui":"×","kazan":"×"}}
,{"type":"Feature","geometry":{"type":"Point","coordinates":[139.7373475,36.37714675]},"properties":{"Name":"栃木文化会館","Jusho":"栃木県栃木市旭町12-16","kouzui":"○","gake":"×","takashio":"×","jishin":"○","tsunami":"×","kaji":"×","naisui":"×","kazan":"×"}}
,{"type":"Feature","geometry":{"type":"Point","coordinates":[139.7414298,36.37613812]},"properties":{"Name":"栃木第四小学校","Jusho":"栃木県栃木市城内町1-3-15","kouzui":"○","gake":"×","takashio":"×","jishin":"○","tsunami":"×","kaji":"×","naisui":"×","kazan":"×"}}
,{"type":"Feature","geometry":{"type":"Point","coordinates":[139.7402013,36.373254]},"properties":{"Name":"こどもサポートセンター","Jusho":"栃木県栃木市城内町2-2-28","kouzui":"○","gake":"×","takashio":"×","jishin":"○","tsunami":"×","kaji":"×","naisui":"×","kazan":"×"}}
,{"type":"Feature","geometry":{"type":"Point","coordinates":[139.73918297718,36.376538670307]},"properties":{"Name":"栃木南中学校","Jusho":"栃木県栃木市本町5-5","kouzui":"○","gake":"×","takashio":"×","jishin":"○","tsunami":"×","kaji":"×","naisui":"×","kazan":"×"}}
,{"type":"Feature","geometry":{"type":"Point","coordinates":[139.739169,36.38323577]},"properties":{"Name":"栃木東中学校","Jusho":"栃木県栃木市日ノ出町1-11","kouzui":"○","gake":"×","takashio":"×","jishin":"○","tsunami":"×","kaji":"×","naisui":"×","kazan":"×"}}
,{"type":"Feature","geometry":{"type":"Point","coordinates":[139.7431529,36.38285005]},"properties":{"Name":"市民会館","Jusho":"栃木県栃木市日ノ出町14-36","kouzui":"○","gake":"×","takashio":"×","jishin":"×","tsunami":"×","kaji":"×","naisui":"×","kazan":"×"}}
,{"type":"Feature","geometry":{"type":"Point","coordinates":[139.7427331,36.38295909]},"properties":{"Name":"勤労者体育センター","Jusho":"栃木県栃木市日ノ出町14-36","kouzui":"○","gake":"×","takashio":"×","jishin":"○","tsunami":"×","kaji":"×","naisui":"×","kazan":"×"}}
,{"type":"Feature","geometry":{"type":"Point","coordinates":[139.73463871154,36.372749757537]},"properties":{"Name":"学悠館高校","Jusho":"栃木県栃木市沼和田町2-2","kouzui":"○","gake":"×","takashio":"×","jishin":"○","tsunami":"×","kaji":"×","naisui":"×","kazan":"×"}}
,{"type":"Feature","geometry":{"type":"Point","coordinates":[139.7390555538,36.364065409165]},"properties":{"Name":"南小学校","Jusho":"栃木県栃木市沼和田町38-10","kouzui":"○","gake":"×","takashio":"×","jishin":"○","tsunami":"×","kaji":"×","naisui":"×","kazan":"×"}}
,{"type":"Feature","geometry":{"type":"Point","coordinates":[139.7194578,36.37221736]},"properties":{"Name":"栃木西中学校","Jusho":"栃木県栃木市片柳町2-15-40","kouzui":"○","gake":"○","takashio":"×","jishin":"○","tsunami":"×","kaji":"×","naisui":"×","kazan":"×"}}
,{"type":"Feature","geometry":{"type":"Point","coordinates":[139.7170509,36.37433584]},"properties":{"Name":"栃木商業高校","Jusho":"栃木県栃木市片柳町5-1-30","kouzui":"○","gake":"○","takashio":"×","jishin":"○","tsunami":"×","kaji":"×","naisui":"×","kazan":"×"}}
,{"type":"Feature","geometry":{"type":"Point","coordinates":[139.7221461,36.37768556]},"properties":{"Name":"栃木女子高校","Jusho":"栃木県栃木市薗部町1-2-5","kouzui":"○","gake":"○","takashio":"×","jishin":"○","tsunami":"×","kaji":"×","naisui":"×","kazan":"×"}}
,{"type":"Feature","geometry":{"type":"Point","coordinates":[139.71274877334,36.374192535709]},"properties":{"Name":"栃木第五小学校","Jusho":"栃木県栃木市薗部町2-7-25","kouzui":"○","gake":"○","takashio":"×","jishin":"○","tsunami":"×","kaji":"×","naisui":"×","kazan":"×"}}
,{"type":"Feature","geometry":{"type":"Point","coordinates":[139.7177741,36.3764367]},"properties":{"Name":"とちぎ西部生きがいセンター（老人福祉センター長寿園、第６コミュニティセンター）","Jusho":"栃木県栃木市薗部町2-14-9","kouzui":"○","gake":"○","takashio":"×","jishin":"○","tsunami":"×","kaji":"×","naisui":"×","kazan":"×"}}
,{"type":"Feature","geometry":{"type":"Point","coordinates":[139.7305496,36.38390372]},"properties":{"Name":"栃木高校","Jusho":"栃木県栃木市入舟町12-4","kouzui":"○","gake":"×","takashio":"×","jishin":"○","tsunami":"×","kaji":"×","naisui":"×","kazan":"×"}}
,{"type":"Feature","geometry":{"type":"Point","coordinates":[139.7299739,36.38230571]},"properties":{"Name":"栃木中央小学校","Jusho":"栃木県栃木市入舟町13-3","kouzui":"○","gake":"×","takashio":"×","jishin":"○","tsunami":"×","kaji":"×","naisui":"×","kazan":"×"}}
,{"type":"Feature","geometry":{"type":"Point","coordinates":[139.7265133,36.39330531]},"properties":{"Name":"とちぎコミュニティプラザ(第５コミュニティセンター)","Jusho":"栃木県栃木市箱森町36-31","kouzui":"○","gake":"×","takashio":"×","jishin":"○","tsunami":"×","kaji":"×","naisui":"×","kazan":"×"}}
,{"type":"Feature","geometry":{"type":"Point","coordinates":[139.73074573842,36.390033626322]},"properties":{"Name":"栃木第三小学校","Jusho":"栃木県栃木市小平町13-39","kouzui":"○","gake":"×","takashio":"×","jishin":"○","tsunami":"×","kaji":"×","naisui":"×","kazan":"×"}}
,{"type":"Feature","geometry":{"type":"Point","coordinates":[139.7575275,36.38803712]},"properties":{"Name":"大宮公民館","Jusho":"栃木県栃木市大宮町422-1","kouzui":"○","gake":"×","takashio":"×","jishin":"○","tsunami":"×","kaji":"×","naisui":"×","kazan":"×"}}
,{"type":"Feature","geometry":{"type":"Point","coordinates":[139.76892851938,36.38906482939]},"properties":{"Name":"東陽中学校","Jusho":"栃木県栃木市大宮町1287","kouzui":"○","gake":"×","takashio":"×","jishin":"○","tsunami":"×","kaji":"×","naisui":"×","kazan":"×"}}
,{"type":"Feature","geometry":{"type":"Point","coordinates":[139.75424945796,36.389775694658]},"properties":{"Name":"大宮北小学校","Jusho":"栃木県栃木市大宮町1777-1","kouzui":"○","gake":"×","takashio":"×","jishin":"○","tsunami":"×","kaji":"×","naisui":"×","kazan":"×"}}
,{"type":"Feature","geometry":{"type":"Point","coordinates":[139.74901040747,36.384165504907]},"properties":{"Name":"老人福祉センター泉寿園","Jusho":"栃木県栃木市今泉町1-2-7","kouzui":"○","gake":"×","takashio":"×","jishin":"○","tsunami":"×","kaji":"×","naisui":"×","kazan":"×"}}
,{"type":"Feature","geometry":{"type":"Point","coordinates":[139.7494607,36.38425898]},"properties":{"Name":"勤労者総合福祉センター","Jusho":"栃木県栃木市今泉町1-2-7","kouzui":"○","gake":"×","takashio":"×","jishin":"○","tsunami":"×","kaji":"×","naisui":"×","kazan":"×"}}
,{"type":"Feature","geometry":{"type":"Point","coordinates":[139.7458938,36.380963441709]},"properties":{"Name":"栃木保健福祉センター","Jusho":"栃木県栃木市今泉町2-1-40","kouzui":"○","gake":"×","takashio":"×","jishin":"○","tsunami":"×","kaji":"×","naisui":"×","kazan":"×"}}
,{"type":"Feature","geometry":{"type":"Point","coordinates":[139.761008,36.371110089723]},"properties":{"Name":"大宮南小学校","Jusho":"栃木県栃木市藤田町135-2","kouzui":"○","gake":"×","takashio":"×","jishin":"○","tsunami":"×","kaji":"×","naisui":"×","kazan":"×"}}
,{"type":"Feature","geometry":{"type":"Point","coordinates":[139.6918676,36.39826441]},"properties":{"Name":"皆川城東小学校","Jusho":"栃木県栃木市皆川城内町486","kouzui":"○","gake":"○","takashio":"×","jishin":"○","tsunami":"×","kaji":"×","naisui":"×","kazan":"×"}}
,{"type":"Feature","geometry":{"type":"Point","coordinates":[139.6824215,36.39545575]},"properties":{"Name":"皆川公民館","Jusho":"栃木県栃木市皆川城内町699","kouzui":"○","gake":"○","takashio":"×","jishin":"○","tsunami":"×","kaji":"×","naisui":"×","kazan":"×"}}
,{"type":"Feature","geometry":{"type":"Point","coordinates":[139.6812532,36.39274315]},"properties":{"Name":"皆川中学校","Jusho":"栃木県栃木市皆川城内町1856","kouzui":"○","gake":"○","takashio":"×","jishin":"○","tsunami":"×","kaji":"×","naisui":"×","kazan":"×"}}
,{"type":"Feature","geometry":{"type":"Point","coordinates":[139.7071326,36.38443107]},"properties":{"Name":"栃木工業高校","Jusho":"栃木県栃木市岩出町129","kouzui":"×","gake":"○","takashio":"×","jishin":"○","tsunami":"×","kaji":"×","naisui":"×","kazan":"×"}}
,{"type":"Feature","geometry":{"type":"Point","coordinates":[139.7199763,36.41145134]},"properties":{"Name":"吹上小学校","Jusho":"栃木県栃木市吹上町115","kouzui":"○","gake":"○","takashio":"×","jishin":"○","tsunami":"×","kaji":"×","naisui":"×","kazan":"×"}}
,{"type":"Feature","geometry":{"type":"Point","coordinates":[139.7086647,36.41402683]},"properties":{"Name":"吹上中学校","Jusho":"栃木県栃木市吹上町434-1","kouzui":"○","gake":"○","takashio":"×","jishin":"○","tsunami":"×","kaji":"×","naisui":"×","kazan":"×"}}
,{"type":"Feature","geometry":{"type":"Point","coordinates":[139.7050327,36.41065233]},"properties":{"Name":"吹上公民館","Jusho":"栃木県栃木市吹上町782-1","kouzui":"○","gake":"○","takashio":"×","jishin":"○","tsunami":"×","kaji":"×","naisui":"×","kazan":"×"}}
,{"type":"Feature","geometry":{"type":"Point","coordinates":[139.725705,36.40015027]},"properties":{"Name":"栃木市総合体育館","Jusho":"栃木県栃木市川原田町760","kouzui":"○","gake":"×","takashio":"×","jishin":"○","tsunami":"×","kaji":"×","naisui":"×","kazan":"×"}}
,{"type":"Feature","geometry":{"type":"Point","coordinates":[139.7246568,36.40146254]},"properties":{"Name":"栃木市総合運動公園","Jusho":"栃木県栃木市川原田町760","kouzui":"×","gake":"×","takashio":"×","jishin":"○","tsunami":"×","kaji":"×","naisui":"×","kazan":"×"}}
,{"type":"Feature","geometry":{"type":"Point","coordinates":[139.6928416,36.41557204]},"properties":{"Name":"老人福祉センター福寿園","Jusho":"栃木県栃木市千塚町210","kouzui":"○","gake":"○","takashio":"×","jishin":"○","tsunami":"×","kaji":"×","naisui":"×","kazan":"×"}}
,{"type":"Feature","geometry":{"type":"Point","coordinates":[139.6965806,36.41378155]},"properties":{"Name":"千塚小学校","Jusho":"栃木県栃木市大森町196","kouzui":"○","gake":"○","takashio":"×","jishin":"○","tsunami":"×","kaji":"×","naisui":"×","kazan":"×"}}
,{"type":"Feature","geometry":{"type":"Point","coordinates":[139.6492771,36.44426304]},"properties":{"Name":"寺尾公民館","Jusho":"栃木県栃木市梅沢町1183","kouzui":"○","gake":"○","takashio":"×","jishin":"○","tsunami":"×","kaji":"×","naisui":"×","kazan":"×"}}
,{"type":"Feature","geometry":{"type":"Point","coordinates":[139.64625149252,36.446504712738]},"properties":{"Name":"寺尾中学校","Jusho":"栃木県栃木市鍋山町86-2","kouzui":"○","gake":"○","takashio":"×","jishin":"○","tsunami":"×","kaji":"×","naisui":"×","kazan":"×"}}
,{"type":"Feature","geometry":{"type":"Point","coordinates":[139.5951167,36.48083735]},"properties":{"Name":"出流ふれあいの森","Jusho":"栃木県栃木市出流町417","kouzui":"×","gake":"×","takashio":"×","jishin":"○","tsunami":"×","kaji":"×","naisui":"×","kazan":"×"}}
,{"type":"Feature","geometry":{"type":"Point","coordinates":[139.7779107,36.40169128]},"properties":{"Name":"国府公民館","Jusho":"栃木県栃木市惣社町228-1","kouzui":"○","gake":"×","takashio":"×","jishin":"○","tsunami":"×","kaji":"×","naisui":"×","kazan":"×"}}
,{"type":"Feature","geometry":{"type":"Point","coordinates":[139.7797102,36.38827728]},"properties":{"Name":"国府南小学校","Jusho":"栃木県栃木市寄居町949-3","kouzui":"○","gake":"×","takashio":"×","jishin":"○","tsunami":"×","kaji":"×","naisui":"×","kazan":"×"}}
,{"type":"Feature","geometry":{"type":"Point","coordinates":[139.7740571,36.40846725]},"properties":{"Name":"国府北小学校","Jusho":"栃木県栃木市大塚町1278","kouzui":"○","gake":"×","takashio":"×","jishin":"○","tsunami":"×","kaji":"×","naisui":"×","kazan":"×"}}
,{"type":"Feature","geometry":{"type":"Point","coordinates":[139.6966533,36.33966518]},"properties":{"Name":"大平西地区公民館","Jusho":"栃木県栃木市大平町富田1642-1","kouzui":"○","gake":"○","takashio":"×","jishin":"○","tsunami":"×","kaji":"×","naisui":"×","kazan":"×"}}
,{"type":"Feature","geometry":{"type":"Point","coordinates":[139.6948575,36.34252818]},"properties":{"Name":"大平西小学校","Jusho":"栃木県栃木市大平町富田1869","kouzui":"○","gake":"○","takashio":"×","jishin":"○","tsunami":"×","kaji":"×","naisui":"×","kazan":"×"}}
,{"type":"Feature","geometry":{"type":"Point","coordinates":[139.734505,36.34816786]},"properties":{"Name":"大平東地区公民館","Jusho":"栃木県栃木市大平町横堀810","kouzui":"○","gake":"×","takashio":"×","jishin":"○","tsunami":"×","kaji":"×","naisui":"×","kazan":"×"}}
,{"type":"Feature","geometry":{"type":"Point","coordinates":[139.7265072,36.36496872]},"properties":{"Name":"栃木翔南高校","Jusho":"栃木県栃木市大平町川連370","kouzui":"○","gake":"×","takashio":"×","jishin":"○","tsunami":"×","kaji":"×","naisui":"×","kazan":"×"}}
,{"type":"Feature","geometry":{"type":"Point","coordinates":[139.7138497,36.34229871]},"properties":{"Name":"大平運動公園","Jusho":"栃木県栃木市大平町蔵井1547","kouzui":"×","gake":"×","takashio":"×","jishin":"○","tsunami":"×","kaji":"×","naisui":"×","kazan":"×"}}
,{"type":"Feature","geometry":{"type":"Point","coordinates":[139.7121454,36.34468602]},"properties":{"Name":"大平公民館","Jusho":"栃木県栃木市大平町蔵井2001-3","kouzui":"○","gake":"○","takashio":"×","jishin":"×","tsunami":"×","kaji":"×","naisui":"×","kazan":"×"}}
,{"type":"Feature","geometry":{"type":"Point","coordinates":[139.7118894,36.3440819]},"properties":{"Name":"大平文化会館","Jusho":"栃木県栃木市大平町蔵井2001-3","kouzui":"○","gake":"○","takashio":"×","jishin":"○","tsunami":"×","kaji":"×","naisui":"×","kazan":"×"}}
,{"type":"Feature","geometry":{"type":"Point","coordinates":[139.7121943,36.34496627]},"properties":{"Name":"大平体育館","Jusho":"栃木県栃木市大平町蔵井2001-7","kouzui":"○","gake":"○","takashio":"×","jishin":"×","tsunami":"×","kaji":"×","naisui":"×","kazan":"×"}}
,{"type":"Feature","geometry":{"type":"Point","coordinates":[139.7154901,36.3450333]},"properties":{"Name":"大平中学校","Jusho":"栃木県栃木市大平町蔵井2026-1","kouzui":"○","gake":"○","takashio":"×","jishin":"○","tsunami":"×","kaji":"×","naisui":"×","kazan":"×"}}
,{"type":"Feature","geometry":{"type":"Point","coordinates":[139.7335825,36.347177349133]},"properties":{"Name":"大平東小学校","Jusho":"栃木県栃木市大平町上高島809","kouzui":"○","gake":"×","takashio":"×","jishin":"○","tsunami":"×","kaji":"×","naisui":"×","kazan":"×"}}
,{"type":"Feature","geometry":{"type":"Point","coordinates":[139.7049243,36.33009567]},"properties":{"Name":"大平隣保館","Jusho":"栃木県栃木市大平町新1305-3","kouzui":"○","gake":"×","takashio":"×","jishin":"○","tsunami":"×","kaji":"×","naisui":"×","kazan":"×"}}
,{"type":"Feature","geometry":{"type":"Point","coordinates":[139.7042784,36.33128517]},"properties":{"Name":"大平中央小学校","Jusho":"栃木県栃木市大平町新1354-2","kouzui":"○","gake":"×","takashio":"×","jishin":"○","tsunami":"×","kaji":"×","naisui":"×","kazan":"×"}}
,{"type":"Feature","geometry":{"type":"Point","coordinates":[139.7187087,36.33606387]},"properties":{"Name":"大平健康福祉センター（ゆうゆうプラザ）","Jusho":"栃木県栃木市大平町西野田666-1","kouzui":"○","gake":"×","takashio":"×","jishin":"○","tsunami":"×","kaji":"×","naisui":"×","kazan":"×"}}
,{"type":"Feature","geometry":{"type":"Point","coordinates":[139.7173521,36.32798498]},"properties":{"Name":"大平南中学校","Jusho":"栃木県栃木市大平町西野田825","kouzui":"○","gake":"×","takashio":"×","jishin":"○","tsunami":"×","kaji":"×","naisui":"×","kazan":"×"}}
,{"type":"Feature","geometry":{"type":"Point","coordinates":[139.7153951,36.32783132]},"properties":{"Name":"大平南体育館","Jusho":"栃木県栃木市大平町西野田905-1","kouzui":"○","gake":"×","takashio":"×","jishin":"○","tsunami":"×","kaji":"×","naisui":"×","kazan":"×"}}
,{"type":"Feature","geometry":{"type":"Point","coordinates":[139.7141615191,36.316471584269]},"properties":{"Name":"大平南小学校","Jusho":"栃木県栃木市大平町西水代1732","kouzui":"○","gake":"×","takashio":"×","jishin":"○","tsunami":"×","kaji":"×","naisui":"×","kazan":"×"}}
,{"type":"Feature","geometry":{"type":"Point","coordinates":[139.7175106,36.31735746]},"properties":{"Name":"大平南地区公民館","Jusho":"栃木県栃木市大平町西水代1787","kouzui":"○","gake":"×","takashio":"×","jishin":"○","tsunami":"×","kaji":"×","naisui":"×","kazan":"×"}}
,{"type":"Feature","geometry":{"type":"Point","coordinates":[139.7124999,36.29298774]},"properties":{"Name":"大平農村婦人の家","Jusho":"栃木県栃木市大平町伯仲1728-2","kouzui":"○","gake":"×","takashio":"×","jishin":"○","tsunami":"×","kaji":"×","naisui":"×","kazan":"×"}}
,{"type":"Feature","geometry":{"type":"Point","coordinates":[139.7119488,36.27335564]},"properties":{"Name":"部屋小学校","Jusho":"栃木県栃木市藤岡町部屋158","kouzui":"×","gake":"×","takashio":"×","jishin":"○","tsunami":"×","kaji":"×","naisui":"×","kazan":"×"}}
,{"type":"Feature","geometry":{"type":"Point","coordinates":[139.7125457,36.2743144]},"properties":{"Name":"部屋地区公民館","Jusho":"栃木県栃木市藤岡町部屋454-1","kouzui":"×","gake":"×","takashio":"×","jishin":"○","tsunami":"×","kaji":"×","naisui":"×","kazan":"×"}}
,{"type":"Feature","geometry":{"type":"Point","coordinates":[139.6966593922,36.283240172845]},"properties":{"Name":"藤岡第二中学校","Jusho":"栃木県栃木市藤岡町富吉1544","kouzui":"○","gake":"×","takashio":"×","jishin":"○","tsunami":"×","kaji":"×","naisui":"×","kazan":"×"}}
,{"type":"Feature","geometry":{"type":"Point","coordinates":[139.65265261267,36.270057086889]},"properties":{"Name":"藤岡第一中学校","Jusho":"栃木県栃木市藤岡町藤岡10","kouzui":"○","gake":"×","takashio":"×","jishin":"○","tsunami":"×","kaji":"×","naisui":"×","kazan":"×"}}
,{"type":"Feature","geometry":{"type":"Point","coordinates":[139.6515308,36.26637983]},"properties":{"Name":"藤岡公民館","Jusho":"栃木県栃木市藤岡町藤岡810","kouzui":"○","gake":"×","takashio":"×","jishin":"○","tsunami":"×","kaji":"×","naisui":"×","kazan":"×"}}
,{"type":"Feature","geometry":{"type":"Point","coordinates":[139.6509266,36.26660788]},"properties":{"Name":"藤岡文化会館","Jusho":"栃木県栃木市藤岡町藤岡810","kouzui":"○","gake":"×","takashio":"×","jishin":"○","tsunami":"×","kaji":"×","naisui":"×","kazan":"×"}}
,{"type":"Feature","geometry":{"type":"Point","coordinates":[139.6534998,36.25941235]},"properties":{"Name":"藤岡スポーツふれあいセンター","Jusho":"栃木県栃木市藤岡町藤岡1218-1","kouzui":"○","gake":"×","takashio":"×","jishin":"○","tsunami":"×","kaji":"×","naisui":"×","kazan":"×"}}
,{"type":"Feature","geometry":{"type":"Point","coordinates":[139.6514045,36.25559289]},"properties":{"Name":"藤岡小学校","Jusho":"栃木県栃木市藤岡町藤岡1500","kouzui":"○","gake":"×","takashio":"×","jishin":"○","tsunami":"×","kaji":"×","naisui":"×","kazan":"×"}}
,{"type":"Feature","geometry":{"type":"Point","coordinates":[139.6522328,36.24924161]},"properties":{"Name":"藤岡総合体育館","Jusho":"栃木県栃木市藤岡町藤岡1788","kouzui":"×","gake":"×","takashio":"×","jishin":"○","tsunami":"×","kaji":"×","naisui":"×","kazan":"×"}}
,{"type":"Feature","geometry":{"type":"Point","coordinates":[139.6524608,36.24852146]},"properties":{"Name":"藤岡遊水池会館","Jusho":"栃木県栃木市藤岡町藤岡1788","kouzui":"×","gake":"×","takashio":"×","jishin":"○","tsunami":"×","kaji":"×","naisui":"×","kazan":"×"}}
,{"type":"Feature","geometry":{"type":"Point","coordinates":[139.6690342,36.2637124]},"properties":{"Name":"渡良瀬の里","Jusho":"栃木県栃木市藤岡町赤麻502-1","kouzui":"○","gake":"×","takashio":"×","jishin":"○","tsunami":"×","kaji":"×","naisui":"×","kazan":"×"}}
,{"type":"Feature","geometry":{"type":"Point","coordinates":[139.6694743,36.26344835]},"properties":{"Name":"藤岡保健福祉センター","Jusho":"栃木県栃木市藤岡町赤麻502-1","kouzui":"○","gake":"×","takashio":"×","jishin":"○","tsunami":"×","kaji":"×","naisui":"×","kazan":"×"}}
,{"type":"Feature","geometry":{"type":"Point","coordinates":[139.66681737688,36.27039136684]},"properties":{"Name":"赤麻小学校","Jusho":"栃木県栃木市藤岡町赤麻1703","kouzui":"○","gake":"×","takashio":"×","jishin":"○","tsunami":"×","kaji":"×","naisui":"×","kazan":"×"}}
,{"type":"Feature","geometry":{"type":"Point","coordinates":[139.6669921,36.27139656]},"properties":{"Name":"赤麻地区公民館","Jusho":"栃木県栃木市藤岡町赤麻1737-1","kouzui":"○","gake":"×","takashio":"×","jishin":"○","tsunami":"×","kaji":"×","naisui":"×","kazan":"×"}}
,{"type":"Feature","geometry":{"type":"Point","coordinates":[139.633857,36.28687441]},"properties":{"Name":"三鴨小学校","Jusho":"栃木県栃木市藤岡町甲275-1","kouzui":"○","gake":"×","takashio":"×","jishin":"○","tsunami":"×","kaji":"×","naisui":"×","kazan":"×"}}
,{"type":"Feature","geometry":{"type":"Point","coordinates":[139.6355761,36.28470845]},"properties":{"Name":"三鴨地区公民館","Jusho":"栃木県栃木市藤岡町甲436-2","kouzui":"○","gake":"×","takashio":"×","jishin":"○","tsunami":"×","kaji":"×","naisui":"×","kazan":"×"}}
,{"type":"Feature","geometry":{"type":"Point","coordinates":[139.6253043,36.29670948]},"properties":{"Name":"道の駅みかも","Jusho":"栃木県栃木市藤岡町大田和678","kouzui":"○","gake":"×","takashio":"×","jishin":"○","tsunami":"×","kaji":"×","naisui":"×","kazan":"×"}}
,{"type":"Feature","geometry":{"type":"Point","coordinates":[139.6942617,36.25248741]},"properties":{"Name":"部屋南部桜づつみ公園","Jusho":"栃木県栃木市藤岡町部屋","kouzui":"○","gake":"×","takashio":"×","jishin":"○","tsunami":"×","kaji":"×","naisui":"×","kazan":"×"}}
,{"type":"Feature","geometry":{"type":"Point","coordinates":[139.7461946,36.40846662]},"properties":{"Name":"合戦場小学校","Jusho":"栃木県栃木市都賀町合戦場301","kouzui":"○","gake":"×","takashio":"×","jishin":"○","tsunami":"×","kaji":"×","naisui":"×","kazan":"×"}}
,{"type":"Feature","geometry":{"type":"Point","coordinates":[139.7480318,36.40980347]},"properties":{"Name":"あいあいプラザ","Jusho":"栃木県栃木市都賀町平川438","kouzui":"○","gake":"×","takashio":"×","jishin":"○","tsunami":"×","kaji":"×","naisui":"×","kazan":"×"}}
,{"type":"Feature","geometry":{"type":"Point","coordinates":[139.7528091,36.40962059]},"properties":{"Name":"都賀南部コミュニティセンター","Jusho":"栃木県栃木市都賀町平川481-5","kouzui":"○","gake":"×","takashio":"×","jishin":"○","tsunami":"×","kaji":"×","naisui":"×","kazan":"×"}}
,{"type":"Feature","geometry":{"type":"Point","coordinates":[139.7501019,36.4301168]},"properties":{"Name":"社会福祉協議会都賀支所","Jusho":"栃木県栃木市都賀町家中2357","kouzui":"○","gake":"×","takashio":"×","jishin":"×","tsunami":"×","kaji":"×","naisui":"×","kazan":"×"}}
,{"type":"Feature","geometry":{"type":"Point","coordinates":[139.7595726,36.42978046]},"properties":{"Name":"家中小学校","Jusho":"栃木県栃木市都賀町家中2740","kouzui":"○","gake":"×","takashio":"×","jishin":"○","tsunami":"×","kaji":"×","naisui":"×","kazan":"×"}}
,{"type":"Feature","geometry":{"type":"Point","coordinates":[139.7618126,36.44243001]},"properties":{"Name":"つがスポーツ公園運動場","Jusho":"栃木県栃木市都賀町家中4785-3","kouzui":"×","gake":"×","takashio":"×","jishin":"○","tsunami":"×","kaji":"×","naisui":"×","kazan":"×"}}
,{"type":"Feature","geometry":{"type":"Point","coordinates":[139.74309655752,36.431237039794]},"properties":{"Name":"都賀中学校","Jusho":"栃木県栃木市都賀町家中5818","kouzui":"○","gake":"×","takashio":"×","jishin":"○","tsunami":"×","kaji":"×","naisui":"×","kazan":"×"}}
,{"type":"Feature","geometry":{"type":"Point","coordinates":[139.7386539,36.42803054]},"properties":{"Name":"都賀体育センター","Jusho":"栃木県栃木市都賀町原宿511","kouzui":"○","gake":"○","takashio":"×","jishin":"×","tsunami":"×","kaji":"×","naisui":"×","kazan":"×"}}
,{"type":"Feature","geometry":{"type":"Point","coordinates":[139.7394435,36.42877791]},"properties":{"Name":"都賀公民館","Jusho":"栃木県栃木市都賀町原宿521","kouzui":"○","gake":"○","takashio":"×","jishin":"×","tsunami":"×","kaji":"×","naisui":"×","kazan":"×"}}
,{"type":"Feature","geometry":{"type":"Point","coordinates":[139.7386914,36.42894994]},"properties":{"Name":"都賀市民運動場","Jusho":"栃木県栃木市都賀町原宿521","kouzui":"○","gake":"○","takashio":"×","jishin":"○","tsunami":"×","kaji":"×","naisui":"×","kazan":"×"}}
,{"type":"Feature","geometry":{"type":"Point","coordinates":[139.7401912,36.43145579]},"properties":{"Name":"都賀文化会館（ハートホール）","Jusho":"栃木県栃木市都賀町原宿573","kouzui":"○","gake":"○","takashio":"×","jishin":"○","tsunami":"×","kaji":"×","naisui":"×","kazan":"×"}}
,{"type":"Feature","geometry":{"type":"Point","coordinates":[139.7242303,36.42884208]},"properties":{"Name":"木コミュニティセンター","Jusho":"栃木県栃木市都賀町木813","kouzui":"○","gake":"○","takashio":"×","jishin":"○","tsunami":"×","kaji":"×","naisui":"×","kazan":"×"}}
,{"type":"Feature","geometry":{"type":"Point","coordinates":[139.713983,36.43337064]},"properties":{"Name":"つがの里ふるさとセンター","Jusho":"栃木県栃木市都賀町臼久保325","kouzui":"○","gake":"○","takashio":"×","jishin":"○","tsunami":"×","kaji":"×","naisui":"×","kazan":"×"}}
,{"type":"Feature","geometry":{"type":"Point","coordinates":[139.7216312,36.44154608]},"properties":{"Name":"赤津小学校","Jusho":"栃木県栃木市都賀町富張147","kouzui":"○","gake":"○","takashio":"×","jishin":"○","tsunami":"×","kaji":"×","naisui":"×","kazan":"×"}}
,{"type":"Feature","geometry":{"type":"Point","coordinates":[139.6927553,36.45573076]},"properties":{"Name":"大柿コミュニティセンター","Jusho":"栃木県栃木市都賀町大柿1122","kouzui":"○","gake":"○","takashio":"×","jishin":"○","tsunami":"×","kaji":"×","naisui":"×","kazan":"×"}}
,{"type":"Feature","geometry":{"type":"Point","coordinates":[139.7447018,36.46664241]},"properties":{"Name":"西方公民館","Jusho":"栃木県栃木市西方町本城1","kouzui":"○","gake":"○","takashio":"×","jishin":"×","tsunami":"×","kaji":"×","naisui":"×","kazan":"×"}}
,{"type":"Feature","geometry":{"type":"Point","coordinates":[139.7444258,36.46594627]},"properties":{"Name":"西方保健センター","Jusho":"栃木県栃木市西方町本城1","kouzui":"○","gake":"○","takashio":"×","jishin":"○","tsunami":"×","kaji":"×","naisui":"×","kazan":"×"}}
,{"type":"Feature","geometry":{"type":"Point","coordinates":[139.7356859,36.46149344]},"properties":{"Name":"西方農村婦人の家","Jusho":"栃木県栃木市西方町元585","kouzui":"○","gake":"○","takashio":"×","jishin":"○","tsunami":"×","kaji":"×","naisui":"×","kazan":"×"}}
,{"type":"Feature","geometry":{"type":"Point","coordinates":[139.7349047,36.46530572]},"properties":{"Name":"西方小学校","Jusho":"栃木県栃木市西方町元770","kouzui":"○","gake":"○","takashio":"×","jishin":"○","tsunami":"×","kaji":"×","naisui":"×","kazan":"×"}}
,{"type":"Feature","geometry":{"type":"Point","coordinates":[139.7333173,36.46101306]},"properties":{"Name":"西方中学校","Jusho":"栃木県栃木市西方町元908-1","kouzui":"○","gake":"○","takashio":"×","jishin":"○","tsunami":"×","kaji":"×","naisui":"×","kazan":"×"}}
,{"type":"Feature","geometry":{"type":"Point","coordinates":[139.7311559,36.46569515]},"properties":{"Name":"西方ふれあいプラザ","Jusho":"栃木県栃木市西方町元1600-1","kouzui":"○","gake":"○","takashio":"×","jishin":"○","tsunami":"×","kaji":"×","naisui":"×","kazan":"×"}}
,{"type":"Feature","geometry":{"type":"Point","coordinates":[139.7424673,36.46679961]},"properties":{"Name":"道の駅にしかた駐車場","Jusho":"栃木県栃木市西方町元369-1","kouzui":"○","gake":"○","takashio":"×","jishin":"○","tsunami":"×","kaji":"×","naisui":"×","kazan":"×"}}
,{"type":"Feature","geometry":{"type":"Point","coordinates":[139.7448779,36.45151834]},"properties":{"Name":"西方南部地区コミュニティセンター","Jusho":"栃木県栃木市西方町金井1370","kouzui":"○","gake":"○","takashio":"×","jishin":"×","tsunami":"×","kaji":"×","naisui":"×","kazan":"×"}}
,{"type":"Feature","geometry":{"type":"Point","coordinates":[139.7397464,36.45463838]},"properties":{"Name":"西方総合文化体育館","Jusho":"栃木県栃木市西方町本郷1705-1","kouzui":"○","gake":"○","takashio":"×","jishin":"○","tsunami":"×","kaji":"×","naisui":"×","kazan":"×"}}
,{"type":"Feature","geometry":{"type":"Point","coordinates":[139.7012377,36.47242372]},"properties":{"Name":"真名子夢ホール","Jusho":"栃木県栃木市西方町真名子1086-1","kouzui":"○","gake":"○","takashio":"×","jishin":"○","tsunami":"×","kaji":"×","naisui":"×","kazan":"×"}}
,{"type":"Feature","geometry":{"type":"Point","coordinates":[139.70015483452,36.472509796565]},"properties":{"Name":"真名子小学校","Jusho":"栃木県栃木市西方町真名子1089-1","kouzui":"○","gake":"○","takashio":"×","jishin":"○","tsunami":"×","kaji":"×","naisui":"×","kazan":"×"}}
,{"type":"Feature","geometry":{"type":"Point","coordinates":[139.6638246,36.32290571]},"properties":{"Name":"岩舟中学校","Jusho":"栃木県栃木市岩舟町静389-1","kouzui":"○","gake":"○","takashio":"×","jishin":"○","tsunami":"×","kaji":"×","naisui":"×","kazan":"×"}}
,{"type":"Feature","geometry":{"type":"Point","coordinates":[139.6555459,36.31462096]},"properties":{"Name":"岩舟小学校","Jusho":"栃木県栃木市岩舟町静1400","kouzui":"○","gake":"○","takashio":"×","jishin":"○","tsunami":"×","kaji":"×","naisui":"×","kazan":"×"}}
,{"type":"Feature","geometry":{"type":"Point","coordinates":[139.66462,36.31706592]},"properties":{"Name":"岩舟公民館","Jusho":"栃木県栃木市岩舟町静2292-1","kouzui":"○","gake":"○","takashio":"×","jishin":"○","tsunami":"×","kaji":"×","naisui":"×","kazan":"×"}}
,{"type":"Feature","geometry":{"type":"Point","coordinates":[139.6651681,36.31676186]},"properties":{"Name":"岩舟体育館","Jusho":"栃木県栃木市岩舟町静2292-1","kouzui":"○","gake":"○","takashio":"×","jishin":"×","tsunami":"×","kaji":"×","naisui":"×","kazan":"×"}}
,{"type":"Feature","geometry":{"type":"Point","coordinates":[139.6637119,36.31658583]},"properties":{"Name":"岩舟総合運動場","Jusho":"栃木県栃木市岩舟町静2292-1","kouzui":"○","gake":"○","takashio":"×","jishin":"○","tsunami":"×","kaji":"×","naisui":"×","kazan":"×"}}
,{"type":"Feature","geometry":{"type":"Point","coordinates":[139.6654462,36.31636221]},"properties":{"Name":"岩舟文化会館（コスモスホール）","Jusho":"栃木県栃木市岩舟町静2303","kouzui":"○","gake":"○","takashio":"×","jishin":"○","tsunami":"×","kaji":"×","naisui":"×","kazan":"×"}}
,{"type":"Feature","geometry":{"type":"Point","coordinates":[139.6426632,36.31476303]},"properties":{"Name":"岩舟下津原集会所","Jusho":"栃木県栃木市岩舟町下津原620-1","kouzui":"○","gake":"○","takashio":"×","jishin":"×","tsunami":"×","kaji":"×","naisui":"×","kazan":"×"}}
,{"type":"Feature","geometry":{"type":"Point","coordinates":[139.6344356,36.30968407]},"properties":{"Name":"岩舟農村環境改善センター","Jusho":"栃木県栃木市岩舟町下津原1572-1","kouzui":"○","gake":"○","takashio":"×","jishin":"○","tsunami":"×","kaji":"×","naisui":"×","kazan":"×"}}
,{"type":"Feature","geometry":{"type":"Point","coordinates":[139.6847912,36.31542061]},"properties":{"Name":"静和地区公民館","Jusho":"栃木県栃木市岩舟町静和2170-1","kouzui":"○","gake":"×","takashio":"×","jishin":"○","tsunami":"×","kaji":"×","naisui":"×","kazan":"×"}}
,{"type":"Feature","geometry":{"type":"Point","coordinates":[139.6815408,36.31672999]},"properties":{"Name":"岩舟町ふるさとセンター","Jusho":"栃木県栃木市岩舟町静和2379-2","kouzui":"○","gake":"×","takashio":"×","jishin":"○","tsunami":"×","kaji":"×","naisui":"×","kazan":"×"}}
,{"type":"Feature","geometry":{"type":"Point","coordinates":[139.68022695377,36.316271656967]},"properties":{"Name":"静和小学校","Jusho":"栃木県栃木市岩舟町静和2432","kouzui":"○","gake":"×","takashio":"×","jishin":"○","tsunami":"×","kaji":"×","naisui":"×","kazan":"×"}}
,{"type":"Feature","geometry":{"type":"Point","coordinates":[139.6475552,36.33921832]},"properties":{"Name":"岩舟健康福祉センター（遊楽々館）","Jusho":"栃木県栃木市岩舟町三谷1038-1","kouzui":"○","gake":"○","takashio":"×","jishin":"○","tsunami":"×","kaji":"×","naisui":"×","kazan":"×"}}
,{"type":"Feature","geometry":{"type":"Point","coordinates":[139.6452947,36.337606]},"properties":{"Name":"岩舟総合運動公園","Jusho":"栃木県栃木市岩舟町三谷1038-1","kouzui":"○","gake":"○","takashio":"×","jishin":"○","tsunami":"×","kaji":"×","naisui":"×","kazan":"×"}}
,{"type":"Feature","geometry":{"type":"Point","coordinates":[139.6204291,36.34463201]},"properties":{"Name":"岩舟西根南集会所","Jusho":"栃木県栃木市岩舟町小野寺828-3","kouzui":"○","gake":"○","takashio":"×","jishin":"×","tsunami":"×","kaji":"×","naisui":"×","kazan":"×"}}
,{"type":"Feature","geometry":{"type":"Point","coordinates":[139.62492309626,36.361746083462]},"properties":{"Name":"小野寺地区公民館","Jusho":"栃木県栃木市岩舟町小野寺2071-1","kouzui":"○","gake":"○","takashio":"×","jishin":"○","tsunami":"×","kaji":"×","naisui":"×","kazan":"×"}}
,{"type":"Feature","geometry":{"type":"Point","coordinates":[139.6385973,36.33248053]},"properties":{"Name":"小野寺ふれあい館","Jusho":"栃木県栃木市岩舟町新里606","kouzui":"○","gake":"○","takashio":"×","jishin":"○","tsunami":"×","kaji":"×","naisui":"×","kazan":"×"}}
,{"type":"Feature","geometry":{"type":"Point","coordinates":[139.5805567,36.31058698]},"properties":{"Name":"佐野小学校","Jusho":"栃木県佐野市金屋下町10","kouzui":"○","gake":"×","takashio":"×","jishin":"○","tsunami":"×","kaji":"○","naisui":"○","kazan":"×"}}
,{"type":"Feature","geometry":{"type":"Point","coordinates":[139.5765681,36.30962753]},"properties":{"Name":"天明小学校","Jusho":"栃木県佐野市大祝町2311","kouzui":"○","gake":"○","takashio":"×","jishin":"○","tsunami":"×","kaji":"○","naisui":"○","kazan":"×"}}
,{"type":"Feature","geometry":{"type":"Point","coordinates":[139.5614227,36.31501539]},"properties":{"Name":"西中学校","Jusho":"栃木県佐野市大橋町2026","kouzui":"○","gake":"○","takashio":"×","jishin":"○","tsunami":"×","kaji":"○","naisui":"○","kazan":"×"}}
,{"type":"Feature","geometry":{"type":"Point","coordinates":[139.5721506,36.31187494]},"properties":{"Name":"佐野地区公民館","Jusho":"栃木県佐野市金井上町2519","kouzui":"○","gake":"○","takashio":"×","jishin":"○","tsunami":"×","kaji":"○","naisui":"○","kazan":"×"}}
,{"type":"Feature","geometry":{"type":"Point","coordinates":[139.5790915,36.31648613]},"properties":{"Name":"佐野駅前交流プラザ（ぱるぽーと）","Jusho":"栃木県佐野市若松町481-4","kouzui":"○","gake":"○","takashio":"×","jishin":"○","tsunami":"×","kaji":"○","naisui":"○","kazan":"×"}}
,{"type":"Feature","geometry":{"type":"Point","coordinates":[139.577355,36.30062561]},"properties":{"Name":"植野小学校","Jusho":"栃木県佐野市植上町1272","kouzui":"○","gake":"○","takashio":"×","jishin":"○","tsunami":"×","kaji":"○","naisui":"○","kazan":"×"}}
,{"type":"Feature","geometry":{"type":"Point","coordinates":[139.583053,36.30002308]},"properties":{"Name":"南中学校","Jusho":"栃木県佐野市植下町1205","kouzui":"○","gake":"○","takashio":"×","jishin":"○","tsunami":"×","kaji":"○","naisui":"○","kazan":"×"}}
,{"type":"Feature","geometry":{"type":"Point","coordinates":[139.5664046,36.27080742]},"properties":{"Name":"旧船津川小学校","Jusho":"栃木県佐野市船津川町6001","kouzui":"○","gake":"○","takashio":"×","jishin":"○","tsunami":"×","kaji":"○","naisui":"○","kazan":"×"}}
,{"type":"Feature","geometry":{"type":"Point","coordinates":[139.5761531,36.3015792]},"properties":{"Name":"植野地区公民館","Jusho":"栃木県佐野市寺中町2297-1","kouzui":"○","gake":"○","takashio":"×","jishin":"○","tsunami":"×","kaji":"○","naisui":"○","kazan":"×"}}
,{"type":"Feature","geometry":{"type":"Point","coordinates":[139.5983755,36.2855659]},"properties":{"Name":"界小学校","Jusho":"栃木県佐野市馬門町1539","kouzui":"○","gake":"○","takashio":"×","jishin":"○","tsunami":"×","kaji":"○","naisui":"○","kazan":"×"}}
,{"type":"Feature","geometry":{"type":"Point","coordinates":[139.6011339,36.28533342]},"properties":{"Name":"界地区公民館","Jusho":"栃木県佐野市馬門町1510-1","kouzui":"○","gake":"○","takashio":"×","jishin":"○","tsunami":"×","kaji":"○","naisui":"○","kazan":"×"}}
,{"type":"Feature","geometry":{"type":"Point","coordinates":[139.5990827,36.32369158]},"properties":{"Name":"犬伏小学校","Jusho":"栃木県佐野市犬伏下町1983","kouzui":"○","gake":"○","takashio":"×","jishin":"○","tsunami":"×","kaji":"○","naisui":"○","kazan":"×"}}
,{"type":"Feature","geometry":{"type":"Point","coordinates":[139.6110585,36.31826555]},"properties":{"Name":"犬伏東小学校","Jusho":"栃木県佐野市伊勢山町1534","kouzui":"○","gake":"○","takashio":"×","jishin":"○","tsunami":"×","kaji":"○","naisui":"○","kazan":"×"}}
,{"type":"Feature","geometry":{"type":"Point","coordinates":[139.59065462712,36.321345603332]},"properties":{"Name":"北中学校","Jusho":"栃木県佐野市富岡町93","kouzui":"○","gake":"○","takashio":"×","jishin":"○","tsunami":"×","kaji":"○","naisui":"○","kazan":"×"}}
,{"type":"Feature","geometry":{"type":"Point","coordinates":[139.6019147,36.32234022]},"properties":{"Name":"犬伏地区公民館","Jusho":"栃木県佐野市犬伏下町1798","kouzui":"○","gake":"○","takashio":"×","jishin":"○","tsunami":"×","kaji":"○","naisui":"○","kazan":"×"}}
,{"type":"Feature","geometry":{"type":"Point","coordinates":[139.5796644,36.32382923]},"properties":{"Name":"城北小学校","Jusho":"栃木県佐野市堀米町1156","kouzui":"○","gake":"○","takashio":"×","jishin":"○","tsunami":"×","kaji":"○","naisui":"○","kazan":"×"}}
,{"type":"Feature","geometry":{"type":"Point","coordinates":[139.5799658,36.32494406]},"properties":{"Name":"城北地区公民館","Jusho":"栃木県佐野市堀米町1173","kouzui":"○","gake":"○","takashio":"×","jishin":"○","tsunami":"×","kaji":"○","naisui":"○","kazan":"×"}}
,{"type":"Feature","geometry":{"type":"Point","coordinates":[139.5823756,36.32114708]},"properties":{"Name":"佐野武道館","Jusho":"栃木県佐野市堀米町167-1","kouzui":"×","gake":"○","takashio":"×","jishin":"○","tsunami":"×","kaji":"○","naisui":"○","kazan":"×"}}
,{"type":"Feature","geometry":{"type":"Point","coordinates":[139.5494418,36.3240786]},"properties":{"Name":"旗川小学校","Jusho":"栃木県佐野市並木町964","kouzui":"○","gake":"○","takashio":"×","jishin":"○","tsunami":"×","kaji":"○","naisui":"○","kazan":"×"}}
,{"type":"Feature","geometry":{"type":"Point","coordinates":[139.5506657,36.32501607]},"properties":{"Name":"旗川地区公民館","Jusho":"栃木県佐野市並木町957-1","kouzui":"○","gake":"○","takashio":"×","jishin":"○","tsunami":"×","kaji":"○","naisui":"○","kazan":"×"}}
,{"type":"Feature","geometry":{"type":"Point","coordinates":[139.5408689,36.29606543]},"properties":{"Name":"吾妻小学校","Jusho":"栃木県佐野市上羽田町1369-1","kouzui":"○","gake":"○","takashio":"×","jishin":"○","tsunami":"×","kaji":"○","naisui":"○","kazan":"×"}}
,{"type":"Feature","geometry":{"type":"Point","coordinates":[139.541564450657,36.2954426393741]},"properties":{"Name":"教育センター","Jusho":"栃木県佐野市上羽田町1134-1","kouzui":"○","gake":"○","takashio":"×","jishin":"○","tsunami":"×","kaji":"○","naisui":"○","kazan":"×"}}
,{"type":"Feature","geometry":{"type":"Point","coordinates":[139.5402792,36.29579475]},"properties":{"Name":"吾妻地区公民館","Jusho":"栃木県佐野市村上町9","kouzui":"○","gake":"○","takashio":"×","jishin":"○","tsunami":"×","kaji":"○","naisui":"○","kazan":"×"}}
,{"type":"Feature","geometry":{"type":"Point","coordinates":[139.5395196,36.35289032]},"properties":{"Name":"赤見小学校","Jusho":"栃木県佐野市赤見町3229","kouzui":"○","gake":"○","takashio":"×","jishin":"○","tsunami":"×","kaji":"○","naisui":"○","kazan":"×"}}
,{"type":"Feature","geometry":{"type":"Point","coordinates":[139.5618002,36.35536388]},"properties":{"Name":"石塚小学校","Jusho":"栃木県佐野市石塚町1408-2","kouzui":"○","gake":"○","takashio":"×","jishin":"○","tsunami":"×","kaji":"○","naisui":"○","kazan":"×"}}
,{"type":"Feature","geometry":{"type":"Point","coordinates":[139.5412112,36.3644007]},"properties":{"Name":"出流原小学校","Jusho":"栃木県佐野市出流原町1038-1","kouzui":"○","gake":"○","takashio":"×","jishin":"○","tsunami":"×","kaji":"○","naisui":"○","kazan":"×"}}
,{"type":"Feature","geometry":{"type":"Point","coordinates":[139.5503501,36.36092764]},"properties":{"Name":"赤見中学校","Jusho":"栃木県佐野市出流原町628-1","kouzui":"○","gake":"○","takashio":"×","jishin":"○","tsunami":"×","kaji":"○","naisui":"○","kazan":"×"}}
,{"type":"Feature","geometry":{"type":"Point","coordinates":[139.5391253,36.35196945]},"properties":{"Name":"赤見地区公民館","Jusho":"栃木県佐野市赤見町3082","kouzui":"○","gake":"○","takashio":"×","jishin":"○","tsunami":"×","kaji":"○","naisui":"○","kazan":"×"}}
,{"type":"Feature","geometry":{"type":"Point","coordinates":[139.5759407,36.36628102]},"properties":{"Name":"田沼小学校","Jusho":"栃木県佐野市田沼町603","kouzui":"○","gake":"○","takashio":"×","jishin":"○","tsunami":"×","kaji":"○","naisui":"○","kazan":"×"}}
,{"type":"Feature","geometry":{"type":"Point","coordinates":[139.5792065,36.36366624]},"properties":{"Name":"田沼東中学校","Jusho":"栃木県佐野市栃本町2287","kouzui":"○","gake":"○","takashio":"×","jishin":"○","tsunami":"×","kaji":"○","naisui":"○","kazan":"×"}}
,{"type":"Feature","geometry":{"type":"Point","coordinates":[139.5689705,36.37463344]},"properties":{"Name":"田沼中央公民館","Jusho":"栃木県佐野市戸奈良町1-1","kouzui":"○","gake":"○","takashio":"×","jishin":"○","tsunami":"×","kaji":"○","naisui":"○","kazan":"×"}}
,{"type":"Feature","geometry":{"type":"Point","coordinates":[139.5767467,36.36275389]},