var url={"type":"FeatureCollection","name":"aomori","features":[
{"type":"Feature","geometry":{"type":"Point","coordinates":[140.7475,40.82222222]},"properties":{"Name":"青森市","Jusho":"https://www.city.aomori.aomori.jp/"}}
,{"type":"Feature","geometry":{"type":"Point","coordinates":[140.4641667,40.60305556]},"properties":{"Name":"弘前市","Jusho":"http://www.city.hirosaki.aomori.jp/"}}
,{"type":"Feature","geometry":{"type":"Point","coordinates":[141.4883333,40.51222222]},"properties":{"Name":"八戸市","Jusho":"https://www.city.hachinohe.aomori.jp/"}}
,{"type":"Feature","geometry":{"type":"Point","coordinates":[140.5944444,40.64277778]},"properties":{"Name":"黒石市","Jusho":"http://www.city.kuroishi.aomori.jp/"}}
,{"type":"Feature","geometry":{"type":"Point","coordinates":[140.44,40.80805556]},"properties":{"Name":"五所川原市","Jusho":"http://www.city.goshogawara.lg.jp/"}}
,{"type":"Feature","geometry":{"type":"Point","coordinates":[141.2058333,40.61277778]},"properties":{"Name":"十和田市","Jusho":"http://www.city.towada.lg.jp/"}}
,{"type":"Feature","geometry":{"type":"Point","coordinates":[141.3688889,40.68333333]},"properties":{"Name":"三沢市","Jusho":"https://www.city.misawa.lg.jp/"}}
,{"type":"Feature","geometry":{"type":"Point","coordinates":[141.1830556,41.29305556]},"properties":{"Name":"むつ市","Jusho":"https://www.city.mutsu.lg.jp/"}}
,{"type":"Feature","geometry":{"type":"Point","coordinates":[140.38,40.80888889]},"properties":{"Name":"つがる市","Jusho":"https://www.city.tsugaru.aomori.jp/"}}
,{"type":"Feature","geometry":{"type":"Point","coordinates":[140.5663889,40.58416667]},"properties":{"Name":"平川市","Jusho":"https://www.city.hirakawa.lg.jp/"}}
,{"type":"Feature","geometry":{"type":"Point","coordinates":[140.9561111,40.92611111]},"properties":{"Name":"平内町","Jusho":"https://www.town.hiranai.aomori.jp/"}}
,{"type":"Feature","geometry":{"type":"Point","coordinates":[140.4816667,41.18194444]},"properties":{"Name":"今別町","Jusho":"https://www.town.imabetsu.lg.jp/"}}
,{"type":"Feature","geometry":{"type":"Point","coordinates":[140.6558333,40.97194444]},"properties":{"Name":"蓬田村","Jusho":"http://www.vill.yomogita.lg.jp/"}}
,{"type":"Feature","geometry":{"type":"Point","coordinates":[140.6325,41.04333333]},"properties":{"Name":"外ヶ浜町","Jusho":"http://www.town.sotogahama.lg.jp/"}}
,{"type":"Feature","geometry":{"type":"Point","coordinates":[140.2088889,40.78]},"properties":{"Name":"鰺ヶ沢町","Jusho":"http://www.town.ajigasawa.lg.jp/"}}
,{"type":"Feature","geometry":{"type":"Point","coordinates":[139.9277778,40.64805556]},"properties":{"Name":"深浦町","Jusho":"https://www.town.fukaura.lg.jp/"}}
,{"type":"Feature","geometry":{"type":"Point","coordinates":[140.2963889,40.57694444]},"properties":{"Name":"西目屋村","Jusho":"https://www.nishimeya.jp/"}}
,{"type":"Feature","geometry":{"type":"Point","coordinates":[140.5025,40.65611111]},"properties":{"Name":"藤崎町","Jusho":"http://www.town.fujisaki.lg.jp/"}}
,{"type":"Feature","geometry":{"type":"Point","coordinates":[140.5677778,40.51833333]},"properties":{"Name":"大鰐町","Jusho":"http://www.town.owani.lg.jp/"}}
,{"type":"Feature","geometry":{"type":"Point","coordinates":[140.55,40.63166667]},"properties":{"Name":"田舎館村","Jusho":"http://www.vill.inakadate.lg.jp/"}}
,{"type":"Feature","geometry":{"type":"Point","coordinates":[140.4575,40.69611111]},"properties":{"Name":"板柳町","Jusho":"https://www.town.itayanagi.aomori.jp/"}}
,{"type":"Feature","geometry":{"type":"Point","coordinates":[140.4286111,40.75888889]},"properties":{"Name":"鶴田町","Jusho":"http://www.town.tsuruta.lg.jp/"}}
,{"type":"Feature","geometry":{"type":"Point","coordinates":[140.4397222,40.96527778]},"properties":{"Name":"中泊町","Jusho":"http://www.town.nakadomari.lg.jp/index.cfm"}}
,{"type":"Feature","geometry":{"type":"Point","coordinates":[141.1286111,40.86444444]},"properties":{"Name":"野辺地町","Jusho":"http://www.town.noheji.aomori.jp/"}}
,{"type":"Feature","geometry":{"type":"Point","coordinates":[141.1577778,40.74472222]},"properties":{"Name":"七戸町","Jusho":"http://www.town.shichinohe.lg.jp/"}}
,{"type":"Feature","geometry":{"type":"Point","coordinates":[141.3247222,40.60972222]},"properties":{"Name":"六戸町","Jusho":"http://www.town.rokunohe.aomori.jp/"}}
,{"type":"Feature","geometry":{"type":"Point","coordinates":[141.2475,41.08333333]},"properties":{"Name":"横浜町","Jusho":"http://www.town.yokohama.lg.jp/"}}
,{"type":"Feature","geometry":{"type":"Point","coordinates":[141.2577778,40.72805556]},"properties":{"Name":"東北町","Jusho":"http://www.town.tohoku.lg.jp/"}}
,{"type":"Feature","geometry":{"type":"Point","coordinates":[141.3744444,40.9675]},"properties":{"Name":"六ヶ所村","Jusho":"http://www.rokkasho.jp/"}}
,{"type":"Feature","geometry":{"type":"Point","coordinates":[141.3977778,40.59916667]},"properties":{"Name":"おいらせ町","Jusho":"https://www.town.oirase.aomori.jp/"}}
,{"type":"Feature","geometry":{"type":"Point","coordinates":[140.9072222,41.52666667]},"properties":{"Name":"大間町","Jusho":"https://www.town.ooma.lg.jp/"}}
,{"type":"Feature","geometry":{"type":"Point","coordinates":[141.3294444,41.27805556]},"properties":{"Name":"東通村","Jusho":"http://www.vill.higashidoori.lg.jp/"}}
,{"type":"Feature","geometry":{"type":"Point","coordinates":[140.9955556,41.4875]},"properties":{"Name":"風間浦村","Jusho":"https://www.kazamaura.jp/"}}
,{"type":"Feature","geometry":{"type":"Point","coordinates":[140.8591667,41.42972222]},"properties":{"Name":"佐井村","Jusho":"http://www.vill.sai.lg.jp/"}}
,{"type":"Feature","geometry":{"type":"Point","coordinates":[141.2586111,40.37833333]},"properties":{"Name":"三戸町","Jusho":"https://www.town.sannohe.aomori.jp/"}}
,{"type":"Feature","geometry":{"type":"Point","coordinates":[141.3077778,40.53111111]},"properties":{"Name":"五戸町","Jusho":"http://www.town.gonohe.aomori.jp/"}}
,{"type":"Feature","geometry":{"type":"Point","coordinates":[141.1519444,40.34]},"properties":{"Name":"田子町","Jusho":"http://www.town.takko.lg.jp/"}}
,{"type":"Feature","geometry":{"type":"Point","coordinates":[141.3816667,40.46694444]},"properties":{"Name":"南部町","Jusho":"https://www.town.aomori-nanbu.lg.jp/"}}
,{"type":"Feature","geometry":{"type":"Point","coordinates":[141.6211111,40.4525]},"properties":{"Name":"階上町","Jusho":"https://www.town.hashikami.lg.jp/"}}
,{"type":"Feature","geometry":{"type":"Point","coordinates":[141.1733333,40.46583333]},"properties":{"Name":"新郷村","Jusho":"http://www.vill.shingo.aomori.jp/"}}
]};