var url={"type":"FeatureCollection","name":"fukushima","features":[
{"type":"Feature","geometry":{"type":"Point","coordinates":[140.4747222,37.76083333]},"properties":{"Name":"福島市","Jusho":"https://www.city.fukushima.fukushima.jp/"}}
,{"type":"Feature","geometry":{"type":"Point","coordinates":[139.9297222,37.49472222]},"properties":{"Name":"会津若松市","Jusho":"https://www.city.aizuwakamatsu.fukushima.jp/"}}
,{"type":"Feature","geometry":{"type":"Point","coordinates":[140.3597222,37.40055556]},"properties":{"Name":"郡山市","Jusho":"https://www.city.koriyama.lg.jp/"}}
,{"type":"Feature","geometry":{"type":"Point","coordinates":[140.8877778,37.05055556]},"properties":{"Name":"いわき市","Jusho":"http://www.city.iwaki.lg.jp/www/index.html"}}
,{"type":"Feature","geometry":{"type":"Point","coordinates":[140.2108333,37.12638889]},"properties":{"Name":"白河市","Jusho":"http://www.city.shirakawa.fukushima.jp/"}}
,{"type":"Feature","geometry":{"type":"Point","coordinates":[140.3727778,37.28666667]},"properties":{"Name":"須賀川市","Jusho":"https://www.city.sukagawa.fukushima.jp/"}}
,{"type":"Feature","geometry":{"type":"Point","coordinates":[139.8744444,37.65111111]},"properties":{"Name":"喜多方市","Jusho":"https://www.city.kitakata.fukushima.jp/"}}
,{"type":"Feature","geometry":{"type":"Point","coordinates":[140.9197222,37.79666667]},"properties":{"Name":"相馬市","Jusho":"https://www.city.soma.fukushima.jp/"}}
,{"type":"Feature","geometry":{"type":"Point","coordinates":[140.4313889,37.58472222]},"properties":{"Name":"二本松市","Jusho":"https://www.city.nihonmatsu.lg.jp/"}}
,{"type":"Feature","geometry":{"type":"Point","coordinates":[140.5691667,37.44138889]},"properties":{"Name":"田村市","Jusho":"http://www.city.tamura.lg.jp/"}}
,{"type":"Feature","geometry":{"type":"Point","coordinates":[140.9572222,37.64222222]},"properties":{"Name":"南相馬市","Jusho":"https://www.city.minamisoma.lg.jp/"}}
,{"type":"Feature","geometry":{"type":"Point","coordinates":[140.5630556,37.81888889]},"properties":{"Name":"伊達市","Jusho":"https://www.city.fukushima-date.lg.jp/"}}
,{"type":"Feature","geometry":{"type":"Point","coordinates":[140.3938889,37.51333333]},"properties":{"Name":"本宮市","Jusho":"https://www.city.motomiya.lg.jp/"}}
,{"type":"Feature","geometry":{"type":"Point","coordinates":[140.5163889,37.84944444]},"properties":{"Name":"桑折町","Jusho":"https://www.town.koori.fukushima.jp/"}}
,{"type":"Feature","geometry":{"type":"Point","coordinates":[140.5494444,37.87694444]},"properties":{"Name":"国見町","Jusho":"https://www.town.kunimi.fukushima.jp/"}}
,{"type":"Feature","geometry":{"type":"Point","coordinates":[140.5983333,37.665]},"properties":{"Name":"川俣町","Jusho":"https://www.town.kawamata.lg.jp/"}}
,{"type":"Feature","geometry":{"type":"Point","coordinates":[140.3711111,37.53444444]},"properties":{"Name":"大玉村","Jusho":"https://www.vill.otama.fukushima.jp/"}}
,{"type":"Feature","geometry":{"type":"Point","coordinates":[140.3436111,37.25277778]},"properties":{"Name":"鏡石町","Jusho":"https://www.town.kagamiishi.fukushima.jp/"}}
,{"type":"Feature","geometry":{"type":"Point","coordinates":[140.2472222,37.25527778]},"properties":{"Name":"天栄村","Jusho":"https://www.vill.tenei.fukushima.jp/"}}
,{"type":"Feature","geometry":{"type":"Point","coordinates":[139.8722222,37.25555556]},"properties":{"Name":"下郷町","Jusho":"https://www.town.shimogo.fukushima.jp/"}}
,{"type":"Feature","geometry":{"type":"Point","coordinates":[139.3888889,37.02416667]},"properties":{"Name":"檜枝岐村","Jusho":"https://www.vill.hinoemata.lg.jp/"}}
,{"type":"Feature","geometry":{"type":"Point","coordinates":[139.3158333,37.34861111]},"properties":{"Name":"只見町","Jusho":"https://www.town.tadami.lg.jp/"}}
,{"type":"Feature","geometry":{"type":"Point","coordinates":[139.7733333,37.20027778]},"properties":{"Name":"南会津町","Jusho":"http://www.minamiaizu.org/"}}
,{"type":"Feature","geometry":{"type":"Point","coordinates":[139.9377778,37.65583333]},"properties":{"Name":"北塩原村","Jusho":"http://www.vill.kitashiobara.fukushima.jp/"}}
,{"type":"Feature","geometry":{"type":"Point","coordinates":[139.6475,37.58888889]},"properties":{"Name":"西会津町","Jusho":"https://www.town.nishiaizu.fukushima.jp/"}}
,{"type":"Feature","geometry":{"type":"Point","coordinates":[139.9883333,37.56194444]},"properties":{"Name":"磐梯町","Jusho":"https://www.town.bandai.fukushima.jp/"}}
,{"type":"Feature","geometry":{"type":"Point","coordinates":[140.1047222,37.55777778]},"properties":{"Name":"猪苗代町","Jusho":"https://www.town.inawashiro.fukushima.jp/"}}
,{"type":"Feature","geometry":{"type":"Point","coordinates":[139.8216667,37.56138889]},"properties":{"Name":"会津坂下町","Jusho":"https://www.town.aizubange.fukushima.jp/"}}
,{"type":"Feature","geometry":{"type":"Point","coordinates":[139.8866667,37.56583333]},"properties":{"Name":"湯川村","Jusho":"http://www.vill.yugawa.fukushima.jp/"}}
,{"type":"Feature","geometry":{"type":"Point","coordinates":[139.7194444,37.52611111]},"properties":{"Name":"柳津町","Jusho":"http://www.town.yanaizu.fukushima.jp/"}}
,{"type":"Feature","geometry":{"type":"Point","coordinates":[139.6444444,37.47027778]},"properties":{"Name":"三島町","Jusho":"http://www.town.mishima.fukushima.jp/"}}
,{"type":"Feature","geometry":{"type":"Point","coordinates":[139.5247222,37.45388889]},"properties":{"Name":"金山町","Jusho":"https://www.town.kaneyama.fukushima.jp/"}}
,{"type":"Feature","geometry":{"type":"Point","coordinates":[139.6105556,37.33583333]},"properties":{"Name":"昭和村","Jusho":"http://www.vill.showa.fukushima.jp/"}}
,{"type":"Feature","geometry":{"type":"Point","coordinates":[139.8411111,37.46]},"properties":{"Name":"会津美里町","Jusho":"https://www.town.aizumisato.fukushima.jp/"}}
,{"type":"Feature","geometry":{"type":"Point","coordinates":[140.1552778,37.14194444]},"properties":{"Name":"西郷村","Jusho":"https://www.vill.nishigo.fukushima.jp/"}}
,{"type":"Feature","geometry":{"type":"Point","coordinates":[140.2952778,37.15694444]},"properties":{"Name":"泉崎村","Jusho":"https://www.vill.izumizaki.fukushima.jp/"}}
,{"type":"Feature","geometry":{"type":"Point","coordinates":[140.3502778,37.14861111]},"properties":{"Name":"中島村","Jusho":"http://www.vill-nakajima.jp/"}}
,{"type":"Feature","geometry":{"type":"Point","coordinates":[140.3386111,37.20111111]},"properties":{"Name":"矢吹町","Jusho":"http://www.town.yabuki.fukushima.jp/"}}
,{"type":"Feature","geometry":{"type":"Point","coordinates":[140.3797222,37.02972222]},"properties":{"Name":"棚倉町","Jusho":"http://www.town.tanagura.fukushima.jp/"}}
,{"type":"Feature","geometry":{"type":"Point","coordinates":[140.4247222,36.87138889]},"properties":{"Name":"矢祭町","Jusho":"http://www.town.yamatsuri.fukushima.jp/"}}
,{"type":"Feature","geometry":{"type":"Point","coordinates":[140.4097222,36.95722222]},"properties":{"Name":"塙町","Jusho":"http://www.town.hanawa.fukushima.jp/"}}
,{"type":"Feature","geometry":{"type":"Point","coordinates":[140.5097222,37.0425]},"properties":{"Name":"鮫川村","Jusho":"https://www.vill.samegawa.fukushima.jp/"}}
,{"type":"Feature","geometry":{"type":"Point","coordinates":[140.4522222,37.14416667]},"properties":{"Name":"石川町","Jusho":"http://www.town.ishikawa.fukushima.jp/"}}
,{"type":"Feature","geometry":{"type":"Point","coordinates":[140.4088889,37.21083333]},"properties":{"Name":"玉川村","Jusho":"https://www.vill.tamakawa.fukushima.jp/"}}
,{"type":"Feature","geometry":{"type":"Point","coordinates":[140.5702778,37.21805556]},"properties":{"Name":"平田村","Jusho":"https://www.vill.hirata.fukushima.jp/"}}
,{"type":"Feature","geometry":{"type":"Point","coordinates":[140.4127778,37.08083333]},"properties":{"Name":"浅川町","Jusho":"http://www.town.asakawa.fukushima.jp/"}}
,{"type":"Feature","geometry":{"type":"Point","coordinates":[140.5558333,37.08916667]},"properties":{"Name":"古殿町","Jusho":"https://www.town.furudono.fukushima.jp/"}}
,{"type":"Feature","geometry":{"type":"Point","coordinates":[140.4927778,37.44111111]},"properties":{"Name":"三春町","Jusho":"http://www.town.miharu.fukushima.jp/"}}
,{"type":"Feature","geometry":{"type":"Point","coordinates":[140.6263889,37.28694444]},"properties":{"Name":"小野町","Jusho":"http://www.town.ono.fukushima.jp/"}}
,{"type":"Feature","geometry":{"type":"Point","coordinates":[140.9947222,37.21444444]},"properties":{"Name":"広野町","Jusho":"https://www.town.hirono.fukushima.jp/"}}
,{"type":"Feature","geometry":{"type":"Point","coordinates":[140.9936111,37.2825]},"properties":{"Name":"楢葉町","Jusho":"https://www.town.naraha.lg.jp/"}}
,{"type":"Feature","geometry":{"type":"Point","coordinates":[141.0086111,37.34555556]},"properties":{"Name":"富岡町","Jusho":"https://www.tomioka-town.jp/"}}
,{"type":"Feature","geometry":{"type":"Point","coordinates":[140.8094444,37.3375]},"properties":{"Name":"川内村","Jusho":"http://www.kawauchimura.jp/"}}
,{"type":"Feature","geometry":{"type":"Point","coordinates":[140.9836111,37.40444444]},"properties":{"Name":"大熊町","Jusho":"https://www.town.okuma.fukushima.jp/"}}
,{"type":"Feature","geometry":{"type":"Point","coordinates":[141.0125,37.44916667]},"properties":{"Name":"双葉町","Jusho":"https://www.town.fukushima-futaba.lg.jp/"}}
,{"type":"Feature","geometry":{"type":"Point","coordinates":[141.0008333,37.49472222]},"properties":{"Name":"浪江町","Jusho":"https://www.town.namie.fukushima.jp/"}}
,{"type":"Feature","geometry":{"type":"Point","coordinates":[140.7644444,37.50361111]},"properties":{"Name":"葛尾村","Jusho":"https://www.katsurao.org/"}}
,{"type":"Feature","geometry":{"type":"Point","coordinates":[140.9194444,37.87611111]},"properties":{"Name":"新地町","Jusho":"https://www.shinchi-town.jp/"}}
,{"type":"Feature","geometry":{"type":"Point","coordinates":[140.7355556,37.67916667]},"properties":{"Name":"飯舘村","Jusho":"https://www.vill.iitate.fukushima.jp/"}}
]};