var url={"type":"FeatureCollection","name":"gunma","features":[
{"type":"Feature","geometry":{"type":"Point","coordinates":[139.0636111,36.38916667]},"properties":{"Name":"前橋市","Jusho":"https://www.city.maebashi.gunma.jp/"}}
,{"type":"Feature","geometry":{"type":"Point","coordinates":[139.0036111,36.32194444]},"properties":{"Name":"高崎市","Jusho":"https://www.city.takasaki.gunma.jp/"}}
,{"type":"Feature","geometry":{"type":"Point","coordinates":[139.3305556,36.40527778]},"properties":{"Name":"桐生市","Jusho":"http://www.city.kiryu.lg.jp/"}}
,{"type":"Feature","geometry":{"type":"Point","coordinates":[139.1966667,36.31138889]},"properties":{"Name":"伊勢崎市","Jusho":"https://www.city.isesaki.lg.jp/"}}
,{"type":"Feature","geometry":{"type":"Point","coordinates":[139.3758333,36.29166667]},"properties":{"Name":"太田市","Jusho":"https://www.city.ota.gunma.jp/"}}
,{"type":"Feature","geometry":{"type":"Point","coordinates":[139.0441667,36.64583333]},"properties":{"Name":"沼田市","Jusho":"http://www.city.numata.gunma.jp/"}}
,{"type":"Feature","geometry":{"type":"Point","coordinates":[139.5422222,36.245]},"properties":{"Name":"館林市","Jusho":"https://www.city.tatebayashi.gunma.jp/"}}
,{"type":"Feature","geometry":{"type":"Point","coordinates":[139.0005556,36.48944444]},"properties":{"Name":"渋川市","Jusho":"http://www.city.shibukawa.lg.jp/"}}
,{"type":"Feature","geometry":{"type":"Point","coordinates":[139.0747222,36.25861111]},"properties":{"Name":"藤岡市","Jusho":"https://www.city.fujioka.gunma.jp/"}}
,{"type":"Feature","geometry":{"type":"Point","coordinates":[138.89,36.26]},"properties":{"Name":"富岡市","Jusho":"https://www.city.tomioka.lg.jp/www/toppage/0000000000000/APM03000.html"}}
,{"type":"Feature","geometry":{"type":"Point","coordinates":[138.8872222,36.32638889]},"properties":{"Name":"安中市","Jusho":"https://www.city.annaka.lg.jp/"}}
,{"type":"Feature","geometry":{"type":"Point","coordinates":[139.2811111,36.39472222]},"properties":{"Name":"みどり市","Jusho":"https://www.city.midori.gunma.jp/www/index.html"}}
,{"type":"Feature","geometry":{"type":"Point","coordinates":[138.9813889,36.44027778]},"properties":{"Name":"榛東村","Jusho":"http://www.vill.shinto.gunma.jp/"}}
,{"type":"Feature","geometry":{"type":"Point","coordinates":[139.0102778,36.4475]},"properties":{"Name":"吉岡町","Jusho":"https://www.town.yoshioka.gunma.jp/"}}
,{"type":"Feature","geometry":{"type":"Point","coordinates":[138.7772222,36.08333333]},"properties":{"Name":"上野村","Jusho":"http://www.uenomura.jp/"}}
,{"type":"Feature","geometry":{"type":"Point","coordinates":[138.9169444,36.11611111]},"properties":{"Name":"神流町","Jusho":"http://www.town.kanna.gunma.jp/"}}
,{"type":"Feature","geometry":{"type":"Point","coordinates":[138.7891667,36.2125]},"properties":{"Name":"下仁田町","Jusho":"https://www.town.shimonita.lg.jp/"}}
,{"type":"Feature","geometry":{"type":"Point","coordinates":[138.7113889,36.15861111]},"properties":{"Name":"南牧村","Jusho":"http://www.nanmoku.ne.jp/"}}
,{"type":"Feature","geometry":{"type":"Point","coordinates":[138.9219444,36.24305556]},"properties":{"Name":"甘楽町","Jusho":"http://www.town.kanra.gunma.jp/"}}
,{"type":"Feature","geometry":{"type":"Point","coordinates":[138.8411111,36.59]},"properties":{"Name":"中之条町","Jusho":"https://www.town.nakanojo.gunma.jp/"}}
,{"type":"Feature","geometry":{"type":"Point","coordinates":[138.6375,36.55222222]},"properties":{"Name":"長野原町","Jusho":"https://www.town.naganohara.gunma.jp/www/index.html"}}
,{"type":"Feature","geometry":{"type":"Point","coordinates":[138.5302778,36.51666667]},"properties":{"Name":"嬬恋村","Jusho":"https://www.vill.tsumagoi.gunma.jp/"}}
,{"type":"Feature","geometry":{"type":"Point","coordinates":[138.5961111,36.62055556]},"properties":{"Name":"草津町","Jusho":"https://www.town.kusatsu.gunma.jp/"}}
,{"type":"Feature","geometry":{"type":"Point","coordinates":[138.9436111,36.62083333]},"properties":{"Name":"高山村","Jusho":"https://vill.takayama.gunma.jp/"}}
,{"type":"Feature","geometry":{"type":"Point","coordinates":[138.8255556,36.57138889]},"properties":{"Name":"東吾妻町","Jusho":"http://www1.town.higashiagatsuma.gunma.jp/"}}
,{"type":"Feature","geometry":{"type":"Point","coordinates":[139.2252778,36.7725]},"properties":{"Name":"片品村","Jusho":"https://www.vill.katashina.gunma.jp/"}}
,{"type":"Feature","geometry":{"type":"Point","coordinates":[139.1066667,36.69472222]},"properties":{"Name":"川場村","Jusho":"http://www.vill.kawaba.gunma.jp/"}}
,{"type":"Feature","geometry":{"type":"Point","coordinates":[139.0658333,36.63972222]},"properties":{"Name":"昭和村","Jusho":"https://www.vill.showa.gunma.jp/"}}
,{"type":"Feature","geometry":{"type":"Point","coordinates":[138.9991667,36.67888889]},"properties":{"Name":"みなかみ町","Jusho":"https://www.town.minakami.gunma.jp/"}}
,{"type":"Feature","geometry":{"type":"Point","coordinates":[139.115,36.30444444]},"properties":{"Name":"玉村町","Jusho":"https://www.town.tamamura.lg.jp/"}}
,{"type":"Feature","geometry":{"type":"Point","coordinates":[139.6102778,36.22305556]},"properties":{"Name":"板倉町","Jusho":"https://www.town.itakura.gunma.jp/"}}
,{"type":"Feature","geometry":{"type":"Point","coordinates":[139.5341667,36.21138889]},"properties":{"Name":"明和町","Jusho":"https://www.town.meiwa.gunma.jp/"}}
,{"type":"Feature","geometry":{"type":"Point","coordinates":[139.4425,36.21777778]},"properties":{"Name":"千代田町","Jusho":"https://www.town.chiyoda.gunma.jp/"}}
,{"type":"Feature","geometry":{"type":"Point","coordinates":[139.405,36.24777778]},"properties":{"Name":"大泉町","Jusho":"https://www.town.oizumi.gunma.jp/"}}
,{"type":"Feature","geometry":{"type":"Point","coordinates":[139.4625,36.2525]},"properties":{"Name":"邑楽町","Jusho":"https://www.town.ora.gunma.jp/"}}
]};