var url={"type":"FeatureCollection","name":"ibaraki","features":[
{"type":"Feature","geometry":{"type":"Point","coordinates":[140.4713889,36.36583333]},"properties":{"Name":"水戸市","Jusho":"https://www.city.mito.lg.jp/"}}
,{"type":"Feature","geometry":{"type":"Point","coordinates":[140.6516667,36.59916667]},"properties":{"Name":"日立市","Jusho":"https://www.city.hitachi.lg.jp/"}}
,{"type":"Feature","geometry":{"type":"Point","coordinates":[140.1961111,36.07194444]},"properties":{"Name":"土浦市","Jusho":"https://www.city.tsuchiura.lg.jp/index.html"}}
,{"type":"Feature","geometry":{"type":"Point","coordinates":[139.7558333,36.17888889]},"properties":{"Name":"古河市","Jusho":"https://www.city.ibaraki-koga.lg.jp/"}}
,{"type":"Feature","geometry":{"type":"Point","coordinates":[140.2872222,36.19083333]},"properties":{"Name":"石岡市","Jusho":"https://www.city.ishioka.lg.jp/"}}
,{"type":"Feature","geometry":{"type":"Point","coordinates":[139.8775,36.30527778]},"properties":{"Name":"結城市","Jusho":"https://www.city.yuki.lg.jp/"}}
,{"type":"Feature","geometry":{"type":"Point","coordinates":[140.1822222,35.91166667]},"properties":{"Name":"龍ケ崎市","Jusho":"https://www.city.ryugasaki.ibaraki.jp/"}}
,{"type":"Feature","geometry":{"type":"Point","coordinates":[139.9675,36.18444444]},"properties":{"Name":"下妻市","Jusho":"https://www.city.shimotsuma.lg.jp/"}}
,{"type":"Feature","geometry":{"type":"Point","coordinates":[139.9938889,36.02361111]},"properties":{"Name":"常総市","Jusho":"http://www.city.joso.lg.jp/"}}
,{"type":"Feature","geometry":{"type":"Point","coordinates":[140.5311111,36.53833333]},"properties":{"Name":"常陸太田市","Jusho":"http://www.city.hitachiota.ibaraki.jp/"}}
,{"type":"Feature","geometry":{"type":"Point","coordinates":[140.7097222,36.71361111]},"properties":{"Name":"高萩市","Jusho":"http://www.city.takahagi.ibaraki.jp/index.html"}}
,{"type":"Feature","geometry":{"type":"Point","coordinates":[140.7511111,36.80194444]},"properties":{"Name":"北茨城市","Jusho":"http://www.city.kitaibaraki.lg.jp/"}}
,{"type":"Feature","geometry":{"type":"Point","coordinates":[140.3041667,36.345]},"properties":{"Name":"笠間市","Jusho":"https://www.city.kasama.lg.jp/index.html"}}
,{"type":"Feature","geometry":{"type":"Point","coordinates":[140.0502778,35.91138889]},"properties":{"Name":"取手市","Jusho":"https://www.city.toride.ibaraki.jp/"}}
,{"type":"Feature","geometry":{"type":"Point","coordinates":[140.1497222,35.97944444]},"properties":{"Name":"牛久市","Jusho":"http://www.city.ushiku.lg.jp/"}}
,{"type":"Feature","geometry":{"type":"Point","coordinates":[140.0763889,36.08361111]},"properties":{"Name":"つくば市","Jusho":"https://www.city.tsukuba.lg.jp/"}}
,{"type":"Feature","geometry":{"type":"Point","coordinates":[140.5344444,36.39638889]},"properties":{"Name":"ひたちなか市","Jusho":"https://www.city.hitachinaka.lg.jp/"}}
,{"type":"Feature","geometry":{"type":"Point","coordinates":[140.645,35.96583333]},"properties":{"Name":"鹿嶋市","Jusho":"https://www.city.kashima.ibaraki.jp/"}}
,{"type":"Feature","geometry":{"type":"Point","coordinates":[140.5552778,35.94722222]},"properties":{"Name":"潮来市","Jusho":"https://www.city.itako.lg.jp/"}}
,{"type":"Feature","geometry":{"type":"Point","coordinates":[139.9755556,35.95138889]},"properties":{"Name":"守谷市","Jusho":"https://www.city.moriya.ibaraki.jp/"}}
,{"type":"Feature","geometry":{"type":"Point","coordinates":[140.4108333,36.5425]},"properties":{"Name":"常陸大宮市","Jusho":"http://www.city.hitachiomiya.lg.jp/"}}
,{"type":"Feature","geometry":{"type":"Point","coordinates":[140.4866667,36.4575]},"properties":{"Name":"那珂市","Jusho":"https://www.city.naka.lg.jp/"}}
,{"type":"Feature","geometry":{"type":"Point","coordinates":[139.9830556,36.30722222]},"properties":{"Name":"筑西市","Jusho":"https://www.city.chikusei.lg.jp/index.html"}}
,{"type":"Feature","geometry":{"type":"Point","coordinates":[139.8888889,36.04833333]},"properties":{"Name":"坂東市","Jusho":"http://www.city.bando.lg.jp/"}}
,{"type":"Feature","geometry":{"type":"Point","coordinates":[140.3238889,35.95666667]},"properties":{"Name":"稲敷市","Jusho":"https://www.city.inashiki.lg.jp/index.html"}}
,{"type":"Feature","geometry":{"type":"Point","coordinates":[140.2372222,36.15194444]},"properties":{"Name":"かすみがうら市","Jusho":"https://www.city.kasumigaura.lg.jp/"}}
,{"type":"Feature","geometry":{"type":"Point","coordinates":[140.0905556,36.32722222]},"properties":{"Name":"桜川市","Jusho":"http://www.city.sakuragawa.lg.jp/index.html"}}
,{"type":"Feature","geometry":{"type":"Point","coordinates":[140.6647222,35.89]},"properties":{"Name":"神栖市","Jusho":"https://www.city.kamisu.ibaraki.jp/"}}
,{"type":"Feature","geometry":{"type":"Point","coordinates":[140.4891667,35.99027778]},"properties":{"Name":"行方市","Jusho":"https://www.city.namegata.ibaraki.jp/"}}
,{"type":"Feature","geometry":{"type":"Point","coordinates":[140.5163889,36.15861111]},"properties":{"Name":"鉾田市","Jusho":"https://www.city.hokota.lg.jp/"}}
,{"type":"Feature","geometry":{"type":"Point","coordinates":[140.0372222,35.96305556]},"properties":{"Name":"つくばみらい市","Jusho":"https://www.city.tsukubamirai.lg.jp/"}}
,{"type":"Feature","geometry":{"type":"Point","coordinates":[140.3525,36.23944444]},"properties":{"Name":"小美玉市","Jusho":"https://www.city.omitama.lg.jp/"}}
,{"type":"Feature","geometry":{"type":"Point","coordinates":[140.4247222,36.28694444]},"properties":{"Name":"茨城町","Jusho":"http://www.town.ibaraki.lg.jp/"}}
,{"type":"Feature","geometry":{"type":"Point","coordinates":[140.575,36.31333333]},"properties":{"Name":"大洗町","Jusho":"http://www.town.oarai.lg.jp/"}}
,{"type":"Feature","geometry":{"type":"Point","coordinates":[140.3763889,36.47916667]},"properties":{"Name":"城里町","Jusho":"http://www.town.shirosato.lg.jp/"}}
,{"type":"Feature","geometry":{"type":"Point","coordinates":[140.5661111,36.47305556]},"properties":{"Name":"東海村","Jusho":"https://www.vill.tokai.ibaraki.jp/"}}
,{"type":"Feature","geometry":{"type":"Point","coordinates":[140.3552778,36.76805556]},"properties":{"Name":"大子町","Jusho":"http://www.town.daigo.ibaraki.jp/"}}
,{"type":"Feature","geometry":{"type":"Point","coordinates":[140.3019444,36.00444444]},"properties":{"Name":"美浦村","Jusho":"https://www.vill.miho.lg.jp/"}}
,{"type":"Feature","geometry":{"type":"Point","coordinates":[140.215,36.03083333]},"properties":{"Name":"阿見町","Jusho":"https://www.town.ami.lg.jp/"}}
,{"type":"Feature","geometry":{"type":"Point","coordinates":[140.2444444,35.88472222]},"properties":{"Name":"河内町","Jusho":"http://www.town.ibaraki-kawachi.lg.jp/"}}
,{"type":"Feature","geometry":{"type":"Point","coordinates":[139.8913889,36.18138889]},"properties":{"Name":"八千代町","Jusho":"http://www.town.ibaraki-yachiyo.lg.jp/"}}
,{"type":"Feature","geometry":{"type":"Point","coordinates":[139.7452778,36.11444444]},"properties":{"Name":"五霞町","Jusho":"https://www.town.goka.lg.jp/"}}
,{"type":"Feature","geometry":{"type":"Point","coordinates":[139.795,36.10861111]},"properties":{"Name":"境町","Jusho":"http://www.town.sakai.ibaraki.jp/"}}
,{"type":"Feature","geometry":{"type":"Point","coordinates":[140.1394444,35.85777778]},"properties":{"Name":"利根町","Jusho":"http://www.town.tone.ibaraki.jp/"}}
]};