var url={"type":"FeatureCollection","name":"kagoshima","features":[
{"type":"Feature","geometry":{"type":"Point","coordinates":[130.5572222,31.59694444]},"properties":{"Name":"鹿児島市","Jusho":"https://www.city.kagoshima.lg.jp/"}}
,{"type":"Feature","geometry":{"type":"Point","coordinates":[130.8522222,31.37833333]},"properties":{"Name":"鹿屋市","Jusho":"https://www.city.kanoya.lg.jp/index.html"}}
,{"type":"Feature","geometry":{"type":"Point","coordinates":[130.2969444,31.27277778]},"properties":{"Name":"枕崎市","Jusho":"https://www.city.makurazaki.lg.jp/"}}
,{"type":"Feature","geometry":{"type":"Point","coordinates":[130.1927778,32.01444444]},"properties":{"Name":"阿久根市","Jusho":"http://www.city.akune.kagoshima.jp/"}}
,{"type":"Feature","geometry":{"type":"Point","coordinates":[130.3527778,32.09055556]},"properties":{"Name":"出水市","Jusho":"https://www.city.kagoshima-izumi.lg.jp/"}}
,{"type":"Feature","geometry":{"type":"Point","coordinates":[130.6330556,31.25277778]},"properties":{"Name":"指宿市","Jusho":"https://www.city.ibusuki.lg.jp/"}}
,{"type":"Feature","geometry":{"type":"Point","coordinates":[130.9975,30.7325]},"properties":{"Name":"西之表市","Jusho":"http://www.city.nishinoomote.lg.jp"}}
,{"type":"Feature","geometry":{"type":"Point","coordinates":[130.7011111,31.49277778]},"properties":{"Name":"垂水市","Jusho":"https://www.city.tarumizu.lg.jp/"}}
,{"type":"Feature","geometry":{"type":"Point","coordinates":[130.3041667,31.81333333]},"properties":{"Name":"薩摩川内市","Jusho":"https://www.city.satsumasendai.lg.jp/www/index.html"}}
,{"type":"Feature","geometry":{"type":"Point","coordinates":[130.4022222,31.63361111]},"properties":{"Name":"日置市","Jusho":"https://www.city.hioki.kagoshima.jp/"}}
,{"type":"Feature","geometry":{"type":"Point","coordinates":[131.0191667,31.65361111]},"properties":{"Name":"曽於市","Jusho":"https://www.city.soo.kagoshima.jp/"}}
,{"type":"Feature","geometry":{"type":"Point","coordinates":[130.7630556,31.74111111]},"properties":{"Name":"霧島市","Jusho":"https://www.city-kirishima.jp/"}}
,{"type":"Feature","geometry":{"type":"Point","coordinates":[130.2719444,31.71472222]},"properties":{"Name":"いちき串木野市","Jusho":"https://www.city.ichikikushikino.lg.jp/"}}
,{"type":"Feature","geometry":{"type":"Point","coordinates":[130.3233333,31.41666667]},"properties":{"Name":"南さつま市","Jusho":"http://www.city.minamisatsuma.lg.jp/"}}
,{"type":"Feature","geometry":{"type":"Point","coordinates":[131.0455556,31.49527778]},"properties":{"Name":"志布志市","Jusho":"http://www.city.shibushi.lg.jp/"}}
,{"type":"Feature","geometry":{"type":"Point","coordinates":[129.4938889,28.37722222]},"properties":{"Name":"奄美市","Jusho":"https://www.city.amami.lg.jp/"}}
,{"type":"Feature","geometry":{"type":"Point","coordinates":[130.4416667,31.37833333]},"properties":{"Name":"南九州市","Jusho":"https://www.city.minamikyushu.lg.jp/"}}
,{"type":"Feature","geometry":{"type":"Point","coordinates":[130.6130556,32.05722222]},"properties":{"Name":"伊佐市","Jusho":"https://www.city.isa.kagoshima.jp/"}}
,{"type":"Feature","geometry":{"type":"Point","coordinates":[130.6277778,31.72833333]},"properties":{"Name":"姶良市","Jusho":"https://www.city.aira.lg.jp/"}}
,{"type":"Feature","geometry":{"type":"Point","coordinates":[130.5608333,31.59444444]},"properties":{"Name":"三島村","Jusho":"http://mishimamura.com/"}}
,{"type":"Feature","geometry":{"type":"Point","coordinates":[130.5605556,31.59305556]},"properties":{"Name":"十島村","Jusho":"http://www.tokara.jp/"}}
,{"type":"Feature","geometry":{"type":"Point","coordinates":[130.4552778,31.90638889]},"properties":{"Name":"さつま町","Jusho":"https://www.satsuma-net.jp/"}}
,{"type":"Feature","geometry":{"type":"Point","coordinates":[130.1769444,32.19916667]},"properties":{"Name":"長島町","Jusho":"https://www.town.nagashima.lg.jp/"}}
,{"type":"Feature","geometry":{"type":"Point","coordinates":[130.7211111,31.95166667]},"properties":{"Name":"湧水町","Jusho":"https://www.town.yusui.kagoshima.jp/"}}
,{"type":"Feature","geometry":{"type":"Point","coordinates":[131.0058333,31.42916667]},"properties":{"Name":"大崎町","Jusho":"https://www.town.kagoshima-osaki.lg.jp/"}}
,{"type":"Feature","geometry":{"type":"Point","coordinates":[130.9733333,31.38583333]},"properties":{"Name":"東串良町","Jusho":"http://www.higashikushira.com/"}}
,{"type":"Feature","geometry":{"type":"Point","coordinates":[130.7877778,31.24361111]},"properties":{"Name":"錦江町","Jusho":"https://www.town.kinko.lg.jp/"}}
,{"type":"Feature","geometry":{"type":"Point","coordinates":[130.7683333,31.21722222]},"properties":{"Name":"南大隅町","Jusho":"https://www.town.minamiosumi.lg.jp/"}}
,{"type":"Feature","geometry":{"type":"Point","coordinates":[130.9452778,31.34472222]},"properties":{"Name":"肝付町","Jusho":"https://kimotsuki-town.jp/"}}
,{"type":"Feature","geometry":{"type":"Point","coordinates":[130.9586111,30.53305556]},"properties":{"Name":"中種子町","Jusho":"https://town.nakatane.kagoshima.jp/"}}
,{"type":"Feature","geometry":{"type":"Point","coordinates":[130.9008333,30.41361111]},"properties":{"Name":"南種子町","Jusho":"http://www.town.minamitane.kagoshima.jp/"}}
,{"type":"Feature","geometry":{"type":"Point","coordinates":[130.665,30.37111111]},"properties":{"Name":"屋久島町","Jusho":"http://www.town.yakushima.kagoshima.jp/"}}
,{"type":"Feature","geometry":{"type":"Point","coordinates":[129.3952778,28.35805556]},"properties":{"Name":"大和村","Jusho":"https://www.vill.yamato.lg.jp/"}}
,{"type":"Feature","geometry":{"type":"Point","coordinates":[129.2975,28.28083333]},"properties":{"Name":"宇検村","Jusho":"https://www.uken.net/"}}
,{"type":"Feature","geometry":{"type":"Point","coordinates":[129.3147222,28.14638889]},"properties":{"Name":"瀬戸内町","Jusho":"https://www.town.setouchi.lg.jp/"}}
,{"type":"Feature","geometry":{"type":"Point","coordinates":[129.5894444,28.41305556]},"properties":{"Name":"龍郷町","Jusho":"https://www.town.tatsugo.lg.jp/"}}
,{"type":"Feature","geometry":{"type":"Point","coordinates":[129.94,28.31694444]},"properties":{"Name":"喜界町","Jusho":"https://www.town.kikai.lg.jp/"}}
,{"type":"Feature","geometry":{"type":"Point","coordinates":[129.0186111,27.72666667]},"properties":{"Name":"徳之島町","Jusho":"https://www.tokunoshima-town.org/"}}
,{"type":"Feature","geometry":{"type":"Point","coordinates":[128.8977778,27.80916667]},"properties":{"Name":"天城町","Jusho":"https://www.town.amagi.lg.jp/"}}
,{"type":"Feature","geometry":{"type":"Point","coordinates":[128.9375,27.67361111]},"properties":{"Name":"伊仙町","Jusho":"https://www.town.isen.kagoshima.jp/"}}
,{"type":"Feature","geometry":{"type":"Point","coordinates":[128.6552778,27.39222222]},"properties":{"Name":"和泊町","Jusho":"https://www.town.wadomari.lg.jp/"}}
,{"type":"Feature","geometry":{"type":"Point","coordinates":[128.5736111,27.33361111]},"properties":{"Name":"知名町","Jusho":"https://www.town.china.lg.jp/"}}
,{"type":"Feature","geometry":{"type":"Point","coordinates":[128.4147222,27.04861111]},"properties":{"Name":"与論町","Jusho":"http://www.yoron.jp/"}}
]};