var url={"type":"FeatureCollection","name":"kanagawa","features":[
{"type":"Feature","geometry":{"type":"Point","coordinates":[139.6380556,35.44416667]},"properties":{"Name":"横浜市","Jusho":"https://www.city.yokohama.lg.jp/"}}
,{"type":"Feature","geometry":{"type":"Point","coordinates":[139.6825,35.50833333]},"properties":{"Name":"横浜市 鶴見区","Jusho":"https://www.city.yokohama.lg.jp/tsurumi/"}}
,{"type":"Feature","geometry":{"type":"Point","coordinates":[139.6294444,35.47694444]},"properties":{"Name":"横浜市 神奈川区","Jusho":"https://www.city.yokohama.lg.jp/kanagawa/"}}
,{"type":"Feature","geometry":{"type":"Point","coordinates":[139.6169444,35.45361111]},"properties":{"Name":"横浜市 西区","Jusho":"https://www.city.yokohama.lg.jp/nishi/"}}
,{"type":"Feature","geometry":{"type":"Point","coordinates":[139.6422222,35.44472222]},"properties":{"Name":"横浜市 中区","Jusho":"https://www.city.yokohama.lg.jp/naka/"}}
,{"type":"Feature","geometry":{"type":"Point","coordinates":[139.6088889,35.43138889]},"properties":{"Name":"横浜市 南区","Jusho":"https://www.city.yokohama.lg.jp/minami/"}}
,{"type":"Feature","geometry":{"type":"Point","coordinates":[139.5961111,35.46]},"properties":{"Name":"横浜市 保土ケ谷区","Jusho":"https://www.city.yokohama.lg.jp/hodogaya/"}}
,{"type":"Feature","geometry":{"type":"Point","coordinates":[139.6188889,35.40222222]},"properties":{"Name":"横浜市 磯子区","Jusho":"https://www.city.yokohama.lg.jp/isogo/"}}
,{"type":"Feature","geometry":{"type":"Point","coordinates":[139.6244444,35.3375]},"properties":{"Name":"横浜市 金沢区","Jusho":"https://www.city.yokohama.lg.jp/kanazawa/"}}
,{"type":"Feature","geometry":{"type":"Point","coordinates":[139.6330556,35.51888889]},"properties":{"Name":"横浜市 港北区","Jusho":"https://www.city.yokohama.lg.jp/kohoku/"}}
,{"type":"Feature","geometry":{"type":"Point","coordinates":[139.5325,35.39638889]},"properties":{"Name":"横浜市 戸塚区","Jusho":"https://www.city.yokohama.lg.jp/totsuka/"}}
,{"type":"Feature","geometry":{"type":"Point","coordinates":[139.5913889,35.40055556]},"properties":{"Name":"横浜市 港南区","Jusho":"https://www.city.yokohama.lg.jp/konan/"}}
,{"type":"Feature","geometry":{"type":"Point","coordinates":[139.5447222,35.47472222]},"properties":{"Name":"横浜市 旭区","Jusho":"https://www.city.yokohama.lg.jp/asahi/"}}
,{"type":"Feature","geometry":{"type":"Point","coordinates":[139.5380556,35.5125]},"properties":{"Name":"横浜市 緑区","Jusho":"https://www.city.yokohama.lg.jp/midori/"}}
,{"type":"Feature","geometry":{"type":"Point","coordinates":[139.4991667,35.46638889]},"properties":{"Name":"横浜市 瀬谷区","Jusho":"https://www.city.yokohama.lg.jp/seya/"}}
,{"type":"Feature","geometry":{"type":"Point","coordinates":[139.5541667,35.36444444]},"properties":{"Name":"横浜市 栄区","Jusho":"https://www.city.yokohama.lg.jp/sakae/"}}
,{"type":"Feature","geometry":{"type":"Point","coordinates":[139.4886111,35.41777778]},"properties":{"Name":"横浜市 泉区","Jusho":"https://www.city.yokohama.lg.jp/izumi/"}}
,{"type":"Feature","geometry":{"type":"Point","coordinates":[139.5372222,35.55277778]},"properties":{"Name":"横浜市 青葉区","Jusho":"https://www.city.yokohama.lg.jp/aoba/"}}
,{"type":"Feature","geometry":{"type":"Point","coordinates":[139.5705556,35.54472222]},"properties":{"Name":"横浜市 都筑区","Jusho":"https://www.city.yokohama.lg.jp/tsuzuki/"}}
,{"type":"Feature","geometry":{"type":"Point","coordinates":[139.7030556,35.53083333]},"properties":{"Name":"川崎市","Jusho":"http://www.city.kawasaki.jp/"}}
,{"type":"Feature","geometry":{"type":"Point","coordinates":[139.7038889,35.52972222]},"properties":{"Name":"川崎市 川崎区","Jusho":"http://www.city.kawasaki.jp/kawasaki/"}}
,{"type":"Feature","geometry":{"type":"Point","coordinates":[139.6875,35.54444444]},"properties":{"Name":"川崎市 幸区","Jusho":"http://www.city.kawasaki.jp/saiwai/"}}
,{"type":"Feature","geometry":{"type":"Point","coordinates":[139.6558333,35.57611111]},"properties":{"Name":"川崎市 中原区","Jusho":"http://www.city.kawasaki.jp/nakahara/"}}
,{"type":"Feature","geometry":{"type":"Point","coordinates":[139.6080556,35.59944444]},"properties":{"Name":"川崎市 高津区","Jusho":"http://www.city.kawasaki.jp/takatsu/"}}
,{"type":"Feature","geometry":{"type":"Point","coordinates":[139.5619444,35.61972222]},"properties":{"Name":"川崎市 多摩区","Jusho":"http://www.city.kawasaki.jp/tama/"}}
,{"type":"Feature","geometry":{"type":"Point","coordinates":[139.5786111,35.58916667]},"properties":{"Name":"川崎市 宮前区","Jusho":"http://www.city.kawasaki.jp/miyamae/"}}
,{"type":"Feature","geometry":{"type":"Point","coordinates":[139.5058333,35.60388889]},"properties":{"Name":"川崎市 麻生区","Jusho":"http://www.city.kawasaki.jp/asao/"}}
,{"type":"Feature","geometry":{"type":"Point","coordinates":[139.3733333,35.57138889]},"properties":{"Name":"相模原市","Jusho":"https://www.city.sagamihara.kanagawa.jp/"}}
,{"type":"Feature","geometry":{"type":"Point","coordinates":[139.345,35.59611111]},"properties":{"Name":"相模原市 緑区","Jusho":"https://www.city.sagamihara.kanagawa.jp/midoriku/index.html"}}
,{"type":"Feature","geometry":{"type":"Point","coordinates":[139.3733333,35.57138889]},"properties":{"Name":"相模原市 中央区","Jusho":"https://www.city.sagamihara.kanagawa.jp/chuoku/index.html"}}
,{"type":"Feature","geometry":{"type":"Point","coordinates":[139.4302778,35.53027778]},"properties":{"Name":"相模原市 南区","Jusho":"https://www.city.sagamihara.kanagawa.jp/minamiku/index.html"}}
,{"type":"Feature","geometry":{"type":"Point","coordinates":[139.6722222,35.28138889]},"properties":{"Name":"横須賀市","Jusho":"https://www.city.yokosuka.kanagawa.jp/index.html"}}
,{"type":"Feature","geometry":{"type":"Point","coordinates":[139.3497222,35.33555556]},"properties":{"Name":"平塚市","Jusho":"http://www.city.hiratsuka.kanagawa.jp/"}}
,{"type":"Feature","geometry":{"type":"Point","coordinates":[139.5469444,35.31916667]},"properties":{"Name":"鎌倉市","Jusho":"https://www.city.kamakura.kanagawa.jp/"}}
,{"type":"Feature","geometry":{"type":"Point","coordinates":[139.4913889,35.33916667]},"properties":{"Name":"藤沢市","Jusho":"https://www.city.fujisawa.kanagawa.jp/"}}
,{"type":"Feature","geometry":{"type":"Point","coordinates":[139.1522222,35.26472222]},"properties":{"Name":"小田原市","Jusho":"https://www.city.odawara.kanagawa.jp/"}}
,{"type":"Feature","geometry":{"type":"Point","coordinates":[139.4047222,35.33388889]},"properties":{"Name":"茅ヶ崎市","Jusho":"https://www.city.chigasaki.kanagawa.jp/"}}
,{"type":"Feature","geometry":{"type":"Point","coordinates":[139.5802778,35.29555556]},"properties":{"Name":"逗子市","Jusho":"https://www.city.zushi.kanagawa.jp/"}}
,{"type":"Feature","geometry":{"type":"Point","coordinates":[139.6205556,35.14416667]},"properties":{"Name":"三浦市","Jusho":"http://www.city.miura.kanagawa.jp/"}}
,{"type":"Feature","geometry":{"type":"Point","coordinates":[139.2202778,35.37472222]},"properties":{"Name":"秦野市","Jusho":"https://www.city.hadano.kanagawa.jp/www/index.html"}}
,{"type":"Feature","geometry":{"type":"Point","coordinates":[139.3625,35.44305556]},"properties":{"Name":"厚木市","Jusho":"https://www.city.atsugi.kanagawa.jp/"}}
,{"type":"Feature","geometry":{"type":"Point","coordinates":[139.4580556,35.4875]},"properties":{"Name":"大和市","Jusho":"http://www.city.yamato.lg.jp/"}}
,{"type":"Feature","geometry":{"type":"Point","coordinates":[139.315,35.40277778]},"properties":{"Name":"伊勢原市","Jusho":"https://www.city.isehara.kanagawa.jp/"}}
,{"type":"Feature","geometry":{"type":"Point","coordinates":[139.3908333,35.44638889]},"properties":{"Name":"海老名市","Jusho":"https://www.city.ebina.kanagawa.jp/index.html"}}
,{"type":"Feature","geometry":{"type":"Point","coordinates":[139.4075,35.48861111]},"properties":{"Name":"座間市","Jusho":"https://www.city.zama.kanagawa.jp/www/toppage/0000000000000/APM03000.html"}}
,{"type":"Feature","geometry":{"type":"Point","coordinates":[139.1,35.32055556]},"properties":{"Name":"南足柄市","Jusho":"https://www.city.minamiashigara.kanagawa.jp/"}}
,{"type":"Feature","geometry":{"type":"Point","coordinates":[139.4269444,35.43722222]},"properties":{"Name":"綾瀬市","Jusho":"https://www.city.ayase.kanagawa.jp/"}}
,{"type":"Feature","geometry":{"type":"Point","coordinates":[139.5863889,35.27194444]},"properties":{"Name":"葉山町","Jusho":"https://www.town.hayama.lg.jp/"}}
,{"type":"Feature","geometry":{"type":"Point","coordinates":[139.3841667,35.37305556]},"properties":{"Name":"寒川町","Jusho":"https://www.town.samukawa.kanagawa.jp/"}}
,{"type":"Feature","geometry":{"type":"Point","coordinates":[139.3113889,35.30694444]},"properties":{"Name":"大磯町","Jusho":"https://www.town.oiso.kanagawa.jp/"}}
,{"type":"Feature","geometry":{"type":"Point","coordinates":[139.2552778,35.29944444]},"properties":{"Name":"二宮町","Jusho":"http://www.town.ninomiya.kanagawa.jp/"}}
,{"type":"Feature","geometry":{"type":"Point","coordinates":[139.2188889,35.33083333]},"properties":{"Name":"中井町","Jusho":"https://www.town.nakai.kanagawa.jp/forms/top/top.aspx"}}
,{"type":"Feature","geometry":{"type":"Point","coordinates":[139.1563889,35.32666667]},"properties":{"Name":"大井町","Jusho":"https://www.town.oi.kanagawa.jp/"}}
,{"type":"Feature","geometry":{"type":"Point","coordinates":[139.1394444,35.34833333]},"properties":{"Name":"松田町","Jusho":"https://town.matsuda.kanagawa.jp/"}}
,{"type":"Feature","geometry":{"type":"Point","coordinates":[139.0838889,35.36055556]},"properties":{"Name":"山北町","Jusho":"https://www.town.yamakita.kanagawa.jp/"}}
,{"type":"Feature","geometry":{"type":"Point","coordinates":[139.1233333,35.33638889]},"properties":{"Name":"開成町","Jusho":"https://www.town.kaisei.kanagawa.jp/forms/top/top.aspx"}}
,{"type":"Feature","geometry":{"type":"Point","coordinates":[139.1069444,35.2325]},"properties":{"Name":"箱根町","Jusho":"https://www.town.hakone.kanagawa.jp/"}}
,{"type":"Feature","geometry":{"type":"Point","coordinates":[139.1372222,35.15833333]},"properties":{"Name":"真鶴町","Jusho":"https://www.town.manazuru.kanagawa.jp/"}}
,{"type":"Feature","geometry":{"type":"Point","coordinates":[139.1083333,35.14777778]},"properties":{"Name":"湯河原町","Jusho":"https://www.town.yugawara.kanagawa.jp/"}}
,{"type":"Feature","geometry":{"type":"Point","coordinates":[139.3216667,35.52888889]},"properties":{"Name":"愛川町","Jusho":"https://www.town.aikawa.kanagawa.jp/"}}
,{"type":"Feature","geometry":{"type":"Point","coordinates":[139.2763889,35.48222222]},"properties":{"Name":"清川村","Jusho":"https://www.town.kiyokawa.kanagawa.jp/"}}
]};