var url={"type":"FeatureCollection","name":"nagano","features":[
{"type":"Feature","geometry":{"type":"Point","coordinates":[138.1944444,36.64861111]},"properties":{"Name":"長野市","Jusho":"https://www.city.nagano.nagano.jp/"}}
,{"type":"Feature","geometry":{"type":"Point","coordinates":[137.9719444,36.23805556]},"properties":{"Name":"松本市","Jusho":"https://www.city.matsumoto.nagano.jp/"}}
,{"type":"Feature","geometry":{"type":"Point","coordinates":[138.2491667,36.40194444]},"properties":{"Name":"上田市","Jusho":"https://www.city.ueda.nagano.jp/"}}
,{"type":"Feature","geometry":{"type":"Point","coordinates":[138.0494444,36.06694444]},"properties":{"Name":"岡谷市","Jusho":"https://www.city.okaya.lg.jp/"}}
,{"type":"Feature","geometry":{"type":"Point","coordinates":[137.8219444,35.51472222]},"properties":{"Name":"飯田市","Jusho":"https://www.city.iida.lg.jp/"}}
,{"type":"Feature","geometry":{"type":"Point","coordinates":[138.1141667,36.03916667]},"properties":{"Name":"諏訪市","Jusho":"https://www.city.suwa.lg.jp/www/index.jsp"}}
,{"type":"Feature","geometry":{"type":"Point","coordinates":[138.3069444,36.65111111]},"properties":{"Name":"須坂市","Jusho":"https://www.city.suzaka.nagano.jp/"}}
,{"type":"Feature","geometry":{"type":"Point","coordinates":[138.4261111,36.32694444]},"properties":{"Name":"小諸市","Jusho":"https://www.city.komoro.lg.jp/"}}
,{"type":"Feature","geometry":{"type":"Point","coordinates":[137.9538889,35.8275]},"properties":{"Name":"伊那市","Jusho":"https://www.inacity.jp/"}}
,{"type":"Feature","geometry":{"type":"Point","coordinates":[137.9338889,35.72888889]},"properties":{"Name":"駒ヶ根市","Jusho":"https://www.city.komagane.nagano.jp/"}}
,{"type":"Feature","geometry":{"type":"Point","coordinates":[138.3694444,36.74194444]},"properties":{"Name":"中野市","Jusho":"https://www.city.nakano.nagano.jp/"}}
,{"type":"Feature","geometry":{"type":"Point","coordinates":[137.8508333,36.50305556]},"properties":{"Name":"大町市","Jusho":"https://www.city.omachi.nagano.jp/"}}
,{"type":"Feature","geometry":{"type":"Point","coordinates":[138.3655556,36.85166667]},"properties":{"Name":"飯山市","Jusho":"https://www.city.iiyama.nagano.jp/"}}
,{"type":"Feature","geometry":{"type":"Point","coordinates":[138.1588889,35.99555556]},"properties":{"Name":"茅野市","Jusho":"https://www.city.chino.lg.jp/"}}
,{"type":"Feature","geometry":{"type":"Point","coordinates":[137.9536111,36.115]},"properties":{"Name":"塩尻市","Jusho":"https://www.city.shiojiri.lg.jp/"}}
,{"type":"Feature","geometry":{"type":"Point","coordinates":[138.4769444,36.24888889]},"properties":{"Name":"佐久市","Jusho":"https://www.city.saku.nagano.jp/"}}
,{"type":"Feature","geometry":{"type":"Point","coordinates":[138.12,36.53388889]},"properties":{"Name":"千曲市","Jusho":"https://www.city.chikuma.lg.jp/"}}
,{"type":"Feature","geometry":{"type":"Point","coordinates":[138.3305556,36.35944444]},"properties":{"Name":"東御市","Jusho":"https://www.city.tomi.nagano.jp/"}}
,{"type":"Feature","geometry":{"type":"Point","coordinates":[137.8997222,36.30277778]},"properties":{"Name":"安曇野市","Jusho":"https://www.city.azumino.nagano.jp/"}}
,{"type":"Feature","geometry":{"type":"Point","coordinates":[138.4836111,36.095]},"properties":{"Name":"小海町","Jusho":"https://www.koumi-town.jp/"}}
,{"type":"Feature","geometry":{"type":"Point","coordinates":[138.5783333,35.97555556]},"properties":{"Name":"川上村","Jusho":"http://www.vill.kawakami.nagano.jp/www/index.html"}}
,{"type":"Feature","geometry":{"type":"Point","coordinates":[138.4922222,36.02083333]},"properties":{"Name":"南牧村","Jusho":"http://www.minamimakimura.jp/"}}
,{"type":"Feature","geometry":{"type":"Point","coordinates":[138.5469444,36.03611111]},"properties":{"Name":"南相木村","Jusho":"http://www.minamiaiki.jp/"}}
,{"type":"Feature","geometry":{"type":"Point","coordinates":[138.5511111,36.05916667]},"properties":{"Name":"北相木村","Jusho":"http://vill.kitaaiki.nagano.jp/"}}
,{"type":"Feature","geometry":{"type":"Point","coordinates":[138.4833333,36.16111111]},"properties":{"Name":"佐久穂町","Jusho":"https://www.town.sakuho.nagano.jp/"}}
,{"type":"Feature","geometry":{"type":"Point","coordinates":[138.5969444,36.34833333]},"properties":{"Name":"軽井沢町","Jusho":"https://www.town.karuizawa.lg.jp/www/index.html"}}
,{"type":"Feature","geometry":{"type":"Point","coordinates":[138.5088889,36.32138889]},"properties":{"Name":"御代田町","Jusho":"https://www.town.miyota.nagano.jp/"}}
,{"type":"Feature","geometry":{"type":"Point","coordinates":[138.3161111,36.27194444]},"properties":{"Name":"立科町","Jusho":"https://www.town.tateshina.nagano.jp/"}}
,{"type":"Feature","geometry":{"type":"Point","coordinates":[138.1286111,36.37]},"properties":{"Name":"青木村","Jusho":"http://www.vill.aoki.nagano.jp/"}}
,{"type":"Feature","geometry":{"type":"Point","coordinates":[138.2677778,36.25611111]},"properties":{"Name":"長和町","Jusho":"https://town.nagawa.nagano.jp/"}}
,{"type":"Feature","geometry":{"type":"Point","coordinates":[138.0802778,36.06972222]},"properties":{"Name":"下諏訪町","Jusho":"http://www.town.shimosuwa.lg.jp/www/index.html"}}
,{"type":"Feature","geometry":{"type":"Point","coordinates":[138.2408333,35.91472222]},"properties":{"Name":"富士見町","Jusho":"https://www.town.fujimi.lg.jp/"}}
,{"type":"Feature","geometry":{"type":"Point","coordinates":[138.2175,35.96444444]},"properties":{"Name":"原村","Jusho":"https://www.vill.hara.lg.jp/"}}
,{"type":"Feature","geometry":{"type":"Point","coordinates":[137.9875,35.9825]},"properties":{"Name":"辰野町","Jusho":"http://www.town.tatsuno.nagano.jp/"}}
,{"type":"Feature","geometry":{"type":"Point","coordinates":[137.9819444,35.915]},"properties":{"Name":"箕輪町","Jusho":"https://www.town.minowa.lg.jp/"}}
,{"type":"Feature","geometry":{"type":"Point","coordinates":[137.9194444,35.67638889]},"properties":{"Name":"飯島町","Jusho":"https://www.town.iijima.lg.jp/"}}
,{"type":"Feature","geometry":{"type":"Point","coordinates":[137.9752778,35.87277778]},"properties":{"Name":"南箕輪村","Jusho":"https://www.vill.minamiminowa.lg.jp/"}}
,{"type":"Feature","geometry":{"type":"Point","coordinates":[137.9461111,35.63444444]},"properties":{"Name":"中川村","Jusho":"https://www.vill.nakagawa.nagano.jp/"}}
,{"type":"Feature","geometry":{"type":"Point","coordinates":[137.9444444,35.76888889]},"properties":{"Name":"宮田村","Jusho":"https://www.vill.miyada.nagano.jp/?"}}
,{"type":"Feature","geometry":{"type":"Point","coordinates":[137.9097222,35.59722222]},"properties":{"Name":"松川町","Jusho":"https://www.town.matsukawa.lg.jp/"}}
,{"type":"Feature","geometry":{"type":"Point","coordinates":[137.8786111,35.55138889]},"properties":{"Name":"高森町","Jusho":"https://www.town.nagano-takamori.lg.jp/"}}
,{"type":"Feature","geometry":{"type":"Point","coordinates":[137.8161111,35.32361111]},"properties":{"Name":"阿南町","Jusho":"http://www.town.anan.nagano.jp/"}}
,{"type":"Feature","geometry":{"type":"Point","coordinates":[137.7475,35.44388889]},"properties":{"Name":"阿智村","Jusho":"https://www.vill.achi.lg.jp/"}}
,{"type":"Feature","geometry":{"type":"Point","coordinates":[137.6302778,35.32333333]},"properties":{"Name":"平谷村","Jusho":"http://hirayamura.jp/"}}
,{"type":"Feature","geometry":{"type":"Point","coordinates":[137.5811111,35.25305556]},"properties":{"Name":"根羽村","Jusho":"http://nebamura.jp/"}}
,{"type":"Feature","geometry":{"type":"Point","coordinates":[137.7861111,35.3975]},"properties":{"Name":"下條村","Jusho":"https://www.vill-shimojo.jp/"}}
,{"type":"Feature","geometry":{"type":"Point","coordinates":[137.7111111,35.27111111]},"properties":{"Name":"売木村","Jusho":"http://www.urugi.jp/"}}
,{"type":"Feature","geometry":{"type":"Point","coordinates":[137.8544444,35.27638889]},"properties":{"Name":"天龍村","Jusho":"http://www.vill-tenryu.jp/"}}
,{"type":"Feature","geometry":{"type":"Point","coordinates":[137.8458333,35.37722222]},"properties":{"Name":"泰阜村","Jusho":"https://vill.yasuoka.nagano.jp/"}}
,{"type":"Feature","geometry":{"type":"Point","coordinates":[137.8738889,35.51388889]},"properties":{"Name":"喬木村","Jusho":"http://www.vill.takagi.nagano.jp/"}}
,{"type":"Feature","geometry":{"type":"Point","coordinates":[137.8958333,35.55138889]},"properties":{"Name":"豊丘村","Jusho":"https://www.vill.nagano-toyooka.lg.jp/"}}
,{"type":"Feature","geometry":{"type":"Point","coordinates":[138.0341667,35.57833333]},"properties":{"Name":"大鹿村","Jusho":"http://www.vill.ooshika.nagano.jp/"}}
,{"type":"Feature","geometry":{"type":"Point","coordinates":[137.6941667,35.78388889]},"properties":{"Name":"上松町","Jusho":"http://www.town.agematsu.nagano.jp/"}}
,{"type":"Feature","geometry":{"type":"Point","coordinates":[137.6088889,35.60361111]},"properties":{"Name":"南木曽町","Jusho":"http://www.town.nagiso.nagano.jp/"}}
,{"type":"Feature","geometry":{"type":"Point","coordinates":[137.7830556,35.93638889]},"properties":{"Name":"木祖村","Jusho":"http://www.vill.kiso.nagano.jp/"}}
,{"type":"Feature","geometry":{"type":"Point","coordinates":[137.5511111,35.80944444]},"properties":{"Name":"王滝村","Jusho":"http://www.vill.otaki.nagano.jp/"}}
,{"type":"Feature","geometry":{"type":"Point","coordinates":[137.665,35.68277778]},"properties":{"Name":"大桑村","Jusho":"http://www.vill.ookuwa.nagano.jp/"}}
,{"type":"Feature","geometry":{"type":"Point","coordinates":[137.6916667,35.8425]},"properties":{"Name":"木曽町","Jusho":"https://www.town-kiso.com/"}}
,{"type":"Feature","geometry":{"type":"Point","coordinates":[138.0452778,36.45611111]},"properties":{"Name":"麻績村","Jusho":"http://www.vill.omi.nagano.jp/"}}
,{"type":"Feature","geometry":{"type":"Point","coordinates":[137.9275,36.42527778]},"properties":{"Name":"生坂村","Jusho":"http://www.village.ikusaka.nagano.jp/"}}
,{"type":"Feature","geometry":{"type":"Point","coordinates":[137.8788889,36.16805556]},"properties":{"Name":"山形村","Jusho":"https://www.vill.yamagata.nagano.jp/index.html"}}
,{"type":"Feature","geometry":{"type":"Point","coordinates":[137.8663889,36.12361111]},"properties":{"Name":"朝日村","Jusho":"https://www.vill.asahi.nagano.jp/"}}
,{"type":"Feature","geometry":{"type":"Point","coordinates":[138.0152778,36.42638889]},"properties":{"Name":"筑北村","Jusho":"http://www.vill.chikuhoku.lg.jp/"}}
,{"type":"Feature","geometry":{"type":"Point","coordinates":[137.8747222,36.42138889]},"properties":{"Name":"池田町","Jusho":"https://www.ikedamachi.net/"}}
,{"type":"Feature","geometry":{"type":"Point","coordinates":[137.8544444,36.42416667]},"properties":{"Name":"松川村","Jusho":"http://www.vill.matsukawa.nagano.jp/"}}
,{"type":"Feature","geometry":{"type":"Point","coordinates":[137.8622222,36.69833333]},"properties":{"Name":"白馬村","Jusho":"https://www.vill.hakuba.nagano.jp/"}}
,{"type":"Feature","geometry":{"type":"Point","coordinates":[137.9083333,36.77916667]},"properties":{"Name":"小谷村","Jusho":"http://www.vill.otari.nagano.jp/www/menu.html"}}
,{"type":"Feature","geometry":{"type":"Point","coordinates":[138.1802778,36.46194444]},"properties":{"Name":"坂城町","Jusho":"http://www.town.sakaki.nagano.jp/www/index.html"}}
,{"type":"Feature","geometry":{"type":"Point","coordinates":[138.3122222,36.69777778]},"properties":{"Name":"小布施町","Jusho":"https://www.town.obuse.nagano.jp/"}}
,{"type":"Feature","geometry":{"type":"Point","coordinates":[138.3630556,36.67972222]},"properties":{"Name":"高山村","Jusho":"https://www.vill.takayama.nagano.jp/"}}
,{"type":"Feature","geometry":{"type":"Point","coordinates":[138.4125,36.74472222]},"properties":{"Name":"山ノ内町","Jusho":"http://www.town.yamanouchi.nagano.jp/"}}
,{"type":"Feature","geometry":{"type":"Point","coordinates":[138.4066667,36.85861111]},"properties":{"Name":"木島平村","Jusho":"http://www.vill.kijimadaira.lg.jp/"}}
,{"type":"Feature","geometry":{"type":"Point","coordinates":[138.4405556,36.92277778]},"properties":{"Name":"野沢温泉村","Jusho":"http://www.vill.nozawaonsen.nagano.jp/"}}
,{"type":"Feature","geometry":{"type":"Point","coordinates":[138.2069444,36.80638889]},"properties":{"Name":"信濃町","Jusho":"https://www.town.shinano.lg.jp/"}}
,{"type":"Feature","geometry":{"type":"Point","coordinates":[137.9744444,36.61694444]},"properties":{"Name":"小川村","Jusho":"http://www.vill.ogawa.nagano.jp/"}}
,{"type":"Feature","geometry":{"type":"Point","coordinates":[138.2355556,36.755]},"properties":{"Name":"飯綱町","Jusho":"https://www.town.iizuna.nagano.jp/"}}
,{"type":"Feature","geometry":{"type":"Point","coordinates":[138.5775,36.9875]},"properties":{"Name":"栄村","Jusho":"http://www.vill.sakae.nagano.jp/"}}
]};