var url={"type":"FeatureCollection","name":"tottori","features":[
{"type":"Feature","geometry":{"type":"Point","coordinates":[134.2352778,35.50111111]},"properties":{"Name":"鳥取市","Jusho":"https://www.city.tottori.lg.jp/www/index.html"}}
,{"type":"Feature","geometry":{"type":"Point","coordinates":[133.3311111,35.42805556]},"properties":{"Name":"米子市","Jusho":"https://www.city.yonago.lg.jp/"}}
,{"type":"Feature","geometry":{"type":"Point","coordinates":[133.8255556,35.43]},"properties":{"Name":"倉吉市","Jusho":"https://www.city.kurayoshi.lg.jp/"}}
,{"type":"Feature","geometry":{"type":"Point","coordinates":[133.2316667,35.53972222]},"properties":{"Name":"境港市","Jusho":"https://www.city.sakaiminato.lg.jp/"}}
,{"type":"Feature","geometry":{"type":"Point","coordinates":[134.3319444,35.57583333]},"properties":{"Name":"岩美町","Jusho":"http://www.iwami.gr.jp/"}}
,{"type":"Feature","geometry":{"type":"Point","coordinates":[134.4008333,35.34]},"properties":{"Name":"若桜町","Jusho":"http://www.town.wakasa.tottori.jp/"}}
,{"type":"Feature","geometry":{"type":"Point","coordinates":[134.2266667,35.265]},"properties":{"Name":"智頭町","Jusho":"http://www1.town.chizu.tottori.jp/"}}
,{"type":"Feature","geometry":{"type":"Point","coordinates":[134.2508333,35.40916667]},"properties":{"Name":"八頭町","Jusho":"http://www.town.yazu.tottori.jp/"}}
,{"type":"Feature","geometry":{"type":"Point","coordinates":[133.8625,35.40861111]},"properties":{"Name":"三朝町","Jusho":"http://www.town.misasa.tottori.jp/"}}
,{"type":"Feature","geometry":{"type":"Point","coordinates":[133.8647222,35.49]},"properties":{"Name":"湯梨浜町","Jusho":"https://www.yurihama.jp/"}}
,{"type":"Feature","geometry":{"type":"Point","coordinates":[133.6927778,35.49527778]},"properties":{"Name":"琴浦町","Jusho":"https://www.town.kotoura.tottori.jp/"}}
,{"type":"Feature","geometry":{"type":"Point","coordinates":[133.7586111,35.49]},"properties":{"Name":"北栄町","Jusho":"http://www.e-hokuei.net/"}}
,{"type":"Feature","geometry":{"type":"Point","coordinates":[133.3805556,35.44027778]},"properties":{"Name":"日吉津村","Jusho":"https://www.hiezu.jp/"}}
,{"type":"Feature","geometry":{"type":"Point","coordinates":[133.4961111,35.51083333]},"properties":{"Name":"大山町","Jusho":"https://www.daisen.jp/"}}
,{"type":"Feature","geometry":{"type":"Point","coordinates":[133.3266667,35.34027778]},"properties":{"Name":"南部町","Jusho":"https://www.town.nanbu.tottori.jp/"}}
,{"type":"Feature","geometry":{"type":"Point","coordinates":[133.4075,35.38527778]},"properties":{"Name":"伯耆町","Jusho":"https://www.houki-town.jp/"}}
,{"type":"Feature","geometry":{"type":"Point","coordinates":[133.3061111,35.16305556]},"properties":{"Name":"日南町","Jusho":"http://www.town.nichinan.lg.jp/"}}
,{"type":"Feature","geometry":{"type":"Point","coordinates":[133.4427778,35.24083333]},"properties":{"Name":"日野町","Jusho":"https://www.town.hino.tottori.jp/"}}
,{"type":"Feature","geometry":{"type":"Point","coordinates":[133.4886111,35.28305556]},"properties":{"Name":"江府町","Jusho":"https://www.town-kofu.jp/"}}
]};